{"type": "FeatureCollection", "features": [{"type": "Feature", "geometry": {"type": "Point", "coordinates": [141.80455, 43.246601]}, "properties": {"pref_id": "1", "station_id": "1", "name": "三笠", "address": "068-2165 北海道三笠市岡山1056-1", "hours": "9:00〜18:00(4〜9月) 9:00〜17:00(10〜3月)", "uri": "https://www.michi-no-eki.jp/stations/view/1", "old_station_id": "hokkaido/mikasa"}}, {"type": "Feature", "geometry": {"type": "Point", "coordinates": [142.188894, 43.525518]}, "properties": {"pref_id": "1", "station_id": "2", "name": "スタープラザ 芦別", "address": "075-0014 北海道芦別市北4条東1-1", "hours": "9:00〜19:00(5〜10月)9:00〜18:00(11〜4月)", "uri": "https://www.michi-no-eki.jp/stations/view/2", "old_station_id": "hokkaido/suta%ef%bd%b0puraza-ashibetsu"}}, {"type": "Feature", "geometry": {"type": "Point", "coordinates": [142.572798, 43.169701]}, "properties": {"pref_id": "1", "station_id": "3", "name": "南ふらの", "address": "079-2403 北海道空知郡南富良野町字幾寅687", "hours": "9:00〜17:00(6〜9月は19:00まで)", "uri": "https://www.michi-no-eki.jp/stations/view/3", "old_station_id": "hokkaido/minamifurano"}}, {"type": "Feature", "geometry": {"type": "Point", "coordinates": [144.198127, 42.992735]}, "properties": {"pref_id": "1", "station_id": "4", "name": "しらぬか恋問", "address": "088-0562 北海道白糠郡白糠町コイトイ40-3", "hours": "9:00〜19:00(9〜4月は18:30まで)", "uri": "https://www.michi-no-eki.jp/stations/view/4", "old_station_id": "hokkaido/shiranuka-koitoi"}}, {"type": "Feature", "geometry": {"type": "Point", "coordinates": [142.320033, 44.558858]}, "properties": {"pref_id": "1", "station_id": "5", "name": "びふか", "address": "098-2362 北海道中川郡美深町字大手307-1", "hours": "9:00〜18:00", "uri": "https://www.michi-no-eki.jp/stations/view/5", "old_station_id": "hokkaido/bifuka"}}, {"type": "Feature", "geometry": {"type": "Point", "coordinates": [140.139289, 41.894342]}, "properties": {"pref_id": "1", "station_id": "6", "name": "江差", "address": "043-0024 北海道檜山郡江差町字尾山町1", "hours": "9:00〜17:00(4〜11月) 10:00〜16:00(12〜3月)", "uri": "https://www.michi-no-eki.jp/stations/view/6", "old_station_id": "hokkaido/esashi"}}, {"type": "Feature", "geometry": {"type": "Point", "coordinates": [141.096589, 42.855177]}, "properties": {"pref_id": "1", "station_id": "7", "name": "望羊中山", "address": "044-0223 北海道虻田郡喜茂別町字川上345", "hours": "8:30〜17:30", "uri": "https://www.michi-no-eki.jp/stations/view/7", "old_station_id": "hokkaido/boyo-nakayama"}}, {"type": "Feature", "geometry": {"type": "Point", "coordinates": [141.793647, 44.71412]}, "properties": {"pref_id": "1", "station_id": "8", "name": "富士見", "address": "098-3534 北海道天塩郡遠別町字富士見46-1", "hours": "9:00〜17:00", "uri": "https://www.michi-no-eki.jp/stations/view/8", "old_station_id": "hokkaido/fujimi"}}, {"type": "Feature", "geometry": {"type": "Point", "coordinates": [143.299194, 42.558862]}, "properties": {"pref_id": "1", "station_id": "9", "name": "忠類", "address": "089-1701 北海道中川郡幕別町忠類白銀町384-12", "hours": "9:00〜18:00", "uri": "https://www.michi-no-eki.jp/stations/view/9", "old_station_id": "hokkaido/chuurui"}}, {"type": "Feature", "geometry": {"type": "Point", "coordinates": [143.480611, 43.252265]}, "properties": {"pref_id": "1", "station_id": "10", "name": "足寄湖", "address": "089-3873 北海道足寄郡足寄町中矢673-4", "hours": "9:00〜17:00", "uri": "https://www.michi-no-eki.jp/stations/view/10", "old_station_id": "hokkaido/ashoroko"}}, {"type": "Feature", "geometry": {"type": "Point", "coordinates": [144.447719, 43.492391]}, "properties": {"pref_id": "1", "station_id": "11", "name": "摩周温泉", "address": "088-3203 北海道川上郡弟子屈町湯の島3-5-5", "hours": "8:00〜18:00(11〜4月は9:00〜17:00)", "uri": "https://www.michi-no-eki.jp/stations/view/11", "old_station_id": "hokkaido/mashuuonsen"}}, {"type": "Feature", "geometry": {"type": "Point", "coordinates": [142.257872, 44.729078]}, "properties": {"pref_id": "1", "station_id": "12", "name": "おといねっぷ", "address": "098-2501 北海道中川郡音威子府村字音威子府155", "hours": "売店9:30〜17:00 レストラン11:00〜17:00", "uri": "https://www.michi-no-eki.jp/stations/view/12", "old_station_id": "hokkaido/otoineppu"}}, {"type": "Feature", "geometry": {"type": "Point", "coordinates": [143.595699, 44.185182]}, "properties": {"pref_id": "1", "station_id": "13", "name": "かみゆうべつ温泉チューリップの湯", "address": "099-6329 北海道紋別郡湧別町中湧別中町3020-1", "hours": "10:00〜22:00", "uri": "https://www.michi-no-eki.jp/stations/view/13", "old_station_id": "hokkaido/kamiyuubetsuonsen-chu%ef%bd%b0rippunoyu"}}, {"type": "Feature", "geometry": {"type": "Point", "coordinates": [140.51678, 42.983435]}, "properties": {"pref_id": "1", "station_id": "14", "name": "いわない", "address": "045-0003 北海道岩内郡岩内町字万代47-4", "hours": "9:00〜18:00(4〜10月) 9:00〜17:30(11〜3月)", "uri": "https://www.michi-no-eki.jp/stations/view/14", "old_station_id": "hokkaido/iwanai"}}, {"type": "Feature", "geometry": {"type": "Point", "coordinates": [143.328723, 43.995941]}, "properties": {"pref_id": "1", "station_id": "15", "name": "まるせっぷ", "address": "099-0207 北海道紋別郡遠軽町丸瀬布元町42-2", "hours": "9:00〜17:00", "uri": "https://www.michi-no-eki.jp/stations/view/15", "old_station_id": "hokkaido/maruseppu"}}, {"type": "Feature", "geometry": {"type": "Point", "coordinates": [144.844018, 43.05767]}, "properties": {"pref_id": "1", "station_id": "16", "name": "厚岸グルメパーク", "address": "088-1119 北海道厚岸郡厚岸町住の江町2-2", "hours": "9:00〜18:00(4〜10月)  10:00〜18:00(11〜3月) ", "uri": "https://www.michi-no-eki.jp/stations/view/16", "old_station_id": "hokkaido/akkeshi-gurumepa%ef%bd%b0ku"}}, {"type": "Feature", "geometry": {"type": "Point", "coordinates": [141.875302, 43.751048]}, "properties": {"pref_id": "1", "station_id": "17", "name": "サンフラワー北竜", "address": "078-2511 北海道雨竜郡北竜町字板谷163-2", "hours": "8:00〜22:00", "uri": "https://www.michi-no-eki.jp/stations/view/17", "old_station_id": "hokkaido/sanfurawa%ef%bd%b0hokuryuu"}}, {"type": "Feature", "geometry": {"type": "Point", "coordinates": [142.634226, 42.220874]}, "properties": {"pref_id": "1", "station_id": "18", "name": "みついし", "address": "059-3233 北海道日高郡新ひだか町三石鳧舞161-2", "hours": "8:45〜17:30", "uri": "https://www.michi-no-eki.jp/stations/view/18", "old_station_id": "hokkaido/mitsuishi"}}, {"type": "Feature", "geometry": {"type": "Point", "coordinates": [140.216154, 41.916573]}, "properties": {"pref_id": "1", "station_id": "19", "name": "あっさぶ", "address": "043-1112 北海道檜山郡厚沢部町緑町72-1", "hours": "8:30〜18:00(5〜10月) 9:00〜17:00(11〜4月)", "uri": "https://www.michi-no-eki.jp/stations/view/19", "old_station_id": "hokkaido/assabu"}}, {"type": "Feature", "geometry": {"type": "Point", "coordinates": [140.013417, 42.686727]}, "properties": {"pref_id": "1", "station_id": "20", "name": "よってけ!島牧", "address": "048-0631 北海道島牧郡島牧村字千走11-1", "hours": "9:00〜18:00(7〜8月) 9:00〜17:00(9〜6月)", "uri": "https://www.michi-no-eki.jp/stations/view/20", "old_station_id": "hokkaido/yottekeshimamaki"}}, {"type": "Feature", "geometry": {"type": "Point", "coordinates": [139.876681, 42.212366]}, "properties": {"pref_id": "1", "station_id": "21", "name": "てっくいランド大成", "address": "043-0514 北海道久遠郡せたな町大成区平浜378", "hours": "9:00〜17:00, 9:00〜16:00(11〜3月), 9:00〜19:00(7月中旬〜8月中旬)", "uri": "https://www.michi-no-eki.jp/stations/view/21", "old_station_id": "hokkaido/tekkuirando-taisei"}}, {"type": "Feature", "geometry": {"type": "Point", "coordinates": [143.375004, 44.328341]}, "properties": {"pref_id": "1", "station_id": "22", "name": "オホーツク紋別", "address": "094-0023 北海道紋別市元紋別11-6", "hours": "9:00〜17:00", "uri": "https://www.michi-no-eki.jp/stations/view/22", "old_station_id": "hokkaido/oho%ef%bd%b0tsuku-mombetsu"}}, {"type": "Feature", "geometry": {"type": "Point", "coordinates": [140.568716, 42.098901]}, "properties": {"pref_id": "1", "station_id": "23", "name": "YOU･遊･もり", "address": "049-2311 北海道茅部郡森町字上台町326-18", "hours": "9:00〜17:30(3/21〜10/20) 9:00〜17:00(10/21〜3/20)", "uri": "https://www.michi-no-eki.jp/stations/view/23", "old_station_id": "hokkaido/yuu-yuu-mori"}}, {"type": "Feature", "geometry": {"type": "Point", "coordinates": [143.500531, 43.754644]}, "properties": {"pref_id": "1", "station_id": "24", "name": "おんねゆ温泉", "address": "091-0153 北海道北見市留辺蘂町松山1-4", "hours": "8:30〜17:00(4〜10月) 9:00〜16:30(11〜3月)", "uri": "https://www.michi-no-eki.jp/stations/view/24", "old_station_id": "hokkaido/onneyuonsen"}}, {"type": "Feature", "geometry": {"type": "Point", "coordinates": [140.106219, 42.011397]}, "properties": {"pref_id": "1", "station_id": "25", "name": "ルート229元和台", "address": "043-0114 北海道爾志郡乙部町字元和169", "hours": "8:30〜18:00(4〜10月) 9:00〜16:00(11〜3月)", "uri": "https://www.michi-no-eki.jp/stations/view/25", "old_station_id": "hokkaido/ru%ef%bd%b0to229-gennadai"}}, {"type": "Feature", "geometry": {"type": "Point", "coordinates": [141.888802, 43.433272]}, "properties": {"pref_id": "1", "station_id": "26", "name": "ハウスヤルビ奈井江", "address": "079-0312 北海道空知郡奈井江町字奈井江28-1", "hours": "9:00〜18:00(4〜9月) 9:00〜17:00(10〜3月)", "uri": "https://www.michi-no-eki.jp/stations/view/26", "old_station_id": "hokkaido/hausuyarubi-naie"}}, {"type": "Feature", "geometry": {"type": "Point", "coordinates": [141.654956, 44.137022]}, "properties": {"pref_id": "1", "station_id": "27", "name": "おびら鰊番屋", "address": "078-3454 北海道留萌郡小平町字鬼鹿広富", "hours": "8:00〜17:00", "uri": "https://www.michi-no-eki.jp/stations/view/27", "old_station_id": "hokkaido/obiranishimbanya"}}, {"type": "Feature", "geometry": {"type": "Point", "coordinates": [142.631813, 44.878376]}, "properties": {"pref_id": "1", "station_id": "28", "name": "マリーンアイランド岡島", "address": "098-5802 北海道枝幸郡枝幸町字岡島1978-13", "hours": "9:00〜17:00", "uri": "https://www.michi-no-eki.jp/stations/view/28", "old_station_id": "hokkaido/mari%ef%bd%b0nairandookashima"}}, {"type": "Feature", "geometry": {"type": "Point", "coordinates": [143.116955, 44.469498]}, "properties": {"pref_id": "1", "station_id": "29", "name": "おこっぺ", "address": "098-1614 北海道紋別郡興部町字興部(幸町)", "hours": "5月〜10月 9:00〜18:00、11月〜4月 9:00〜17:00", "uri": "https://www.michi-no-eki.jp/stations/view/29", "old_station_id": "hokkaido/okoppe"}}, {"type": "Feature", "geometry": {"type": "Point", "coordinates": [144.146957, 43.14402]}, "properties": {"pref_id": "1", "station_id": "30", "name": "阿寒丹頂の里", "address": "085-0245 北海道釧路市阿寒町上阿寒23-36-1", "hours": "5月〜9月 9:00〜18:00 10月〜4月 9:00〜17:00 観光案内所10:00〜16:00", "uri": "https://www.michi-no-eki.jp/stations/view/30", "old_station_id": "hokkaido/akan-tanchonosato"}}, {"type": "Feature", "geometry": {"type": "Point", "coordinates": [143.207419, 42.976584]}, "properties": {"pref_id": "1", "station_id": "31", "name": "おとふけ", "address": "080-0301 北海道河東郡音更町木野大通西19-5", "hours": "9:30〜18:30(5〜9月) 9:30〜17:30(10〜4月)", "uri": "https://www.michi-no-eki.jp/stations/view/31", "old_station_id": "hokkaido/otofuke"}}, {"type": "Feature", "geometry": {"type": "Point", "coordinates": [142.213402, 44.877462]}, "properties": {"pref_id": "1", "station_id": "32", "name": "ピンネシリ", "address": "098-5113 北海道枝幸郡中頓別町字敏音知72-7", "hours": "9:00〜17:00", "uri": "https://www.michi-no-eki.jp/stations/view/32", "old_station_id": "hokkaido/pinneshiri"}}, {"type": "Feature", "geometry": {"type": "Point", "coordinates": [141.130367, 42.698064]}, "properties": {"pref_id": "1", "station_id": "33", "name": "フォーレスト276大滝【2021年3月31日まで全館休館】", "address": "052-0303 北海道伊達市大滝区三階滝町637-5", "hours": "9:00〜18:00", "uri": "https://www.michi-no-eki.jp/stations/view/33", "old_station_id": null}}, {"type": "Feature", "geometry": {"type": "Point", "coordinates": [140.094966, 41.808496]}, "properties": {"pref_id": "1", "station_id": "34", "name": "上ノ国もんじゅ", "address": "049-0602 北海道檜山郡上ノ国町字原歌3", "hours": "9:00〜18:00(4〜10月) 9:00〜17:00(11〜3月)", "uri": "https://www.michi-no-eki.jp/stations/view/34", "old_station_id": "hokkaido/kaminokunimonju"}}, {"type": "Feature", "geometry": {"type": "Point", "coordinates": [140.385569, 43.165359]}, "properties": {"pref_id": "1", "station_id": "35", "name": "オスコイ!かもえない", "address": "045-0302 北海道古宇郡神恵内村大字赤石村字大森292-1", "hours": "9:00〜17:00", "uri": "https://www.michi-no-eki.jp/stations/view/35", "old_station_id": "hokkaido/osukoikamoenai"}}, {"type": "Feature", "geometry": {"type": "Point", "coordinates": [143.126839, 42.69214]}, "properties": {"pref_id": "1", "station_id": "36", "name": "なかさつない", "address": "089-1330 北海道河西郡中札内村大通南7-14", "hours": "9:00〜18:00(4〜10月) 9:00〜17:00(11〜3月)", "uri": "https://www.michi-no-eki.jp/stations/view/36", "old_station_id": "hokkaido/nakasatsunai"}}, {"type": "Feature", "geometry": {"type": "Point", "coordinates": [141.716616, 42.94998]}, "properties": {"pref_id": "1", "station_id": "37", "name": "マオイの丘公園", "address": "069-1464 北海道夕張郡長沼町東10線南7番地", "hours": "センターハウス開館時間:9:00〜18:00(4月・11月)、9:00〜20:00(5月〜10月)、9:00〜17:00(12月〜3月) ", "uri": "https://www.michi-no-eki.jp/stations/view/37", "old_station_id": "hokkaido/maoinokakoen"}}, {"type": "Feature", "geometry": {"type": "Point", "coordinates": [142.442007, 42.87679]}, "properties": {"pref_id": "1", "station_id": "38", "name": "樹海ロード日高", "address": "055-2301 北海道沙流郡日高町本町東1-298-1", "hours": "9:00〜18:00", "uri": "https://www.michi-no-eki.jp/stations/view/38", "old_station_id": "hokkaido/jukairo%ef%bd%b0dohidaka"}}, {"type": "Feature", "geometry": {"type": "Point", "coordinates": [140.899048, 42.559133]}, "properties": {"pref_id": "1", "station_id": "39", "name": "そうべつ情報館i(アイ)", "address": "052-0101 北海道有珠郡壮瞥町字滝之町384-1", "hours": "9:00〜17:30 (11/16〜3/31は17:00迄)", "uri": "https://www.michi-no-eki.jp/stations/view/39", "old_station_id": "hokkaido/sobetsujohokanai"}}, {"type": "Feature", "geometry": {"type": "Point", "coordinates": [140.702395, 42.799492]}, "properties": {"pref_id": "1", "station_id": "40", "name": "ニセコビュープラザ", "address": "048-1544 北海道虻田郡ニセコ町字元町77-10", "hours": "8:30〜18:00", "uri": "https://www.michi-no-eki.jp/stations/view/40", "old_station_id": "hokkaido/nisekobyu%ef%bd%b0puraza"}}, {"type": "Feature", "geometry": {"type": "Point", "coordinates": [140.335834, 41.601259]}, "properties": {"pref_id": "1", "station_id": "41", "name": "しりうち", "address": "049-1221 北海道上磯郡知内町字湯の里48-13", "hours": "8:00〜18:00", "uri": "https://www.michi-no-eki.jp/stations/view/41", "old_station_id": "hokkaido/shiriuchi"}}, {"type": "Feature", "geometry": {"type": "Point", "coordinates": [140.255731, 41.479134]}, "properties": {"pref_id": "1", "station_id": "42", "name": "横綱の里ふくしま", "address": "049-1312 北海道松前郡福島町字福島143-1", "hours": "9:00〜17:00", "uri": "https://www.michi-no-eki.jp/stations/view/42", "old_station_id": "hokkaido/yokozunanosato-fukushima"}}, {"type": "Feature", "geometry": {"type": "Point", "coordinates": [142.315691, 42.359836]}, "properties": {"pref_id": "1", "station_id": "43", "name": "サラブレッドロード新冠", "address": "059-2402 北海道新冠郡新冠町字中央町1-20", "hours": "10:00〜18:00", "uri": "https://www.michi-no-eki.jp/stations/view/43", "old_station_id": "hokkaido/sarabureddoro%ef%bd%b0do-niikappu"}}, {"type": "Feature", "geometry": {"type": "Point", "coordinates": [143.242585, 43.153871]}, "properties": {"pref_id": "1", "station_id": "44", "name": "ピア21しほろ", "address": "080-1200 北海道河東郡士幌町字士幌西2線147", "hours": "9:00〜18:00(4月〜11月) 9:00〜17:00(12月〜3月)", "uri": "https://www.michi-no-eki.jp/stations/view/44", "old_station_id": "hokkaido/pia21-shihoro"}}, {"type": "Feature", "geometry": {"type": "Point", "coordinates": [143.090986, 44.19689]}, "properties": {"pref_id": "1", "station_id": "45", "name": "香りの里たきのうえ", "address": "099-5602 北海道紋別郡滝上町旭町", "hours": "8:30 〜17:00", "uri": "https://www.michi-no-eki.jp/stations/view/45", "old_station_id": "hokkaido/kaorinosato-takinoe"}}, {"type": "Feature", "geometry": {"type": "Point", "coordinates": [141.894022, 43.662509]}, "properties": {"pref_id": "1", "station_id": "46", "name": "田園の里うりゅう", "address": "078-2600 北海道雨竜郡雨竜町字満寿28-3", "hours": "9:00〜18:00(5〜10月) 10:00〜16:00(11〜4月)", "uri": "https://www.michi-no-eki.jp/stations/view/46", "old_station_id": "hokkaido/denennosato-uryuu"}}, {"type": "Feature", "geometry": {"type": "Point", "coordinates": [140.943745, 42.342012]}, "properties": {"pref_id": "1", "station_id": "47", "name": "みたら室蘭", "address": "051-0036 北海道室蘭市祝津町4-16-15", "hours": "9:30〜21:00 (11〜3月は17:00まで、毎週木曜・祝日の場合は金曜定休日) ※当面の期間は18:00までの営業", "uri": "https://www.michi-no-eki.jp/stations/view/47", "old_station_id": "hokkaido/mitaramuroran"}}, {"type": "Feature", "geometry": {"type": "Point", "coordinates": [142.4895, 43.844134]}, "properties": {"pref_id": "1", "station_id": "48", "name": "とうま", "address": "078-1332 北海道上川郡当麻町字園別2区", "hours": "9:00〜18:00", "uri": "https://www.michi-no-eki.jp/stations/view/48", "old_station_id": "hokkaido/toma"}}, {"type": "Feature", "geometry": {"type": "Point", "coordinates": [140.788781, 43.188538]}, "properties": {"pref_id": "1", "station_id": "49", "name": "スペース・アップルよいち", "address": "046-0003 北海道余市郡余市町黒川町6-4", "hours": "9:00〜17:00", "uri": "https://www.michi-no-eki.jp/stations/view/49", "old_station_id": "hokkaido/supe%ef%bd%b0su-appuru-yoichi"}}, {"type": "Feature", "geometry": {"type": "Point", "coordinates": [141.706577, 44.367332]}, "properties": {"pref_id": "1", "station_id": "50", "name": "ほっと♡はぼろ", "address": "078-4113 北海道苫前郡羽幌町北3条1-29", "hours": "7:00〜22:00", "uri": "https://www.michi-no-eki.jp/stations/view/50", "old_station_id": "hokkaido/hotto-haboro"}}, {"type": "Feature", "geometry": {"type": "Point", "coordinates": [143.824142, 44.099918]}, "properties": {"pref_id": "1", "station_id": "51", "name": "サロマ湖", "address": "093-0421 北海道常呂郡佐呂間町字浪速121-3", "hours": "9:00〜18:00(11〜3月は9:00〜17:00)", "uri": "https://www.michi-no-eki.jp/stations/view/51", "old_station_id": "hokkaido/saromako"}}, {"type": "Feature", "geometry": {"type": "Point", "coordinates": [143.719206, 44.13082]}, "properties": {"pref_id": "1", "station_id": "52", "name": "愛ランド湧別", "address": "093-0652 北海道紋別郡湧別町志撫子6-2", "hours": "9:00〜17:30", "uri": "https://www.michi-no-eki.jp/stations/view/52", "old_station_id": "hokkaido/airando-yuubetsu"}}, {"type": "Feature", "geometry": {"type": "Point", "coordinates": [142.959733, 44.583037]}, "properties": {"pref_id": "1", "station_id": "53", "name": "おうむ", "address": "098-1702 北海道紋別郡雄武町字雄武1885-14", "hours": "8:00〜21:00 (5〜10月) 8:00〜20:00 (11〜4月)", "uri": "https://www.michi-no-eki.jp/stations/view/53", "old_station_id": "hokkaido/omu"}}, {"type": "Feature", "geometry": {"type": "Point", "coordinates": [142.177348, 45.329219]}, "properties": {"pref_id": "1", "station_id": "54", "name": "さるふつ公園", "address": "098-6222 北海道宗谷郡猿払村字浜鬼志別241-7", "hours": "9:00〜17:00", "uri": "https://www.michi-no-eki.jp/stations/view/54", "old_station_id": "hokkaido/sarufutsukoen"}}, {"type": "Feature", "geometry": {"type": "Point", "coordinates": [142.139546, 44.114633]}, "properties": {"pref_id": "1", "station_id": "55", "name": "森と湖の里ほろかない", "address": "074-0425 北海道雨竜郡幌加内町字政和第1", "hours": "10:00〜21:00     ", "uri": "https://www.michi-no-eki.jp/stations/view/55", "old_station_id": "hokkaido/moritomizuuminosato-horokanai"}}, {"type": "Feature", "geometry": {"type": "Point", "coordinates": [142.004244, 43.503388]}, "properties": {"pref_id": "1", "station_id": "56", "name": "うたしないチロルの湯", "address": "073-0406 北海道歌志内市字中村72-1", "hours": "9:00〜17:00", "uri": "https://www.michi-no-eki.jp/stations/view/56", "old_station_id": "hokkaido/utashinaichirorunoyu"}}, {"type": "Feature", "geometry": {"type": "Point", "coordinates": [140.380034, 42.672709]}, "properties": {"pref_id": "1", "station_id": "57", "name": "くろまつない", "address": "048-0134 北海道寿都郡黒松内町字白井川8-10", "hours": "9:00〜18:00(4〜10月) 9:00〜17:00(11〜3月)", "uri": "https://www.michi-no-eki.jp/stations/view/57", "old_station_id": "hokkaido/kuromatsunai"}}, {"type": "Feature", "geometry": {"type": "Point", "coordinates": [141.941478, 43.62344]}, "properties": {"pref_id": "1", "station_id": "58", "name": "たきかわ", "address": "079-0463 北海道滝川市江部乙町東11-13-3", "hours": "9:00〜18:00(4〜10月) 9:00〜17:00(11〜3月)", "uri": "https://www.michi-no-eki.jp/stations/view/58", "old_station_id": "hokkaido/takikawa"}}, {"type": "Feature", "geometry": {"type": "Point", "coordinates": [145.43837, 43.261674]}, "properties": {"pref_id": "1", "station_id": "59", "name": "スワン44ねむろ", "address": "086-0073 北海道根室市酪陽1", "hours": "9:00〜17:00(4〜6,10月) 9:00〜18:00(7〜9月) 9:00〜16:00(11〜3月)", "uri": "https://www.michi-no-eki.jp/stations/view/59", "old_station_id": "hokkaido/suwan44nemuro"}}, {"type": "Feature", "geometry": {"type": "Point", "coordinates": [141.835718, 43.451601]}, "properties": {"pref_id": "1", "station_id": "60", "name": "つるぬま", "address": "061-0600 北海道樺戸郡浦臼町字キナウスナイ186-214", "hours": "9:00〜18:00(4〜9月) 10:00〜17:00(10〜3月)", "uri": "https://www.michi-no-eki.jp/stations/view/60", "old_station_id": "hokkaido/tsurunuma"}}, {"type": "Feature", "geometry": {"type": "Point", "coordinates": [141.10163, 41.779487]}, "properties": {"pref_id": "1", "station_id": "61", "name": "なとわ・えさん", "address": "041-0525 北海道函館市日ノ浜町31-2", "hours": "9:00〜18:00(4〜9月) 9:00〜17:00(10〜3月)", "uri": "https://www.michi-no-eki.jp/stations/view/61", "old_station_id": "hokkaido/natowa-esan"}}, {"type": "Feature", "geometry": {"type": "Point", "coordinates": [140.667336, 42.125311]}, "properties": {"pref_id": "1", "station_id": "62", "name": "つど〜る・プラザ・さわら", "address": "049-2222 北海道茅部郡森町砂原2-358-1", "hours": "9:00〜17:00", "uri": "https://www.michi-no-eki.jp/stations/view/62", "old_station_id": null}}, {"type": "Feature", "geometry": {"type": "Point", "coordinates": [145.192089, 44.017454]}, "properties": {"pref_id": "1", "station_id": "63", "name": "知床・らうす", "address": "086-1833 北海道目梨郡羅臼町本町361-1", "hours": "9:00〜17:00(5〜10月) 10:00〜16:00(11〜4月)", "uri": "https://www.michi-no-eki.jp/stations/view/63", "old_station_id": "hokkaido/shiretoko-rausu"}}, {"type": "Feature", "geometry": {"type": "Point", "coordinates": [143.271848, 42.633311]}, "properties": {"pref_id": "1", "station_id": "64", "name": "さらべつ", "address": "089-1573 北海道河西郡更別村字弘和464-1", "hours": "9:00〜18:00", "uri": "https://www.michi-no-eki.jp/stations/view/64", "old_station_id": "hokkaido/sarabetsu"}}, {"type": "Feature", "geometry": {"type": "Point", "coordinates": [140.8771, 42.471721]}, "properties": {"pref_id": "1", "station_id": "65", "name": "だて歴史の杜", "address": "052-0012 北海道伊達市松ヶ枝町34-1", "hours": "9:00〜18:00", "uri": "https://www.michi-no-eki.jp/stations/view/65", "old_station_id": "hokkaido/daterekishinomori"}}, {"type": "Feature", "geometry": {"type": "Point", "coordinates": [142.348446, 43.76]}, "properties": {"pref_id": "1", "station_id": "66", "name": "あさひかわ", "address": "070-8004 北海道旭川市神楽4条6-1-12", "hours": "9:00〜20:00  (売店19:00まで)", "uri": "https://www.michi-no-eki.jp/stations/view/66", "old_station_id": "hokkaido/asahikawa"}}, {"type": "Feature", "geometry": {"type": "Point", "coordinates": [142.39758, 42.978859]}, "properties": {"pref_id": "1", "station_id": "67", "name": "自然体感しむかっぷ", "address": "079-2201 北海道勇払郡占冠村字中央", "hours": "9:00〜18:00", "uri": "https://www.michi-no-eki.jp/stations/view/67", "old_station_id": "hokkaido/shizentaikan-shimukappu"}}, {"type": "Feature", "geometry": {"type": "Point", "coordinates": [142.868068, 44.335988]}, "properties": {"pref_id": "1", "station_id": "68", "name": "にしおこっぺ花夢", "address": "098-1421 北海道紋別郡西興部村字上興部37", "hours": "9:00〜17:00", "uri": "https://www.michi-no-eki.jp/stations/view/68", "old_station_id": "hokkaido/nishiokoppe-kamu"}}, {"type": "Feature", "geometry": {"type": "Point", "coordinates": [143.742367, 43.467863]}, "properties": {"pref_id": "1", "station_id": "69", "name": "オーロラタウン93りくべつ", "address": "089-4315 北海道足寄郡陸別町大通", "hours": "9:00〜17:00", "uri": "https://www.michi-no-eki.jp/stations/view/69", "old_station_id": "hokkaido/o%ef%bd%b0rorataun93rikubetsu"}}, {"type": "Feature", "geometry": {"type": "Point", "coordinates": [144.453268, 43.933921]}, "properties": {"pref_id": "1", "station_id": "70", "name": "はなやか(葉菜野花)小清水", "address": "099-3452 北海道斜里郡小清水町字浜小清水474-7", "hours": "8:30〜17:30", "uri": "https://www.michi-no-eki.jp/stations/view/70", "old_station_id": "hokkaido/hanayaka-koshimizu"}}, {"type": "Feature", "geometry": {"type": "Point", "coordinates": [142.070593, 43.699483]}, "properties": {"pref_id": "1", "station_id": "71", "name": "ライスランドふかがわ", "address": "074-1271 北海道深川市音江町字広里59-7", "hours": "9:00〜19:00", "uri": "https://www.michi-no-eki.jp/stations/view/71", "old_station_id": "hokkaido/raisurando-fukagawa"}}, {"type": "Feature", "geometry": {"type": "Point", "coordinates": [142.067348, 44.801691]}, "properties": {"pref_id": "1", "station_id": "72", "name": "なかがわ", "address": "098-2805 北海道中川郡中川町字誉498-1", "hours": "9:00〜17:00", "uri": "https://www.michi-no-eki.jp/stations/view/72", "old_station_id": "hokkaido/nakagawa"}}, {"type": "Feature", "geometry": {"type": "Point", "coordinates": [140.884563, 42.739929]}, "properties": {"pref_id": "1", "station_id": "73", "name": "230ルスツ", "address": "048-1731 北海道虻田郡留寿都村字留寿都127", "hours": "9:00〜18:00(4月下旬〜10月) 9:00〜17:00(11〜4月下旬)", "uri": "https://www.michi-no-eki.jp/stations/view/73", "old_station_id": "hokkaido/niisammaru-rusutsu"}}, {"type": "Feature", "geometry": {"type": "Point", "coordinates": [141.747755, 44.884572]}, "properties": {"pref_id": "1", "station_id": "74", "name": "てしお", "address": "098-3305 北海道天塩郡天塩町新開通4-7227-2", "hours": "4月〜10月  9:00〜19:00                      11月〜3月 9:00〜17:00", "uri": "https://www.michi-no-eki.jp/stations/view/74", "old_station_id": "hokkaido/teshio"}}, {"type": "Feature", "geometry": {"type": "Point", "coordinates": [143.273259, 42.489824]}, "properties": {"pref_id": "1", "station_id": "75", "name": "コスモール大樹", "address": "089-2152 北海道広尾郡大樹町西本通98", "hours": "9:30〜18:00", "uri": "https://www.michi-no-eki.jp/stations/view/75", "old_station_id": "hokkaido/kosumo%ef%bd%b0ru-taiki"}}, {"type": "Feature", "geometry": {"type": "Point", "coordinates": [144.24901, 43.647837]}, "properties": {"pref_id": "1", "station_id": "76", "name": "ぐるっとパノラマ美幌峠", "address": "092-0022 北海道網走郡美幌町字古梅", "hours": "4月下旬〜10月 9:00〜18:00  11月〜4月下旬 9:00〜17:00", "uri": "https://www.michi-no-eki.jp/stations/view/76", "old_station_id": "hokkaido/guruttopanoramabihorotoge"}}, {"type": "Feature", "geometry": {"type": "Point", "coordinates": [140.478985, 42.762099]}, "properties": {"pref_id": "1", "station_id": "77", "name": "らんこし・ふるさとの丘", "address": "048-1251 北海道磯谷郡蘭越町字相生969", "hours": "9:00〜17:00", "uri": "https://www.michi-no-eki.jp/stations/view/77", "old_station_id": "hokkaido/rankoshi-furusatonoka"}}, {"type": "Feature", "geometry": {"type": "Point", "coordinates": [140.722382, 42.577551]}, "properties": {"pref_id": "1", "station_id": "78", "name": "とようら", "address": "049-5412 北海道虻田郡豊浦町字旭町65-8", "hours": "直売所9:00〜17:00          テイクアウトコーナー10:00〜16:00", "uri": "https://www.michi-no-eki.jp/stations/view/78", "old_station_id": "hokkaido/toyora"}}, {"type": "Feature", "geometry": {"type": "Point", "coordinates": [144.188488, 43.917336]}, "properties": {"pref_id": "1", "station_id": "79", "name": "メルヘンの丘めまんべつ", "address": "099-2356 北海道網走郡大空町女満別昭和96", "hours": "8:45〜17:30", "uri": "https://www.michi-no-eki.jp/stations/view/79", "old_station_id": "hokkaido/meruhennoka-memambetsu"}}, {"type": "Feature", "geometry": {"type": "Point", "coordinates": [141.925464, 42.573973]}, "properties": {"pref_id": "1", "station_id": "80", "name": "むかわ四季の館", "address": "054-0042 北海道勇払郡むかわ町美幸3-3-1", "hours": "6:00〜22:00", "uri": "https://www.michi-no-eki.jp/stations/view/80", "old_station_id": "hokkaido/mukawashikinoyakata"}}, {"type": "Feature", "geometry": {"type": "Point", "coordinates": [143.980525, 43.545622]}, "properties": {"pref_id": "1", "station_id": "81", "name": "あいおい", "address": "092-0361 北海道網走郡津別町字相生", "hours": "9:00〜18:00(5〜10月) 9:00〜17:00(11〜4月)", "uri": "https://www.michi-no-eki.jp/stations/view/81", "old_station_id": "hokkaido/aioi"}}, {"type": "Feature", "geometry": {"type": "Point", "coordinates": [142.98857, 43.098188]}, "properties": {"pref_id": "1", "station_id": "82", "name": "しかおい", "address": "081-0222 北海道河東郡鹿追町東町3-2", "hours": "9:00〜17:00(3〜6月、10〜11月) 10:00〜16:00(12〜2月) 9:00〜18:00(7〜9月)", "uri": "https://www.michi-no-eki.jp/stations/view/82", "old_station_id": "hokkaido/shikaoi"}}, {"type": "Feature", "geometry": {"type": "Point", "coordinates": [143.076278, 43.870061]}, "properties": {"pref_id": "1", "station_id": "83", "name": "しらたき", "address": "099-0126 北海道紋別郡遠軽町奥白滝", "hours": "9:00〜18:00", "uri": "https://www.michi-no-eki.jp/stations/view/83", "old_station_id": "hokkaido/shirataki"}}, {"type": "Feature", "geometry": {"type": "Point", "coordinates": [143.546455, 43.244332]}, "properties": {"pref_id": "1", "station_id": "84", "name": "あしょろ銀河ホール21", "address": "089-3701 北海道足寄郡足寄町北1条1丁目", "hours": "9:00〜17:00", "uri": "https://www.michi-no-eki.jp/stations/view/84", "old_station_id": "hokkaido/ashoro-gingaho%ef%bd%b0ru21"}}, {"type": "Feature", "geometry": {"type": "Point", "coordinates": [141.65933, 42.833788]}, "properties": {"pref_id": "1", "station_id": "85", "name": "サーモンパーク千歳", "address": "066-0028 北海道千歳市花園2-4-2", "hours": "9:00〜18:00(一部店舗は20:30まで)", "uri": "https://www.michi-no-eki.jp/stations/view/85", "old_station_id": "hokkaido/sa%ef%bd%b0mompa%ef%bd%b0ku-chitose"}}, {"type": "Feature", "geometry": {"type": "Point", "coordinates": [142.508814, 43.697305]}, "properties": {"pref_id": "1", "station_id": "86", "name": "ひがしかわ「道草館」", "address": "071-1423 北海道上川郡東川町東町1丁目1番15号", "hours": "9:00〜19:00", "uri": "https://www.michi-no-eki.jp/stations/view/86", "old_station_id": "hokkaido/higashikawa-michikusakan"}}, {"type": "Feature", "geometry": {"type": "Point", "coordinates": [141.585675, 42.897235]}, "properties": {"pref_id": "1", "station_id": "87", "name": "花ロードえにわ", "address": "061-1375 北海道恵庭市南島松817-18", "hours": "9:00〜19:00(施設により異なる)<休:12/31〜1/2>", "uri": "https://www.michi-no-eki.jp/stations/view/87", "old_station_id": "hokkaido/hanaro%ef%bd%b0do-eniwa"}}, {"type": "Feature", "geometry": {"type": "Point", "coordinates": [140.370027, 42.880182]}, "properties": {"pref_id": "1", "station_id": "88", "name": "シェルプラザ・港", "address": "048-1341 北海道磯谷郡蘭越町港町1402-2", "hours": "9:00〜17:00", "uri": "https://www.michi-no-eki.jp/stations/view/88", "old_station_id": "hokkaido/sherupurazaminato"}}, {"type": "Feature", "geometry": {"type": "Point", "coordinates": [140.807705, 42.762321]}, "properties": {"pref_id": "1", "station_id": "89", "name": "真狩フラワーセンター", "address": "048-1611 北海道虻田郡真狩村字光8-3", "hours": "9:00〜17:30(4月下旬〜10/31) 9:30〜16:30(11/1〜4月下旬)", "uri": "https://www.michi-no-eki.jp/stations/view/89", "old_station_id": "hokkaido/makkari-furawa%ef%bd%b0senta"}}, {"type": "Feature", "geometry": {"type": "Point", "coordinates": [141.965963, 43.764831]}, "properties": {"pref_id": "1", "station_id": "90", "name": "鐘のなるまち・ちっぷべつ", "address": "078-2100 北海道雨竜郡秩父別町2085", "hours": "9:00〜17:00(4〜10月) 9:00〜16:00(11〜3月)", "uri": "https://www.michi-no-eki.jp/stations/view/90", "old_station_id": "hokkaido/kanenonarumachichippubetsu"}}, {"type": "Feature", "geometry": {"type": "Point", "coordinates": [140.778736, 42.528998]}, "properties": {"pref_id": "1", "station_id": "91", "name": "あぷた", "address": "049-5603 北海道虻田郡洞爺湖町入江84-2", "hours": "9::00〜18:00(冬期17:00)", "uri": "https://www.michi-no-eki.jp/stations/view/91", "old_station_id": "hokkaido/aputa"}}, {"type": "Feature", "geometry": {"type": "Point", "coordinates": [143.025023, 43.169747]}, "properties": {"pref_id": "1", "station_id": "92", "name": "うりまく", "address": "081-0341 北海道河東郡鹿追町瓜幕西3-1外", "hours": "9:00〜17:00", "uri": "https://www.michi-no-eki.jp/stations/view/92", "old_station_id": "hokkaido/urimaku"}}, {"type": "Feature", "geometry": {"type": "Point", "coordinates": [142.39098, 44.093831]}, "properties": {"pref_id": "1", "station_id": "93", "name": "絵本の里けんぶち", "address": "098-0341 北海道上川郡剣淵町東町2420", "hours": "9:00〜18:00(5〜10月) 9:00〜17:00(11〜4月)", "uri": "https://www.michi-no-eki.jp/stations/view/93", "old_station_id": "hokkaido/ehonnosatokembuchi"}}, {"type": "Feature", "geometry": {"type": "Point", "coordinates": [141.656472, 44.313303]}, "properties": {"pref_id": "1", "station_id": "94", "name": "風Wとままえ", "address": "078-3701 北海道苫前郡苫前町字苫前119-1", "hours": "7:00〜21:00", "uri": "https://www.michi-no-eki.jp/stations/view/94", "old_station_id": "hokkaido/fuwattotomamae"}}, {"type": "Feature", "geometry": {"type": "Point", "coordinates": [143.367911, 43.138881]}, "properties": {"pref_id": "1", "station_id": "95", "name": "しほろ温泉", "address": "080-1285 北海道河東郡士幌町字下居辺西2-134", "hours": "10:00〜21:00", "uri": "https://www.michi-no-eki.jp/stations/view/95", "old_station_id": "hokkaido/shihoronsen"}}, {"type": "Feature", "geometry": {"type": "Point", "coordinates": [140.870902, 42.858907]}, "properties": {"pref_id": "1", "station_id": "96", "name": "名水の郷きょうごく", "address": "044-0131 北海道虻田郡京極町字川西45-1", "hours": "10:00〜16:00        休館日 毎週 水曜日 木曜日", "uri": "https://www.michi-no-eki.jp/stations/view/96", "old_station_id": "hokkaido/meisuinosato-kyogoku"}}, {"type": "Feature", "geometry": {"type": "Point", "coordinates": [142.463785, 43.592125]}, "properties": {"pref_id": "1", "station_id": "97", "name": "びえい「丘のくら」", "address": "071-0208 北海道上川郡美瑛町本町1-9-21", "hours": "9:00〜17:00", "uri": "https://www.michi-no-eki.jp/stations/view/97", "old_station_id": "hokkaido/biei-okanokura"}}, {"type": "Feature", "geometry": {"type": "Point", "coordinates": [141.776818, 44.563504]}, "properties": {"pref_id": "1", "station_id": "98", "name": "☆ロマン街道しょさんべつ", "address": "078-4431 北海道苫前郡初山別村字豊岬153-1", "hours": "10:00〜21:00", "uri": "https://www.michi-no-eki.jp/stations/view/98", "old_station_id": "hokkaido/romankaido-shosambetsu"}}, {"type": "Feature", "geometry": {"type": "Point", "coordinates": [144.990668, 44.069073]}, "properties": {"pref_id": "1", "station_id": "99", "name": "うとろ・シリエトク", "address": "099-4354 北海道斜里郡斜里町ウトロ西186-8", "hours": "8:30〜18:30(5〜10月) 9:00〜17:00(11〜4月)", "uri": "https://www.michi-no-eki.jp/stations/view/99", "old_station_id": "hokkaido/utoro-shirietoku"}}, {"type": "Feature", "geometry": {"type": "Point", "coordinates": [144.664214, 43.911771]}, "properties": {"pref_id": "1", "station_id": "100", "name": "しゃり", "address": "099-4113 北海道斜里郡斜里町本町37", "hours": "9:00〜19:00", "uri": "https://www.michi-no-eki.jp/stations/view/100", "old_station_id": "hokkaido/shari"}}, {"type": "Feature", "geometry": {"type": "Point", "coordinates": [144.533995, 43.790459]}, "properties": {"pref_id": "1", "station_id": "101", "name": "パパスランドさっつる", "address": "099-4522 北海道斜里郡清里町字神威1071", "hours": "9:00〜21:00", "uri": "https://www.michi-no-eki.jp/stations/view/101", "old_station_id": "hokkaido/papasurando-sattsuru"}}, {"type": "Feature", "geometry": {"type": "Point", "coordinates": [142.413772, 44.287419]}, "properties": {"pref_id": "1", "station_id": "102", "name": "もち米の里☆なよろ", "address": "098-0507 北海道名寄市風連町西町334-1", "hours": "9:00〜18:00 ", "uri": "https://www.michi-no-eki.jp/stations/view/102", "old_station_id": "hokkaido/mochigomenosato-nayoro"}}, {"type": "Feature", "geometry": {"type": "Point", "coordinates": [140.231824, 42.795534]}, "properties": {"pref_id": "1", "station_id": "103", "name": "みなとま〜れ寿都", "address": "048-0404 北海道寿都郡寿都町字大磯町29-1", "hours": "9:00〜18:00", "uri": "https://www.michi-no-eki.jp/stations/view/103", "old_station_id": null}}, {"type": "Feature", "geometry": {"type": "Point", "coordinates": [140.82182, 42.664511]}, "properties": {"pref_id": "1", "station_id": "104", "name": "とうや湖", "address": "049-5831 北海道虻田郡洞爺湖町香川9-4", "hours": "9:00〜18:00(冬期17:00)", "uri": "https://www.michi-no-eki.jp/stations/view/104", "old_station_id": "hokkaido/toyako"}}, {"type": "Feature", "geometry": {"type": "Point", "coordinates": [144.273893, 44.022034]}, "properties": {"pref_id": "1", "station_id": "105", "name": "流氷街道網走", "address": "093-0003 北海道網走市南3条東4丁目", "hours": "9:00〜18:00", "uri": "https://www.michi-no-eki.jp/stations/view/105", "old_station_id": "hokkaido/ryuuhyokaidoabashiri"}}, {"type": "Feature", "geometry": {"type": "Point", "coordinates": [140.107232, 41.426515]}, "properties": {"pref_id": "1", "station_id": "106", "name": "北前船 松前", "address": "049-1506 北海道松前郡松前町字唐津379", "hours": "9:00〜18:00(4〜9月) 9:00〜17:00(10〜3月) 定休日:毎週火曜日(10〜3月、火曜日が祝日の場合は翌日水曜日)及び年末年始(お問い合わせください)", "uri": "https://www.michi-no-eki.jp/stations/view/106", "old_station_id": "hokkaido/kitamaebune-matsumae"}}, {"type": "Feature", "geometry": {"type": "Point", "coordinates": [143.61325, 43.125634]}, "properties": {"pref_id": "1", "station_id": "107", "name": "ステラ★ほんべつ", "address": "089-3334 北海道中川郡本別町北3-1-1", "hours": "9:00〜18:00", "uri": "https://www.michi-no-eki.jp/stations/view/107", "old_station_id": "hokkaido/sutera-hombetsu"}}, {"type": "Feature", "geometry": {"type": "Point", "coordinates": [141.694649, 42.699951]}, "properties": {"pref_id": "1", "station_id": "108", "name": "ウトナイ湖", "address": "059-1365 北海道苫小牧市字植苗156-30", "hours": "9:00〜18:00(11月〜2月は9:00〜17:00)", "uri": "https://www.michi-no-eki.jp/stations/view/108", "old_station_id": "hokkaido/utonaiko"}}, {"type": "Feature", "geometry": {"type": "Point", "coordinates": [143.663657, 42.813998]}, "properties": {"pref_id": "1", "station_id": "109", "name": "うらほろ", "address": "089-5621 北海道十勝郡浦幌町字北町16-3", "hours": "9:00〜18:30(4/1〜11月) 9:00〜17:00(12/1〜3月)", "uri": "https://www.michi-no-eki.jp/stations/view/109", "old_station_id": "hokkaido/urahoro"}}, {"type": "Feature", "geometry": {"type": "Point", "coordinates": [141.642701, 43.214116]}, "properties": {"pref_id": "1", "station_id": "110", "name": "しんしのつ", "address": "068-1100  北海道石狩郡新篠津村第45線北2", "hours": "10:00〜22:00<休:5月・12月の第3月曜日〜火曜日>", "uri": "https://www.michi-no-eki.jp/stations/view/110", "old_station_id": "hokkaido/shinshinotsu"}}, {"type": "Feature", "geometry": {"type": "Point", "coordinates": [142.038078, 42.93699]}, "properties": {"pref_id": "1", "station_id": "111", "name": "夕張メロード", "address": "068-0755 北海道夕張市紅葉山529", "hours": "10:00〜18:30", "uri": "https://www.michi-no-eki.jp/stations/view/111", "old_station_id": "hokkaido/yuubari-mero%ef%bd%b0do"}}, {"type": "Feature", "geometry": {"type": "Point", "coordinates": [145.236876, 43.533413]}, "properties": {"pref_id": "1", "station_id": "112", "name": "おだいとう", "address": "086-1641 北海道野付郡別海町尾岱沼5-27", "hours": "9:00〜17:00(5〜10月) 9:00〜16:00(11〜4月) 定休日 火曜日(9月〜6月)", "uri": "https://www.michi-no-eki.jp/stations/view/112", "old_station_id": "hokkaido/odaito"}}, {"type": "Feature", "geometry": {"type": "Point", "coordinates": [140.94475, 41.927921]}, "properties": {"pref_id": "1", "station_id": "113", "name": "縄文ロマン 南かやべ", "address": "041-1613 北海道函館市臼尻町551-1", "hours": "9:00〜17:00(4〜10月) 9:00〜16:30(11〜3月)", "uri": "https://www.michi-no-eki.jp/stations/view/113", "old_station_id": "hokkaido/jomonroman-minamikayabe"}}, {"type": "Feature", "geometry": {"type": "Point", "coordinates": [141.677348, 45.41725]}, "properties": {"pref_id": "1", "station_id": "114", "name": "わっかない", "address": "097-0023 北海道稚内市開運2丁目", "hours": "10:00〜18:00", "uri": "https://www.michi-no-eki.jp/stations/view/114", "old_station_id": "hokkaido/wakkanai"}}, {"type": "Feature", "geometry": {"type": "Point", "coordinates": [140.844843, 43.050868]}, "properties": {"pref_id": "1", "station_id": "7978", "name": "あかいがわ", "address": "046-0541 北海道余市郡赤井川村字都190-16", "hours": "8:30〜18:00(5〜10月)、9:00〜17:00(11〜4月)", "uri": "https://www.michi-no-eki.jp/stations/view/7978", "old_station_id": "hokkaido/akaigawa"}}, {"type": "Feature", "geometry": {"type": "Point", "coordinates": [140.435363, 41.678052]}, "properties": {"pref_id": "1", "station_id": "9721", "name": "みそぎの郷 きこない", "address": "049-0400 北海道上磯郡木古内町字本町338-14", "hours": "9:00〜18:00 ", "uri": "https://www.michi-no-eki.jp/stations/view/9721", "old_station_id": "hokkaido/misogi-no-sato-kikonai"}}, {"type": "Feature", "geometry": {"type": "Point", "coordinates": [140.830553, 42.028522]}, "properties": {"pref_id": "1", "station_id": "9724", "name": "しかべ間歇泉公園", "address": "041-1400 北海道茅部郡鹿部町字鹿部18-1", "hours": "【3月20日−11月30日】 月〜木 9時〜17時 金〜日·祝 8時半〜18時 定休日なし  【12月1日−3月19日】 月·火·木 10時〜15時 金〜日·祝 9時〜18時 定休日 水曜日", "uri": "https://www.michi-no-eki.jp/stations/view/9724", "old_station_id": "hokkaido/shikabe-kanketsusen-koen"}}, {"type": "Feature", "geometry": {"type": "Point", "coordinates": [144.294951, 43.845319]}, "properties": {"pref_id": "1", "station_id": "14155", "name": "ノンキーランドひがしもこと", "address": "099-3244 北海道網走郡大空町東藻琴100", "hours": "9:00〜18:00", "uri": "https://www.michi-no-eki.jp/stations/view/14155", "old_station_id": null}}, {"type": "Feature", "geometry": {"type": "Point", "coordinates": [141.448498, 43.177254]}, "properties": {"pref_id": "1", "station_id": "14156", "name": "北欧の風 道の駅とうべつ", "address": "061-3773 北海道石狩郡当別町当別太774-11", "hours": "10:00〜18:00", "uri": "https://www.michi-no-eki.jp/stations/view/14156", "old_station_id": null}}, {"type": "Feature", "geometry": {"type": "Point", "coordinates": [141.43118, 43.403873]}, "properties": {"pref_id": "1", "station_id": "14165", "name": "石狩「あいろーど厚田」", "address": "061-3601 北海道石狩市厚田区厚田98-2", "hours": "10:00〜16:00(11/1-1/31)2階 ANNEX休業2020.3.31迄", "uri": "https://www.michi-no-eki.jp/stations/view/14165", "old_station_id": null}}, {"type": "Feature", "geometry": {"type": "Point", "coordinates": [140.655973, 41.925666]}, "properties": {"pref_id": "1", "station_id": "14166", "name": "なないろ・ななえ", "address": "041-1102 北海道亀田郡七飯町字峠下380-2", "hours": "9:00〜18:00〔時期により異なる〕", "uri": "https://www.michi-no-eki.jp/stations/view/14166", "old_station_id": null}}, {"type": "Feature", "geometry": {"type": "Point", "coordinates": [142.597342, 43.503071]}, "properties": {"pref_id": "1", "station_id": "14182", "name": "びえい「白金ビルケ」", "address": "071-0235 北海道上川郡美瑛町字白金", "hours": "9:00〜17:00", "uri": "https://www.michi-no-eki.jp/stations/view/14182", "old_station_id": null}}, {"type": "Feature", "geometry": {"type": "Point", "coordinates": [142.360437, 45.124936]}, "properties": {"pref_id": "1", "station_id": "14197", "name": "北オホーツクはまとんべつ", "address": "098-5704 北海道枝幸郡浜頓別町中央北21番1", "hours": "", "uri": "https://www.michi-no-eki.jp/stations/view/14197", "old_station_id": null}}, {"type": "Feature", "geometry": {"type": "Point", "coordinates": [141.818766, 42.876095]}, "properties": {"pref_id": "1", "station_id": "14198", "name": "あびらD51ステーション", "address": "059-1921 北海道勇払郡安平町追分柏が丘49番地1", "hours": "", "uri": "https://www.michi-no-eki.jp/stations/view/14198", "old_station_id": null}}, {"type": "Feature", "geometry": {"type": "Point", "coordinates": [143.498488, 44.023759]}, "properties": {"pref_id": "1", "station_id": "14206", "name": "遠軽 森のオホーツク", "address": "099-0344 北海道紋別郡遠軽町野上150番地1", "hours": "9:00〜18:00(冬季のスキー場は9:00〜21:00)※ゲレンデ状況等により変動あり", "uri": "https://www.michi-no-eki.jp/stations/view/14206", "old_station_id": null}}, {"type": "Feature", "geometry": {"type": "Point", "coordinates": [143.29178, 43.224637]}, "properties": {"pref_id": "1", "station_id": "14212", "name": "かみしほろ", "address": " 北海道河東郡上士幌町字上士幌東3線227番地1", "hours": "9:00〜18:00(冬季〜17:00)◆レストラン「La Table de KAMISHIHORO」ランチ10:30〜15:00 カフェ&バータイム15:00〜道の駅営業終了時間まで", "uri": "https://www.michi-no-eki.jp/stations/view/14212", "old_station_id": null}}, {"type": "Feature", "geometry": {"type": "Point", "coordinates": [141.648817, 43.944454]}, "properties": {"pref_id": "1", "station_id": "14213", "name": "るもい", "address": "077-0005 北海道留萌市船場町2丁目114", "hours": "9:00〜17:00", "uri": "https://www.michi-no-eki.jp/stations/view/14213", "old_station_id": null}}, {"type": "Feature", "geometry": {"type": "Point", "coordinates": [143.300835, 42.933438]}, "properties": {"pref_id": "1", "station_id": "14225", "name": "ガーデンスパ十勝川温泉", "address": "080-0261 北海道河東郡音更町十勝川温泉北14丁目1番地", "hours": "9:00〜19:00(月〜木)9:00〜21:00(金〜日・祝日)", "uri": "https://www.michi-no-eki.jp/stations/view/14225", "old_station_id": null}}, {"type": "Feature", "geometry": {"type": "Point", "coordinates": [142.392884, 44.176726]}, "properties": {"pref_id": "1", "station_id": "14232", "name": "羊のまち 侍・しべつ(令和3年度オープン予定)", "address": "095-0019 北海道士別市大通東5丁目440番地23", "hours": "", "uri": "https://www.michi-no-eki.jp/stations/view/14232", "old_station_id": null}}, {"type": "Feature", "geometry": {"type": "Point", "coordinates": [141.15525, 40.716825]}, "properties": {"pref_id": "2", "station_id": "115", "name": "しちのへ", "address": "039-2501 青森県上北郡七戸町字荒熊内67-94", "hours": "9:00〜18:00 <休 3/31>", "uri": "https://www.michi-no-eki.jp/stations/view/115", "old_station_id": "aomori/shichinohe"}}, {"type": "Feature", "geometry": {"type": "Point", "coordinates": [141.608433, 40.458496]}, "properties": {"pref_id": "2", "station_id": "116", "name": "はしかみ", "address": "039-1201 青森県三戸郡階上町大字道仏字耳ヶ吠3-3", "hours": "9:00〜18:00 <休12/31〜1/1>", "uri": "https://www.michi-no-eki.jp/stations/view/116", "old_station_id": "aomori/hashikami"}}, {"type": "Feature", "geometry": {"type": "Point", "coordinates": [140.687643, 40.581966]}, "properties": {"pref_id": "2", "station_id": "117", "name": "虹の湖", "address": "036-0402 青森県黒石市大字沖浦字山神1-5", "hours": "9:00〜17:00(営業時間短縮あり)", "uri": "https://www.michi-no-eki.jp/stations/view/117", "old_station_id": "aomori/nijinoko"}}, {"type": "Feature", "geometry": {"type": "Point", "coordinates": [140.80477, 41.167961]}, "properties": {"pref_id": "2", "station_id": "118", "name": "わきのさわ", "address": "039-5323 青森県むつ市脇野沢七引205-5", "hours": "9:00〜17:00", "uri": "https://www.michi-no-eki.jp/stations/view/118", "old_station_id": "aomori/wakinosawa"}}, {"type": "Feature", "geometry": {"type": "Point", "coordinates": [140.888219, 41.270398]}, "properties": {"pref_id": "2", "station_id": "119", "name": "かわうち湖", "address": "039-4701 青森県むつ市川内町福浦山314", "hours": "9:00〜17:00<休 木曜日>≪冬期閉鎖あり≫", "uri": "https://www.michi-no-eki.jp/stations/view/119", "old_station_id": "aomori/kawauchiko"}}, {"type": "Feature", "geometry": {"type": "Point", "coordinates": [141.074445, 40.431758]}, "properties": {"pref_id": "2", "station_id": "120", "name": "しんごう", "address": "039-1801 青森県三戸郡新郷村大字戸来字雨池11-2", "hours": "9:00〜17:00 <休 水曜日> ≪冬期閉鎖あり≫", "uri": "https://www.michi-no-eki.jp/stations/view/120", "old_station_id": "aomori/shingo"}}, {"type": "Feature", "geometry": {"type": "Point", "coordinates": [140.548795, 40.554752]}, "properties": {"pref_id": "2", "station_id": "121", "name": "ひろさき", "address": "036-8124 青森県弘前市大字石川字泉田62-1", "hours": "9:00〜18:30(4月〜10月)、9:00〜18:00(11月〜3月)", "uri": "https://www.michi-no-eki.jp/stations/view/121", "old_station_id": "aomori/hirosaki"}}, {"type": "Feature", "geometry": {"type": "Point", "coordinates": [141.117434, 40.586204]}, "properties": {"pref_id": "2", "station_id": "122", "name": "奥入瀬", "address": "034-0301 青森県十和田市大字奥瀬字堰道39-1", "hours": "9:00〜18:00 <休 12/31〜1/1>", "uri": "https://www.michi-no-eki.jp/stations/view/122", "old_station_id": "aomori/oirase"}}, {"type": "Feature", "geometry": {"type": "Point", "coordinates": [141.255476, 40.387808]}, "properties": {"pref_id": "2", "station_id": "123", "name": "さんのへ", "address": "039-0141 青森県三戸郡三戸町大字川守田字西張渡39-1", "hours": "9:00〜18:00〔施設により異なる〕", "uri": "https://www.michi-no-eki.jp/stations/view/123", "old_station_id": "aomori/sannohe"}}, {"type": "Feature", "geometry": {"type": "Point", "coordinates": [140.579519, 40.717928]}, "properties": {"pref_id": "2", "station_id": "124", "name": "なみおか", "address": "038-1331 青森県青森市浪岡大字女鹿沢字野尻2-3", "hours": "9:00〜19:00(3/16〜11/15)、9:00〜18:00(11/16〜3/15)〔施設により異なる〕", "uri": "https://www.michi-no-eki.jp/stations/view/124", "old_station_id": "aomori/namioka"}}, {"type": "Feature", "geometry": {"type": "Point", "coordinates": [140.385462, 41.045391]}, "properties": {"pref_id": "2", "station_id": "125", "name": "十三湖高原", "address": "037-0401 青森県五所川原市相内実取287-1058", "hours": "9:00〜18:00(冬期・営業時間短縮あり)<休 12/31〜1/2>", "uri": "https://www.michi-no-eki.jp/stations/view/125", "old_station_id": "aomori/juusanko-kogen"}}, {"type": "Feature", "geometry": {"type": "Point", "coordinates": [140.514335, 41.145511]}, "properties": {"pref_id": "2", "station_id": "126", "name": "いまべつ", "address": "030-1505 青森県東津軽郡今別町大字大川平字清川87-16", "hours": "9:00〜19:00 ≪冬期・営業時間短縮あり≫", "uri": "https://www.michi-no-eki.jp/stations/view/126", "old_station_id": "aomori/imabetsu"}}, {"type": "Feature", "geometry": {"type": "Point", "coordinates": [141.43043, 40.406785]}, "properties": {"pref_id": "2", "station_id": "127", "name": "なんごう", "address": "031-0114 青森県八戸市南郷区大字中野字舘野4-4", "hours": "8:00〜19:00(4〜10月)、8:30〜18:00(11〜3月、レストランは11:00〜19:00)", "uri": "https://www.michi-no-eki.jp/stations/view/127", "old_station_id": "miyazaki/nango-2"}}, {"type": "Feature", "geometry": {"type": "Point", "coordinates": [140.322251, 40.784406]}, "properties": {"pref_id": "2", "station_id": "128", "name": "もりた", "address": "038-2817 青森県つがる市森田町床舞稚桜4-1", "hours": "9:00〜18:00 ≪冬期・営業時間短縮あり≫", "uri": "https://www.michi-no-eki.jp/stations/view/128", "old_station_id": "aomori/morita"}}, {"type": "Feature", "geometry": {"type": "Point", "coordinates": [140.86137, 40.891692]}, "properties": {"pref_id": "2", "station_id": "129", "name": "浅虫温泉", "address": "039-3501 青森県青森市大字浅虫字螢谷341-19", "hours": "7:00〜20:30〔施設により異なる〕", "uri": "https://www.michi-no-eki.jp/stations/view/129", "old_station_id": "aomori/asamushionsen"}}, {"type": "Feature", "geometry": {"type": "Point", "coordinates": [140.623165, 40.481558]}, "properties": {"pref_id": "2", "station_id": "130", "name": "いかりがせき", "address": "038-0101 青森県平川市碇ヶ関碇石13-1", "hours": "9:00〜19:00 ≪冬期・営業時間短縮あり≫ <休 年末年始>", "uri": "https://www.michi-no-eki.jp/stations/view/130", "old_station_id": "aomori/ikarigaseki"}}, {"type": "Feature", "geometry": {"type": "Point", "coordinates": [140.577686, 40.633619]}, "properties": {"pref_id": "2", "station_id": "131", "name": "いなかだて", "address": "038-1111 青森県南津軽郡田舎館村大字高樋字八幡10", "hours": "8:30〜18:00 ≪冬期・営業時間短縮あり≫ <休 12/31午後〜1/1>", "uri": "https://www.michi-no-eki.jp/stations/view/131", "old_station_id": "aomori/inakadate"}}, {"type": "Feature", "geometry": {"type": "Point", "coordinates": [141.256588, 41.083731]}, "properties": {"pref_id": "2", "station_id": "132", "name": "よこはま", "address": "039-4134 青森県上北郡横浜町字林ノ脇79-12", "hours": "8:00〜18:00 ≪冬期・営業時間変更あり≫ <休 12/31〜1/1、1〜3月の火曜日>", "uri": "https://www.michi-no-eki.jp/stations/view/132", "old_station_id": "aomori/yokohama"}}, {"type": "Feature", "geometry": {"type": "Point", "coordinates": [140.346791, 41.253834]}, "properties": {"pref_id": "2", "station_id": "133", "name": "みんまや", "address": "030-1700 青森県東津軽郡外ヶ浜町字三厩龍浜99", "hours": "8:40〜17:00 <冬期閉鎖あり>", "uri": "https://www.michi-no-eki.jp/stations/view/133", "old_station_id": "aomori/mimmaya"}}, {"type": "Feature", "geometry": {"type": "Point", "coordinates": [140.320596, 41.144905]}, "properties": {"pref_id": "2", "station_id": "134", "name": "こどまり", "address": "037-0300 青森県北津軽郡中泊町大字小泊字折腰内45", "hours": "9:00〜17:00", "uri": "https://www.michi-no-eki.jp/stations/view/134", "old_station_id": "aomori/kodomari"}}, {"type": "Feature", "geometry": {"type": "Point", "coordinates": [141.363895, 40.785414]}, "properties": {"pref_id": "2", "station_id": "135", "name": "みさわ", "address": "033-0164 青森県三沢市谷地頭4-598-652", "hours": "9:00〜18:30 ≪冬期・営業時間短縮あり≫ <休 12/31〜1/1>", "uri": "https://www.michi-no-eki.jp/stations/view/135", "old_station_id": "aomori/misawa"}}, {"type": "Feature", "geometry": {"type": "Point", "coordinates": [141.264612, 40.574645]}, "properties": {"pref_id": "2", "station_id": "136", "name": "とわだ", "address": "034-0051 青森県十和田市大字伝法寺字平窪37-2", "hours": "9:00〜20:00(4月〜10月)、9:00〜19:00(11月〜3月) <休 1/1>", "uri": "https://www.michi-no-eki.jp/stations/view/136", "old_station_id": "aomori/towada"}}, {"type": "Feature", "geometry": {"type": "Point", "coordinates": [140.442705, 40.737146]}, "properties": {"pref_id": "2", "station_id": "137", "name": "つるた", "address": "038-3524 青森県北津軽郡鶴田町大字境字里見176-1", "hours": "9:00〜18:00 <休 1/1>", "uri": "https://www.michi-no-eki.jp/stations/view/137", "old_station_id": "aomori/tsuruta"}}, {"type": "Feature", "geometry": {"type": "Point", "coordinates": [140.000469, 40.744223]}, "properties": {"pref_id": "2", "station_id": "138", "name": "ふかうら", "address": "038-2411 青森県西津軽郡深浦町大字風合瀬字上砂子川144-1", "hours": "9:00〜18:00(1〜3月17:00)", "uri": "https://www.michi-no-eki.jp/stations/view/138", "old_station_id": "aomori/fukaura"}}, {"type": "Feature", "geometry": {"type": "Point", "coordinates": [141.274961, 40.728039]}, "properties": {"pref_id": "2", "station_id": "139", "name": "おがわら湖", "address": "039-2401 青森県上北郡東北町大字上野字南谷地122", "hours": "8:30〜18:00(夏期)、9:00〜17:30(冬期)<休 年末年始>", "uri": "https://www.michi-no-eki.jp/stations/view/139", "old_station_id": "aomori/ogawarako"}}, {"type": "Feature", "geometry": {"type": "Point", "coordinates": [140.641197, 41.174837]}, "properties": {"pref_id": "2", "station_id": "140", "name": "たいらだて", "address": "030-1402 青森県東津軽郡外ヶ浜町字平舘太郎右ェ門沢1-3", "hours": "8:00〜17:00", "uri": "https://www.michi-no-eki.jp/stations/view/140", "old_station_id": "aomori/tairadate"}}, {"type": "Feature", "geometry": {"type": "Point", "coordinates": [141.324727, 40.606404]}, "properties": {"pref_id": "2", "station_id": "141", "name": "ろくのへ", "address": "039-2371 青森県上北郡六戸町大字犬落瀬字後田87", "hours": "9:00〜18:00 ≪冬期・営業時間短縮あり≫", "uri": "https://www.michi-no-eki.jp/stations/view/141", "old_station_id": "aomori/rokunohe"}}, {"type": "Feature", "geometry": {"type": "Point", "coordinates": [140.300462, 40.577739]}, "properties": {"pref_id": "2", "station_id": "14167", "name": "津軽白神", "address": "036-1411 青森県中津軽郡西目屋村大字田代字神田219-1", "hours": "9:00〜17:00(冬季間9:00〜16:00)", "uri": "https://www.michi-no-eki.jp/stations/view/14167", "old_station_id": null}}, {"type": "Feature", "geometry": {"type": "Point", "coordinates": [140.375856, 40.251513]}, "properties": {"pref_id": "5", "station_id": "184", "name": "たかのす", "address": "018-3301 秋田県北秋田市綴子字大堤道下62-1", "hours": "9:00〜18:00(12〜3月 9:30〜17:00) <休 1/1>", "uri": "https://www.michi-no-eki.jp/stations/view/184", "old_station_id": "akita/takanosu"}}, {"type": "Feature", "geometry": {"type": "Point", "coordinates": [140.259823, 40.216348]}, "properties": {"pref_id": "5", "station_id": "185", "name": "ふたつい", "address": "018-3102 秋田県能代市二ツ井町小繋字泉51番地", "hours": "9:00〜18:00 <休 1/1〜1/2>", "uri": "https://www.michi-no-eki.jp/stations/view/185", "old_station_id": "akita/futatsui"}}, {"type": "Feature", "geometry": {"type": "Point", "coordinates": [140.014564, 39.36288]}, "properties": {"pref_id": "5", "station_id": "186", "name": "にしめ", "address": "018-0604 秋田県由利本荘市西目町沼田字新道下1112-2", "hours": "9:00〜18:00 <休 12/31〜1/1>", "uri": "https://www.michi-no-eki.jp/stations/view/186", "old_station_id": "akita/nishime"}}, {"type": "Feature", "geometry": {"type": "Point", "coordinates": [140.624429, 40.421034]}, "properties": {"pref_id": "5", "station_id": "187", "name": "やたて峠", "address": "017-0001 秋田県大館市長走字陣場311", "hours": "7:00〜21:00", "uri": "https://www.michi-no-eki.jp/stations/view/187", "old_station_id": "akita/yatatetoge"}}, {"type": "Feature", "geometry": {"type": "Point", "coordinates": [139.948678, 40.421583]}, "properties": {"pref_id": "5", "station_id": "188", "name": "はちもり", "address": "018-2601 秋田県山本郡八峰町八森字乙の水72-4", "hours": "9:00〜18:00 (冬季9:00〜17:00) <休 12/30〜1/2>", "uri": "https://www.michi-no-eki.jp/stations/view/188", "old_station_id": "akita/hachimori"}}, {"type": "Feature", "geometry": {"type": "Point", "coordinates": [140.785215, 40.18184]}, "properties": {"pref_id": "5", "station_id": "189", "name": "かづの", "address": "018-5201 秋田県鹿角市花輪字新田町11-4", "hours": "9:00〜18:00 (冬季9:00〜17:00)", "uri": "https://www.michi-no-eki.jp/stations/view/189", "old_station_id": "akita/kazuno"}}, {"type": "Feature", "geometry": {"type": "Point", "coordinates": [140.376722, 39.522147]}, "properties": {"pref_id": "5", "station_id": "190", "name": "かみおか", "address": "019-1702 秋田県大仙市北楢岡字船戸187", "hours": "8:00〜18:00(4月〜10月は時間延長)", "uri": "https://www.michi-no-eki.jp/stations/view/190", "old_station_id": "akita/kamioka"}}, {"type": "Feature", "geometry": {"type": "Point", "coordinates": [140.08035, 40.022308]}, "properties": {"pref_id": "5", "station_id": "191", "name": "ことおか", "address": "018-2104 秋田県山本郡三種町鹿渡字高石野126-1", "hours": "9:00〜18:00≪冬期・営業時間短縮あり≫ <休 12/31〜1/3>", "uri": "https://www.michi-no-eki.jp/stations/view/191", "old_station_id": "akita/kotoka"}}, {"type": "Feature", "geometry": {"type": "Point", "coordinates": [140.285026, 39.301604]}, "properties": {"pref_id": "5", "station_id": "192", "name": "東由利", "address": "015-0211 秋田県由利本荘市東由利老方字畑田28", "hours": "10:00〜21:00〔休館日 第1・3月曜日〕祭日の時は翌日", "uri": "https://www.michi-no-eki.jp/stations/view/192", "old_station_id": "akita/higashiyuri"}}, {"type": "Feature", "geometry": {"type": "Point", "coordinates": [140.297203, 40.063515]}, "properties": {"pref_id": "5", "station_id": "193", "name": "かみこあに", "address": "018-4421 秋田県北秋田郡上小阿仁村小沢田字向川原66-1", "hours": "9:00〜17:30 <休 12/31〜1/1>", "uri": "https://www.michi-no-eki.jp/stations/view/193", "old_station_id": "akita/kamikoani"}}, {"type": "Feature", "geometry": {"type": "Point", "coordinates": [139.900182, 39.220129]}, "properties": {"pref_id": "5", "station_id": "194", "name": "象潟", "address": "018-0121 秋田県にかほ市象潟町字大塩越73-1", "hours": "9:00〜21:00<休 12月〜3月の第3月曜日>", "uri": "https://www.michi-no-eki.jp/stations/view/194", "old_station_id": "akita/kisakata"}}, {"type": "Feature", "geometry": {"type": "Point", "coordinates": [140.533182, 39.53854]}, "properties": {"pref_id": "5", "station_id": "195", "name": "なかせん", "address": "014-0207 秋田県大仙市長野字高畑95-1", "hours": "9:00〜18:00≪冬期・営業時間短縮あり≫ <休 12/31〜1/1>", "uri": "https://www.michi-no-eki.jp/stations/view/195", "old_station_id": "akita/nakasen"}}, {"type": "Feature", "geometry": {"type": "Point", "coordinates": [140.460393, 39.065139]}, "properties": {"pref_id": "5", "station_id": "196", "name": "おがち", "address": "019-0205 秋田県湯沢市小野字橋本90", "hours": "8:30〜19:00 ≪冬期・営業時間短縮あり≫", "uri": "https://www.michi-no-eki.jp/stations/view/196", "old_station_id": "akita/ogachi"}}, {"type": "Feature", "geometry": {"type": "Point", "coordinates": [140.009563, 39.856815]}, "properties": {"pref_id": "5", "station_id": "197", "name": "てんのう", "address": "010-0201 秋田県潟上市天王字江川上谷地109-2", "hours": "9:00〜18:00≪冬期・営業時間短縮あり≫ <休 12/31>", "uri": "https://www.michi-no-eki.jp/stations/view/197", "old_station_id": "akita/tenno"}}, {"type": "Feature", "geometry": {"type": "Point", "coordinates": [140.052933, 39.542084]}, "properties": {"pref_id": "5", "station_id": "198", "name": "岩城", "address": "018-1301 秋田県由利本荘市岩城内道川 字新鶴潟192-43", "hours": "9:00〜20:00(4月〜10月)、9:00〜19:00(11月〜3月)〔施設により異なる〕、温泉9:00〜21:00", "uri": "https://www.michi-no-eki.jp/stations/view/198", "old_station_id": "akita/iwaki"}}, {"type": "Feature", "geometry": {"type": "Point", "coordinates": [140.077799, 39.864734]}, "properties": {"pref_id": "5", "station_id": "199", "name": "しょうわ", "address": "018-1415 秋田県潟上市昭和豊川竜毛字山ノ下1-1", "hours": "9:00〜18:00 <休 12/31〜1/1>", "uri": "https://www.michi-no-eki.jp/stations/view/199", "old_station_id": "akita/showa"}}, {"type": "Feature", "geometry": {"type": "Point", "coordinates": [140.028074, 40.26685]}, "properties": {"pref_id": "5", "station_id": "200", "name": "みねはま", "address": "018-2509 秋田県山本郡八峰町峰浜沼田字ホンコ谷地147-6", "hours": "9:00〜18:00≪冬期・営業時間短縮あり≫ <休 12/31〜1/3>", "uri": "https://www.michi-no-eki.jp/stations/view/200", "old_station_id": "akita/minehama"}}, {"type": "Feature", "geometry": {"type": "Point", "coordinates": [140.625808, 39.289317]}, "properties": {"pref_id": "5", "station_id": "201", "name": "さんない", "address": "019-1108 秋田県横手市山内土渕字小目倉沢34", "hours": "9:00〜19:00≪冬期・営業時間短縮あり≫", "uri": "https://www.michi-no-eki.jp/stations/view/201", "old_station_id": "akita/sannai"}}, {"type": "Feature", "geometry": {"type": "Point", "coordinates": [140.090156, 39.442884]}, "properties": {"pref_id": "5", "station_id": "202", "name": "おおうち", "address": "018-0711 秋田県由利本荘市岩谷町字西越36", "hours": "9:00〜21:00〔施設により異なる〕", "uri": "https://www.michi-no-eki.jp/stations/view/202", "old_station_id": "akita/ochi"}}, {"type": "Feature", "geometry": {"type": "Point", "coordinates": [140.456774, 39.901824]}, "properties": {"pref_id": "5", "station_id": "203", "name": "あに", "address": "018-4735 秋田県北秋田市阿仁比立内字家ノ後8-1", "hours": "9:00〜18:00≪冬期・営業時間短縮あり≫ <休 12月〜3月の毎週火曜日、12/31〜1/2>", "uri": "https://www.michi-no-eki.jp/stations/view/203", "old_station_id": "akita/ani"}}, {"type": "Feature", "geometry": {"type": "Point", "coordinates": [140.585214, 40.219348]}, "properties": {"pref_id": "5", "station_id": "204", "name": "ひない", "address": "018-5701 秋田県大館市比内町扇田字新大堤下93-11", "hours": "9:00〜20:00〔施設により異なる〕 <休 12/31〜1/2、レストランは毎週月曜日>", "uri": "https://www.michi-no-eki.jp/stations/view/204", "old_station_id": "akita/hinai"}}, {"type": "Feature", "geometry": {"type": "Point", "coordinates": [140.144214, 39.947086]}, "properties": {"pref_id": "5", "station_id": "205", "name": "五城目", "address": "018-1856 秋田県南秋田郡五城目町富津内下山内字上広ヶ野76-1", "hours": "◇物産館 9:00〜18:00(12月〜3月 17:00) ◇レストラン 11:00〜15:30 ◇軽食 9:00〜18:00(12月〜3月17:00)", "uri": "https://www.michi-no-eki.jp/stations/view/205", "old_station_id": "akita/gojome"}}, {"type": "Feature", "geometry": {"type": "Point", "coordinates": [140.291515, 39.109541]}, "properties": {"pref_id": "5", "station_id": "206", "name": "清水の里・鳥海郷", "address": "015-0721 秋田県由利本荘市鳥海町上笹子字堺台100", "hours": "8:30〜18:00 <休 12/31〜1/2>", "uri": "https://www.michi-no-eki.jp/stations/view/206", "old_station_id": "akita/shimizunosatochokaigo"}}, {"type": "Feature", "geometry": {"type": "Point", "coordinates": [140.567568, 39.378995]}, "properties": {"pref_id": "5", "station_id": "207", "name": "美郷", "address": "019-1302 秋田県仙北郡美郷町金沢字下舘124", "hours": "9:00〜19:00 ≪冬期・営業時間短縮あり≫ <休 1/1>", "uri": "https://www.michi-no-eki.jp/stations/view/207", "old_station_id": null}}, {"type": "Feature", "geometry": {"type": "Point", "coordinates": [140.362517, 39.61884]}, "properties": {"pref_id": "5", "station_id": "208", "name": "協和", "address": "019-2412 秋田県大仙市協和荒川字新田表15-2", "hours": "9:00〜19:00 (冬期9:00〜18:00)", "uri": "https://www.michi-no-eki.jp/stations/view/208", "old_station_id": "akita/kyowa"}}, {"type": "Feature", "geometry": {"type": "Point", "coordinates": [140.521447, 39.226174]}, "properties": {"pref_id": "5", "station_id": "209", "name": "十文字", "address": "019-0529 秋田県横手市十文字町字海道下21-4", "hours": "9:00〜19:00≪冬期・営業時間短縮あり≫", "uri": "https://www.michi-no-eki.jp/stations/view/209", "old_station_id": null}}, {"type": "Feature", "geometry": {"type": "Point", "coordinates": [139.951518, 40.015349]}, "properties": {"pref_id": "5", "station_id": "210", "name": "おおがた", "address": "010-0445 秋田県南秋田郡大潟村字西5-2", "hours": "8:00〜18:00≪冬期・営業時間短縮あり≫ <休 1/1〜1/2>", "uri": "https://www.michi-no-eki.jp/stations/view/210", "old_station_id": "akita/ogata"}}, {"type": "Feature", "geometry": {"type": "Point", "coordinates": [140.061005, 39.752708]}, "properties": {"pref_id": "5", "station_id": "211", "name": "あきた港", "address": "011-0945 秋田県秋田市土崎港西1-9-1", "hours": "9:00〜21:00〔施設により異なる〕", "uri": "https://www.michi-no-eki.jp/stations/view/211", "old_station_id": "akita/akitako"}}, {"type": "Feature", "geometry": {"type": "Point", "coordinates": [140.781686, 40.356598]}, "properties": {"pref_id": "5", "station_id": "212", "name": "こさか七滝", "address": "017-0203 秋田県鹿角郡小坂町上向字藤原35-3", "hours": "9:00〜17:00(4/15〜11/5) <休 月2回火曜日>               【冬期間は物産施設等が閉鎖】令和2年11月2日(月) 〜 令和3年4月16日(金)予定", "uri": "https://www.michi-no-eki.jp/stations/view/212", "old_station_id": "akita/kosakananataki"}}, {"type": "Feature", "geometry": {"type": "Point", "coordinates": [140.371628, 40.19197]}, "properties": {"pref_id": "5", "station_id": "213", "name": "大館能代空港", "address": "018-3454 秋田県北秋田市脇神字カラムシ岱21-144", "hours": "9:00〜18:15", "uri": "https://www.michi-no-eki.jp/stations/view/213", "old_station_id": "akita/odate-noshirokuuko"}}, {"type": "Feature", "geometry": {"type": "Point", "coordinates": [140.412438, 39.200532]}, "properties": {"pref_id": "5", "station_id": "11974", "name": "うご", "address": "012-1131 秋田県雄勝郡羽後町西馬音内字中野200", "hours": "9:00〜18:00、9:00〜17:00(11月〜4月)<休 1/1>", "uri": "https://www.michi-no-eki.jp/stations/view/11974", "old_station_id": "akita/ugo"}}, {"type": "Feature", "geometry": {"type": "Point", "coordinates": [140.82593, 40.295831]}, "properties": {"pref_id": "5", "station_id": "14169", "name": "おおゆ", "address": "018-5421 秋田県鹿角市十和田大湯字中谷地19", "hours": "9:00〜18:00", "uri": "https://www.michi-no-eki.jp/stations/view/14169", "old_station_id": null}}, {"type": "Feature", "geometry": {"type": "Point", "coordinates": [139.848491, 39.882027]}, "properties": {"pref_id": "5", "station_id": "14183", "name": "おが", "address": "010-0511 秋田県男鹿市船川港船川字新浜町1番地19", "hours": "9:00〜17:00", "uri": "https://www.michi-no-eki.jp/stations/view/14183", "old_station_id": null}}, {"type": "Feature", "geometry": {"type": "Point", "coordinates": [141.142137, 39.483271]}, "properties": {"pref_id": "3", "station_id": "142", "name": "石鳥谷", "address": "028-3171 岩手県花巻市石鳥谷町中寺林7-17-3", "hours": "9:00〜17:30〔施設により異なる〕 <休 12/31〜1/1>", "uri": "https://www.michi-no-eki.jp/stations/view/142", "old_station_id": "iwate/ishidoriya"}}, {"type": "Feature", "geometry": {"type": "Point", "coordinates": [141.62854, 39.008465]}, "properties": {"pref_id": "3", "station_id": "143", "name": "高田松原", "address": "029-2205 岩手県陸前高田市高田町字古川28-5", "hours": "", "uri": "https://www.michi-no-eki.jp/stations/view/143", "old_station_id": "iwate/takatamatsubara"}}, {"type": "Feature", "geometry": {"type": "Point", "coordinates": [141.35353, 39.651615]}, "properties": {"pref_id": "3", "station_id": "144", "name": "区界高原", "address": "028-2631 岩手県宮古市区界2-434-2", "hours": "8:30〜18:30 ≪冬期・営業時間短縮あり≫", "uri": "https://www.michi-no-eki.jp/stations/view/144", "old_station_id": "iwate/kuzakaikogen"}}, {"type": "Feature", "geometry": {"type": "Point", "coordinates": [141.663408, 40.279209]}, "properties": {"pref_id": "3", "station_id": "145", "name": "おおの", "address": "028-8802 岩手県九戸郡洋野町大野58-12-30", "hours": "9:00〜17:00〔施設により異なる〕", "uri": "https://www.michi-no-eki.jp/stations/view/145", "old_station_id": "oita/ono-2"}}, {"type": "Feature", "geometry": {"type": "Point", "coordinates": [141.395881, 39.179837]}, "properties": {"pref_id": "3", "station_id": "146", "name": "種山ヶ原", "address": "029-2311 岩手県気仙郡住田町世田米字子飼沢30-39", "hours": "9:00〜18:00(冬期17:00まで)", "uri": "https://www.michi-no-eki.jp/stations/view/146", "old_station_id": "iwate/taneyamagahara"}}, {"type": "Feature", "geometry": {"type": "Point", "coordinates": [141.862659, 39.842305]}, "properties": {"pref_id": "3", "station_id": "147", "name": "いわいずみ", "address": "027-0502 岩手県下閉伊郡岩泉町乙茂字乙茂90-1", "hours": "8:30〜18:00(夏期)、8:30〜17:30(冬期)", "uri": "https://www.michi-no-eki.jp/stations/view/147", "old_station_id": "iwate/iwaizumi"}}, {"type": "Feature", "geometry": {"type": "Point", "coordinates": [141.818707, 40.116105]}, "properties": {"pref_id": "3", "station_id": "148", "name": "のだ", "address": "028-8201 岩手県九戸郡野田村大字野田31-31-1", "hours": "9:00〜18:00 <休 1/1、3/31、9/30>", "uri": "https://www.michi-no-eki.jp/stations/view/148", "old_station_id": "iwate/noda"}}, {"type": "Feature", "geometry": {"type": "Point", "coordinates": [141.971987, 39.737554]}, "properties": {"pref_id": "3", "station_id": "149", "name": "たろう", "address": "027-0307 岩手県宮古市田老二丁目5-1", "hours": "9:00〜17:00(産直とれたろう)", "uri": "https://www.michi-no-eki.jp/stations/view/149", "old_station_id": "iwate/taro"}}, {"type": "Feature", "geometry": {"type": "Point", "coordinates": [141.902577, 39.909617]}, "properties": {"pref_id": "3", "station_id": "150", "name": "たのはた", "address": "028-8407 岩手県下閉伊郡田野畑村菅窪223-85", "hours": "9:00〜18:00(10〜3月/17:30)〔施設により異なる〕 <休 12/31〜1/4>", "uri": "https://www.michi-no-eki.jp/stations/view/150", "old_station_id": "iwate/tanohata"}}, {"type": "Feature", "geometry": {"type": "Point", "coordinates": [141.181477, 39.094217]}, "properties": {"pref_id": "3", "station_id": "151", "name": "みずさわ", "address": "023-0831 岩手県奥州市水沢区姉体町字石川原51-3", "hours": "売店9:00〜18:00 <休 1/1> 、レストラン11:00〜18:00(ラストオーダー17:00)", "uri": "https://www.michi-no-eki.jp/stations/view/151", "old_station_id": "iwate/mizusawa"}}, {"type": "Feature", "geometry": {"type": "Point", "coordinates": [141.099379, 39.879967]}, "properties": {"pref_id": "3", "station_id": "152", "name": "にしね", "address": "028-7111 岩手県八幡平市大更2-154-36", "hours": "8:30〜18:00≪冬期・営業時間短縮あり≫ <休 12/31〜1/1>", "uri": "https://www.michi-no-eki.jp/stations/view/152", "old_station_id": "iwate/nishine"}}, {"type": "Feature", "geometry": {"type": "Point", "coordinates": [141.573518, 40.150939]}, "properties": {"pref_id": "3", "station_id": "153", "name": "白樺の里やまがた", "address": "028-8602 岩手郡久慈市山形町川井8-12-1", "hours": "9:00〜18:00 <休 12/30〜1/3(売店は無休)>", "uri": "https://www.michi-no-eki.jp/stations/view/153", "old_station_id": "iwate/shirakabanosato-yamagata"}}, {"type": "Feature", "geometry": {"type": "Point", "coordinates": [141.351304, 39.346052]}, "properties": {"pref_id": "3", "station_id": "154", "name": "みやもり", "address": "028-0304 岩手県遠野市宮守町下宮守30-37-1", "hours": "9:00〜18:00≪冬期・営業時間短縮あり≫", "uri": "https://www.michi-no-eki.jp/stations/view/154", "old_station_id": "iwate/miyamori"}}, {"type": "Feature", "geometry": {"type": "Point", "coordinates": [141.206417, 39.555555]}, "properties": {"pref_id": "3", "station_id": "155", "name": "紫波", "address": "028-3535 岩手県紫波郡紫波町遠山字松原7-8", "hours": "9:00〜18:00≪冬期・営業時間短縮あり≫ <休 12/31〜1/3>", "uri": "https://www.michi-no-eki.jp/stations/view/155", "old_station_id": "iwate/shiwa"}}, {"type": "Feature", "geometry": {"type": "Point", "coordinates": [141.34049, 39.536775]}, "properties": {"pref_id": "3", "station_id": "156", "name": "はやちね", "address": "028-3201 岩手県花巻市大迫町内川目10-30-114", "hours": "売店9:00〜17:30 <休み:火曜日と冬期(11月下旬〜4月中旬)> トイレとスタンプと自販機は24時間年中無休で利用可", "uri": "https://www.michi-no-eki.jp/stations/view/156", "old_station_id": "iwate/hayachine"}}, {"type": "Feature", "geometry": {"type": "Point", "coordinates": [141.973205, 39.436905]}, "properties": {"pref_id": "3", "station_id": "157", "name": "やまだ", "address": "028-1371 岩手県下閉伊郡山田町船越6-141", "hours": "9:00〜18:00", "uri": "https://www.michi-no-eki.jp/stations/view/157", "old_station_id": "iwate/yamada"}}, {"type": "Feature", "geometry": {"type": "Point", "coordinates": [141.501123, 39.330925]}, "properties": {"pref_id": "3", "station_id": "158", "name": "遠野風の丘", "address": "028-0531 岩手県遠野市綾織町新里8-2-1", "hours": "8:30〜17:30〔施設により異なる〕", "uri": "https://www.michi-no-eki.jp/stations/view/158", "old_station_id": "iwate/tonokazenoka"}}, {"type": "Feature", "geometry": {"type": "Point", "coordinates": [141.798998, 39.121158]}, "properties": {"pref_id": "3", "station_id": "159", "name": "さんりく", "address": "022-0101 岩手県大船渡市三陸町越善来字井戸洞95-27", "hours": "8:30〜18:00", "uri": "https://www.michi-no-eki.jp/stations/view/159", "old_station_id": "iwate/sanriku"}}, {"type": "Feature", "geometry": {"type": "Point", "coordinates": [140.875147, 39.300719]}, "properties": {"pref_id": "3", "station_id": "160", "name": "錦秋湖", "address": "024-0341 岩手県和賀郡西和賀町杉名畑44-264", "hours": "9:00〜18:30(12〜3月は9:00〜18:00)", "uri": "https://www.michi-no-eki.jp/stations/view/160", "old_station_id": "iwate/kinshuuko"}}, {"type": "Feature", "geometry": {"type": "Point", "coordinates": [141.339958, 39.984567]}, "properties": {"pref_id": "3", "station_id": "161", "name": "くずまき高原", "address": "028-5402 岩手県岩手郡葛巻町葛巻39-159-3", "hours": "9:00〜18:00 ≪冬期・営業時間短縮あり≫ <休 1/1〜1/2>", "uri": "https://www.michi-no-eki.jp/stations/view/161", "old_station_id": "iwate/kuzumakikogen"}}, {"type": "Feature", "geometry": {"type": "Point", "coordinates": [141.21381, 39.968545]}, "properties": {"pref_id": "3", "station_id": "162", "name": "石神の丘", "address": "028-4307 岩手県岩手郡岩手町大字五日市10-121-20", "hours": "9:00〜18:30 ≪冬期・営業時間短縮あり≫", "uri": "https://www.michi-no-eki.jp/stations/view/162", "old_station_id": "iwate/ishigaminoka"}}, {"type": "Feature", "geometry": {"type": "Point", "coordinates": [140.874886, 39.706412]}, "properties": {"pref_id": "3", "station_id": "163", "name": "雫石あねっこ", "address": "020-0582 岩手県岩手郡雫石町橋場坂本118-10", "hours": "8:30〜18:00 ≪冬期・営業時間短縮あり≫", "uri": "https://www.michi-no-eki.jp/stations/view/163", "old_station_id": "iwate/shizukuishianekko"}}, {"type": "Feature", "geometry": {"type": "Point", "coordinates": [141.221895, 39.382437]}, "properties": {"pref_id": "3", "station_id": "164", "name": "とうわ", "address": "028-0115 岩手県花巻市東和町安俵6区147-2", "hours": "9:00〜17:00", "uri": "https://www.michi-no-eki.jp/stations/view/164", "old_station_id": "iwate/towa"}}, {"type": "Feature", "geometry": {"type": "Point", "coordinates": [141.052885, 38.946439]}, "properties": {"pref_id": "3", "station_id": "165", "name": "厳美渓", "address": "021-0101 岩手県一関市厳美町字沖野々220-1", "hours": "9:00〜18:00(11〜3月は9:00〜17:00)<休 毎月第3水曜日(3〜10月は無休)>", "uri": "https://www.michi-no-eki.jp/stations/view/165", "old_station_id": "iwate/gembikei"}}, {"type": "Feature", "geometry": {"type": "Point", "coordinates": [141.416529, 40.248349]}, "properties": {"pref_id": "3", "station_id": "166", "name": "おりつめ", "address": "028-6506 岩手県九戸郡九戸村大字山屋2-28-1", "hours": "8:00〜19:00 <休 1/1>", "uri": "https://www.michi-no-eki.jp/stations/view/166", "old_station_id": "iwate/oritsume"}}, {"type": "Feature", "geometry": {"type": "Point", "coordinates": [141.272375, 38.898677]}, "properties": {"pref_id": "3", "station_id": "167", "name": "かわさき", "address": "029-0202 岩手県一関市川崎町薄衣字法道地42-3", "hours": "9:00〜19:00(12〜2月は9:00〜18:00)", "uri": "https://www.michi-no-eki.jp/stations/view/167", "old_station_id": "iwate/kawasaki"}}, {"type": "Feature", "geometry": {"type": "Point", "coordinates": [141.589162, 39.648882]}, "properties": {"pref_id": "3", "station_id": "168", "name": "やまびこ館", "address": "028-2513 岩手県宮古市川内8-2", "hours": "8:30〜18:30 ≪冬期・営業時間短縮あり≫", "uri": "https://www.michi-no-eki.jp/stations/view/168", "old_station_id": "iwate/yamabikokan"}}, {"type": "Feature", "geometry": {"type": "Point", "coordinates": [141.969894, 39.639018]}, "properties": {"pref_id": "3", "station_id": "169", "name": "みやこ", "address": "027-0004 岩手県宮古市臨港通1-20", "hours": "9:00〜17:00〔施設により異なる〕", "uri": "https://www.michi-no-eki.jp/stations/view/169", "old_station_id": "iwate/miyako"}}, {"type": "Feature", "geometry": {"type": "Point", "coordinates": [141.589311, 39.871122]}, "properties": {"pref_id": "3", "station_id": "170", "name": "三田貝分校", "address": "028-5641 岩手県下閉伊郡岩泉町門字三田貝47-2", "hours": "8:30〜18:00 ≪冬期・営業時間短縮あり≫", "uri": "https://www.michi-no-eki.jp/stations/view/170", "old_station_id": "iwate/mitagaibunko"}}, {"type": "Feature", "geometry": {"type": "Point", "coordinates": [141.764639, 40.189888]}, "properties": {"pref_id": "3", "station_id": "171", "name": "くじ", "address": "028-0056 岩手県久慈市中町2-5-6", "hours": "9:00〜19:00 ≪冬期・営業時間短縮あり≫ <休 1/1>", "uri": "https://www.michi-no-eki.jp/stations/view/171", "old_station_id": "iwate/kuji"}}, {"type": "Feature", "geometry": {"type": "Point", "coordinates": [141.781682, 39.253633]}, "properties": {"pref_id": "3", "station_id": "7980", "name": "釜石仙人峠", "address": "026-0055 岩手県釜石市甲子町7-155-4", "hours": "9:00〜18:00〔施設により異なる〕<休 12/31〜1/1>", "uri": "https://www.michi-no-eki.jp/stations/view/7980", "old_station_id": "iwate/kamaishisennintouge"}}, {"type": "Feature", "geometry": {"type": "Point", "coordinates": [141.121791, 38.991816]}, "properties": {"pref_id": "3", "station_id": "14132", "name": "平泉", "address": "029-4012 岩手県西磐井郡平泉町平泉字伽羅楽112-2", "hours": "9:00〜18:00 ≪冬期・営業時間短縮あり≫", "uri": "https://www.michi-no-eki.jp/stations/view/14132", "old_station_id": null}}, {"type": "Feature", "geometry": {"type": "Point", "coordinates": [141.447163, 38.933199]}, "properties": {"pref_id": "3", "station_id": "14168", "name": "むろね", "address": "029-1201 岩手県一関市室根町折壁字向山131-9", "hours": "", "uri": "https://www.michi-no-eki.jp/stations/view/14168", "old_station_id": null}}, {"type": "Feature", "geometry": {"type": "Point", "coordinates": [141.05601, 39.365752]}, "properties": {"pref_id": "3", "station_id": "14214", "name": "はなまき西南", "address": " 岩手県花巻市轟木7地割203番地", "hours": "物産館「すぎの樹」 9:00〜17:00   食堂「味楽苑」 11:00〜14:00、17:00〜21:30  加工室「ミッレとキッチン花」", "uri": "https://www.michi-no-eki.jp/stations/view/14214", "old_station_id": null}}, {"type": "Feature", "geometry": {"type": "Point", "coordinates": [141.885932, 40.002952]}, "properties": {"pref_id": "3", "station_id": "14233", "name": "青の国ふだい(令和3年度オープン予定)", "address": "028-8332 岩手県下閉伊郡普代村第9地割字銅屋5番地3", "hours": "", "uri": "https://www.michi-no-eki.jp/stations/view/14233", "old_station_id": null}}, {"type": "Feature", "geometry": {"type": "Point", "coordinates": [139.874501, 38.586994]}, "properties": {"pref_id": "6", "station_id": "214", "name": "月山", "address": "997-0403 山形県鶴岡市越中山字名平3-1", "hours": "9:00〜17:00 <休 12〜3月の第4月曜日>", "uri": "https://www.michi-no-eki.jp/stations/view/214", "old_station_id": "yamagata/gassan"}}, {"type": "Feature", "geometry": {"type": "Point", "coordinates": [140.328447, 38.41304]}, "properties": {"pref_id": "6", "station_id": "215", "name": "河北", "address": "999-3511 山形県西村山郡河北町谷地字真木335-1", "hours": "8:30〜18:00", "uri": "https://www.michi-no-eki.jp/stations/view/215", "old_station_id": "yamagata/kahoku"}}, {"type": "Feature", "geometry": {"type": "Point", "coordinates": [140.269891, 38.399013]}, "properties": {"pref_id": "6", "station_id": "216", "name": "寒河江", "address": "990-0523 山形県寒河江市大字八鍬字川原919-8", "hours": "9:00〜18:00≪冬期・営業時間短縮あり≫", "uri": "https://www.michi-no-eki.jp/stations/view/216", "old_station_id": null}}, {"type": "Feature", "geometry": {"type": "Point", "coordinates": [139.558109, 38.580422]}, "properties": {"pref_id": "6", "station_id": "217", "name": "あつみ", "address": "999-7121 山形県鶴岡市早田字戸ノ浦606", "hours": "8:00〜18:00(冬季は8:30〜17:30) <休 毎月最終水曜日(7・8月を除く)、12/31〜1/1>", "uri": "https://www.michi-no-eki.jp/stations/view/217", "old_station_id": "yamagata/atsumi"}}, {"type": "Feature", "geometry": {"type": "Point", "coordinates": [140.099237, 38.436059]}, "properties": {"pref_id": "6", "station_id": "218", "name": "にしかわ", "address": "990-0742 山形県西村山郡西川町大字水沢2304", "hours": "8:30〜18:00 <休 年末年始>", "uri": "https://www.michi-no-eki.jp/stations/view/218", "old_station_id": "yamagata/nishikawa"}}, {"type": "Feature", "geometry": {"type": "Point", "coordinates": [139.994671, 38.026065]}, "properties": {"pref_id": "6", "station_id": "219", "name": "いいで", "address": "999-0606 山形県西置賜郡飯豊町大字松原1898", "hours": "9:00〜18:00(12〜3月は10:00〜17:00) <休 12/31〜1/1>", "uri": "https://www.michi-no-eki.jp/stations/view/219", "old_station_id": "yamagata/iide"}}, {"type": "Feature", "geometry": {"type": "Point", "coordinates": [140.38231, 38.487146]}, "properties": {"pref_id": "6", "station_id": "220", "name": "むらやま", "address": "995-0025 山形県村山市大字楯岡7635-1", "hours": "9:00〜19:30(季節変更あり)", "uri": "https://www.michi-no-eki.jp/stations/view/220", "old_station_id": "yamagata/murayama"}}, {"type": "Feature", "geometry": {"type": "Point", "coordinates": [140.161431, 38.728688]}, "properties": {"pref_id": "6", "station_id": "221", "name": "とざわ", "address": "999-6402 山形県最上郡戸沢村大字蔵岡字黒渕3008-1", "hours": "9:00〜17:30〔施設により異なる〕", "uri": "https://www.michi-no-eki.jp/stations/view/221", "old_station_id": "yamagata/tozawa"}}, {"type": "Feature", "geometry": {"type": "Point", "coordinates": [139.875583, 39.060163]}, "properties": {"pref_id": "6", "station_id": "222", "name": "鳥海", "address": "999-8531 山形県飽海郡遊佐町大字菅里字菅野308-1", "hours": "9:00〜18:00(3月〜10月)、9:00〜17:00(11〜2月) < 休  12/31 ・ 1/1 >", "uri": "https://www.michi-no-eki.jp/stations/view/222", "old_station_id": "yamagata/chokai"}}, {"type": "Feature", "geometry": {"type": "Point", "coordinates": [139.984182, 37.877658]}, "properties": {"pref_id": "6", "station_id": "223", "name": "田沢", "address": "992-1583 山形県米沢市大字入田沢573-19", "hours": "9:00〜18:00 ≪冬期・営業時間短縮あり≫ <休 1/1>", "uri": "https://www.michi-no-eki.jp/stations/view/223", "old_station_id": "yamagata/tazawa"}}, {"type": "Feature", "geometry": {"type": "Point", "coordinates": [139.730609, 38.071956]}, "properties": {"pref_id": "6", "station_id": "224", "name": "白い森おぐに", "address": "999-1363 山形県西置賜郡小国町大字小国小坂町616-1", "hours": "9:00〜18:00≪冬期・営業時間短縮あり≫ <休 1/1>", "uri": "https://www.michi-no-eki.jp/stations/view/224", "old_station_id": "yamagata/shiroimorioguni"}}, {"type": "Feature", "geometry": {"type": "Point", "coordinates": [140.213291, 38.367756]}, "properties": {"pref_id": "6", "station_id": "225", "name": "おおえ", "address": "990-1121 山形県西村山郡大江町大字藤田218-1", "hours": "9:00〜17:00≪冬期・営業時間短縮あり≫ <休 12/31〜1/1>", "uri": "https://www.michi-no-eki.jp/stations/view/225", "old_station_id": "yamagata/oe"}}, {"type": "Feature", "geometry": {"type": "Point", "coordinates": [139.84633, 38.782805]}, "properties": {"pref_id": "6", "station_id": "226", "name": "庄内みかわ", "address": "997-1301 山形県東田川郡三川町大字横山字堤172-1", "hours": "9:00〜17:30 <休 1/1〜1/3>", "uri": "https://www.michi-no-eki.jp/stations/view/226", "old_station_id": "yamagata/shonaimikawa"}}, {"type": "Feature", "geometry": {"type": "Point", "coordinates": [140.217442, 38.006775]}, "properties": {"pref_id": "6", "station_id": "227", "name": "たかはた", "address": "992-0302 山形県東置賜郡高畠町大字安久津2072-1", "hours": "9:00〜17:30≪冬期・営業時間短縮あり≫", "uri": "https://www.michi-no-eki.jp/stations/view/227", "old_station_id": "yamagata/takahata"}}, {"type": "Feature", "geometry": {"type": "Point", "coordinates": [140.387127, 38.354481]}, "properties": {"pref_id": "6", "station_id": "228", "name": "天童温泉", "address": "994-0028 山形県天童市鍬ノ町二丁目3番41号", "hours": "9:00〜18:00", "uri": "https://www.michi-no-eki.jp/stations/view/228", "old_station_id": "yamagata/tendonsen"}}, {"type": "Feature", "geometry": {"type": "Point", "coordinates": [140.363688, 38.656902]}, "properties": {"pref_id": "6", "station_id": "229", "name": "尾花沢", "address": "999-4554 山形県尾花沢市芦沢1195-1", "hours": "9:00〜18:00 <休 1/1>", "uri": "https://www.michi-no-eki.jp/stations/view/229", "old_station_id": "yamagata/obanazawa"}}, {"type": "Feature", "geometry": {"type": "Point", "coordinates": [140.097322, 38.218111]}, "properties": {"pref_id": "6", "station_id": "230", "name": "白鷹ヤナ公園", "address": "992-0862 山形県西置賜郡白鷹町大字下山661-1", "hours": "10:00〜18:00≪冬期・営業時間短縮あり≫ <休 毎週水曜日>", "uri": "https://www.michi-no-eki.jp/stations/view/230", "old_station_id": "yamagata/shiratakayanakoen"}}, {"type": "Feature", "geometry": {"type": "Point", "coordinates": [140.169257, 38.327388]}, "properties": {"pref_id": "6", "station_id": "7982", "name": "あさひまち", "address": "990-1411 山形県西村山郡朝日町大字和合字北又2724", "hours": "9:00〜18:00〔施設により異なる〕 (冬季は9:00〜17:00)", "uri": "https://www.michi-no-eki.jp/stations/view/7982", "old_station_id": "yamagata/asahimachi"}}, {"type": "Feature", "geometry": {"type": "Point", "coordinates": [139.984412, 38.794158]}, "properties": {"pref_id": "6", "station_id": "11975", "name": "しょうない", "address": "999-6601 山形県東田川郡庄内町狩川字外北割97-1", "hours": "9:30〜18:00≪冬期・営業時間短縮あり≫ <休 年末年始>", "uri": "https://www.michi-no-eki.jp/stations/view/11975", "old_station_id": null}}, {"type": "Feature", "geometry": {"type": "Point", "coordinates": [140.043516, 38.108211]}, "properties": {"pref_id": "6", "station_id": "14136", "name": "川のみなと長井", "address": "993-0003 山形県長井市東町2-50", "hours": "9:00〜18:00〔施設により異なる〕", "uri": "https://www.michi-no-eki.jp/stations/view/14136", "old_station_id": null}}, {"type": "Feature", "geometry": {"type": "Point", "coordinates": [140.137017, 37.922055]}, "properties": {"pref_id": "6", "station_id": "14170", "name": "米沢", "address": "992-0117 山形県米沢市大字川井1039-1", "hours": "トイレ、道路情報コーナー、無料休憩所は24時間ご利用いただけます。 お土産コーナー:9時〜18時 フードコート:10時〜18時 セブンイレブン:7時〜21時 米沢牛レストラン牛毘亭:11時〜21時", "uri": "https://www.michi-no-eki.jp/stations/view/14170", "old_station_id": null}}, {"type": "Feature", "geometry": {"type": "Point", "coordinates": [140.466502, 37.982691]}, "properties": {"pref_id": "4", "station_id": "172", "name": "七ヶ宿", "address": "989-0537 宮城県刈田郡七ヶ宿町字上野8-1", "hours": "9:00〜17:30 ≪冬期・営業時間短縮あり≫ <休 12/31〜1/3、3/31>", "uri": "https://www.michi-no-eki.jp/stations/view/172", "old_station_id": "miyagi/shichigashuku"}}, {"type": "Feature", "geometry": {"type": "Point", "coordinates": [141.325525, 38.619593]}, "properties": {"pref_id": "4", "station_id": "173", "name": "津山", "address": "986-0402 宮城県登米市津山町横山字細谷26-1", "hours": "9:00〜17:00 <休 12/30〜1/1>", "uri": "https://www.michi-no-eki.jp/stations/view/173", "old_station_id": "miyagi/tsuyama"}}, {"type": "Feature", "geometry": {"type": "Point", "coordinates": [140.938388, 38.521611]}, "properties": {"pref_id": "4", "station_id": "174", "name": "三本木", "address": "989-6321 宮城県大崎市三本木字大豆坂63-13", "hours": "9:00〜18:00", "uri": "https://www.michi-no-eki.jp/stations/view/174", "old_station_id": "miyagi/sambongi"}}, {"type": "Feature", "geometry": {"type": "Point", "coordinates": [140.844319, 38.794418]}, "properties": {"pref_id": "4", "station_id": "175", "name": "路田里はなやま", "address": "987-2511 宮城県栗原市花山字本沢北ノ前112-1", "hours": "9:30〜18:00(12月〜2月は9:30〜17:00)", "uri": "https://www.michi-no-eki.jp/stations/view/175", "old_station_id": "miyagi/rotarihanayama"}}, {"type": "Feature", "geometry": {"type": "Point", "coordinates": [141.566482, 38.814009]}, "properties": {"pref_id": "4", "station_id": "176", "name": "大谷海岸", "address": "988-0273 宮城県気仙沼市本吉町三島94-12", "hours": "9:30〜17:30 <休 12/31〜1/2>", "uri": "https://www.michi-no-eki.jp/stations/view/176", "old_station_id": "miyagi/oyakaigan"}}, {"type": "Feature", "geometry": {"type": "Point", "coordinates": [140.992791, 38.424053]}, "properties": {"pref_id": "4", "station_id": "177", "name": "おおさと", "address": "981-3521 宮城県黒川郡大郷町中村字北浦 51-6", "hours": "9:00〜18:00 <休 年末年始>", "uri": "https://www.michi-no-eki.jp/stations/view/177", "old_station_id": "miyagi/osato"}}, {"type": "Feature", "geometry": {"type": "Point", "coordinates": [141.187891, 38.627118]}, "properties": {"pref_id": "4", "station_id": "178", "name": "米山", "address": "987-0321 宮城県登米市米山町西野字遠田67", "hours": "9:00〜18:30(4月〜11月)、9:00〜18:00(12月〜3月) <休 12/31〜1/3>", "uri": "https://www.michi-no-eki.jp/stations/view/178", "old_station_id": "miyagi/yoneyama"}}, {"type": "Feature", "geometry": {"type": "Point", "coordinates": [140.833294, 38.70744]}, "properties": {"pref_id": "4", "station_id": "179", "name": "あ・ら・伊達な道の駅", "address": "989-6405 宮城県大崎市岩出山池月字下宮道下4-1", "hours": "4月〜11月 9:00〜18:00  12月〜3月 9:00〜17:00〔施設により異なる〕", "uri": "https://www.michi-no-eki.jp/stations/view/179", "old_station_id": "miyagi/a-ra-datenamichinoeki"}}, {"type": "Feature", "geometry": {"type": "Point", "coordinates": [141.316076, 38.742664]}, "properties": {"pref_id": "4", "station_id": "180", "name": "林林館", "address": "987-0901 宮城県登米市東和町米川字六反33-1", "hours": "9:00〜18:00〔施設により異なる〕", "uri": "https://www.michi-no-eki.jp/stations/view/180", "old_station_id": "miyagi/rinrinkan"}}, {"type": "Feature", "geometry": {"type": "Point", "coordinates": [141.295318, 38.501033]}, "properties": {"pref_id": "4", "station_id": "181", "name": "上品の郷", "address": "986-0132 宮城県石巻市小船越字二子北下1-1", "hours": "直売所9:00〜19:00   レストラン平日11:00〜15:00(LO14:30) 土日祝11:00〜17:00(16:30)   温泉保養施設R2.12月まで臨時休業", "uri": "https://www.michi-no-eki.jp/stations/view/181", "old_station_id": "miyagi/jobonnosato"}}, {"type": "Feature", "geometry": {"type": "Point", "coordinates": [141.160641, 38.66488]}, "properties": {"pref_id": "4", "station_id": "182", "name": "みなみかた", "address": "987-0401 宮城県登米市南方町新高石浦150-1", "hours": "9:00〜18:00(施設により異なる) <休 12/31〜1/3>", "uri": "https://www.michi-no-eki.jp/stations/view/182", "old_station_id": "miyagi/minamikata"}}, {"type": "Feature", "geometry": {"type": "Point", "coordinates": [140.717279, 38.118639]}, "properties": {"pref_id": "4", "station_id": "183", "name": "村田", "address": "989-1305 宮城県柴田郡村田町大字村田字北塩内41", "hours": "9:00〜17:00 <休 年末年始>", "uri": "https://www.michi-no-eki.jp/stations/view/183", "old_station_id": "miyagi/murata"}}, {"type": "Feature", "geometry": {"type": "Point", "coordinates": [141.327823, 38.70797]}, "properties": {"pref_id": "4", "station_id": "9726", "name": "三滝堂", "address": "987-0902 宮城県登米市東和町米谷字福平191-1", "hours": "9:00〜19:00〔施設により異なる〕", "uri": "https://www.michi-no-eki.jp/stations/view/9726", "old_station_id": null}}, {"type": "Feature", "geometry": {"type": "Point", "coordinates": [140.956797, 38.579937]}, "properties": {"pref_id": "4", "station_id": "14199", "name": "おおさき", "address": "989-6174 宮城県大崎市古川千手寺町二丁目5番50号", "hours": "産直コーナー 09:30〜18:30     コミュニティカフェ 10:00〜18:00  共に元旦のみお休み", "uri": "https://www.michi-no-eki.jp/stations/view/14199", "old_station_id": null}}, {"type": "Feature", "geometry": {"type": "Point", "coordinates": [140.809295, 37.96873]}, "properties": {"pref_id": "4", "station_id": "14200", "name": "かくだ", "address": "981-1504 宮城県角田市枝野字北島81番地1", "hours": "", "uri": "https://www.michi-no-eki.jp/stations/view/14200", "old_station_id": null}}, {"type": "Feature", "geometry": {"type": "Point", "coordinates": [141.468783, 38.520781]}, "properties": {"pref_id": "4", "station_id": "14234", "name": "硯上の里おがつ(令和3年度オープン予定)", "address": "986-1335 宮城県石巻市雄勝町下雄勝二丁目5番地", "hours": "", "uri": "https://www.michi-no-eki.jp/stations/view/14234", "old_station_id": null}}, {"type": "Feature", "geometry": {"type": "Point", "coordinates": [141.445985, 38.44581]}, "properties": {"pref_id": "4", "station_id": "14235", "name": "おながわ(令和3年度オープン予定)", "address": "986-2265 宮城県牡鹿郡女川町女川二丁目66番地", "hours": "", "uri": "https://www.michi-no-eki.jp/stations/view/14235", "old_station_id": null}}, {"type": "Feature", "geometry": {"type": "Point", "coordinates": [141.448327, 38.678126]}, "properties": {"pref_id": "4", "station_id": "14236", "name": "さんさん南三陸(令和3年度オープン予定)", "address": "986-0752 宮城県本吉郡南三陸町志津川字五日町200-1", "hours": "", "uri": "https://www.michi-no-eki.jp/stations/view/14236", "old_station_id": null}}, {"type": "Feature", "geometry": {"type": "Point", "coordinates": [140.334294, 37.65512]}, "properties": {"pref_id": "7", "station_id": "231", "name": "つちゆ", "address": "960-1243 福島県福島市松川町水原字南沢41-2", "hours": "9:00〜18:00≪冬期・営業時間短縮あり≫", "uri": "https://www.michi-no-eki.jp/stations/view/231", "old_station_id": "fukushima/tsuchiyu"}}, {"type": "Feature", "geometry": {"type": "Point", "coordinates": [140.576693, 37.667818]}, "properties": {"pref_id": "7", "station_id": "232", "name": "川俣", "address": "960-1406 福島県伊達郡川俣町大字鶴沢字東13-1", "hours": "9:00〜17:00 <休 12/31〜1/1>", "uri": "https://www.michi-no-eki.jp/stations/view/232", "old_station_id": "fukushima/kawamata"}}, {"type": "Feature", "geometry": {"type": "Point", "coordinates": [139.727599, 37.08655]}, "properties": {"pref_id": "7", "station_id": "233", "name": "たじま", "address": "967-0014 福島県南会津郡南会津町糸沢 字男鹿沼原3242-8", "hours": "7:00〜19:00(12月〜3月は7:00〜18:00まで)", "uri": "https://www.michi-no-eki.jp/stations/view/233", "old_station_id": "fukushima/tajima"}}, {"type": "Feature", "geometry": {"type": "Point", "coordinates": [140.483688, 37.635666]}, "properties": {"pref_id": "7", "station_id": "234", "name": "安達", "address": " 上記参照", "hours": "(上り線)9:00〜18:00、(下り線)8:30〜19:00 〔店舗により異なる〕", "uri": "https://www.michi-no-eki.jp/stations/view/234", "old_station_id": "fukushima/adachi"}}, {"type": "Feature", "geometry": {"type": "Point", "coordinates": [139.878264, 37.701938]}, "properties": {"pref_id": "7", "station_id": "235", "name": "喜多の郷", "address": "966-0901 福島県喜多方市松山町鳥見山字三町歩5598-1", "hours": "9:00〜18:00≪夏期・営業時間延長あり≫<休 年末年始>", "uri": "https://www.michi-no-eki.jp/stations/view/235", "old_station_id": "fukushima/kitanosato"}}, {"type": "Feature", "geometry": {"type": "Point", "coordinates": [140.043753, 37.665058]}, "properties": {"pref_id": "7", "station_id": "236", "name": "裏磐梯", "address": "966-0401 福島県耶麻郡北塩原村大字桧原字南黄連沢山1157", "hours": "8:30〜17:30≪冬期・営業時間短縮あり≫<休 11月〜4月の毎週水曜日>", "uri": "https://www.michi-no-eki.jp/stations/view/236", "old_station_id": "fukushima/urabandai"}}, {"type": "Feature", "geometry": {"type": "Point", "coordinates": [140.997626, 37.250006]}, "properties": {"pref_id": "7", "station_id": "237", "name": "ならは", "address": "979-0513 福島県双葉郡楢葉町大字山田岡字大堤入22-1", "hours": "売店施設10:00〜18:00        温泉施設10:00〜21:00        フードコート11:00〜20:00", "uri": "https://www.michi-no-eki.jp/stations/view/237", "old_station_id": "fukushima/naraha"}}, {"type": "Feature", "geometry": {"type": "Point", "coordinates": [140.947952, 37.761109]}, "properties": {"pref_id": "7", "station_id": "238", "name": "そうま", "address": "979-2522 福島県相馬市日下石字金谷74-1", "hours": "9:30〜18:00", "uri": "https://www.michi-no-eki.jp/stations/view/238", "old_station_id": "fukushima/soma"}}, {"type": "Feature", "geometry": {"type": "Point", "coordinates": [140.41452, 36.950619]}, "properties": {"pref_id": "7", "station_id": "239", "name": "はなわ", "address": "963-5405 福島県東白川郡塙町大字塙字桜木町388-1", "hours": "9:00〜18:00 <休 1/1>", "uri": "https://www.michi-no-eki.jp/stations/view/239", "old_station_id": "fukushima/hanawa"}}, {"type": "Feature", "geometry": {"type": "Point", "coordinates": [139.722175, 37.527693]}, "properties": {"pref_id": "7", "station_id": "240", "name": "会津柳津", "address": "969-7201 福島県河沼郡柳津町字下平乙181-1", "hours": "9:00〜18:00 ≪冬期・営業時間短縮あり≫", "uri": "https://www.michi-no-eki.jp/stations/view/240", "old_station_id": "fukushima/aizuyanaizu"}}, {"type": "Feature", "geometry": {"type": "Point", "coordinates": [140.577349, 37.569956]}, "properties": {"pref_id": "7", "station_id": "241", "name": "ふくしま東和", "address": "964-0111 福島県二本松市太田字下田2-3", "hours": "9:00〜18:00(4/1〜11/30 12/1〜3/31)<休 1/1・1/2・1/25>", "uri": "https://www.michi-no-eki.jp/stations/view/241", "old_station_id": "fukushima/fukushimatowa"}}, {"type": "Feature", "geometry": {"type": "Point", "coordinates": [139.642595, 37.585867]}, "properties": {"pref_id": "7", "station_id": "242", "name": "にしあいづ", "address": "969-4406 福島県耶麻郡西会津町野沢字下條乙1969-26", "hours": "9:00〜19:00 <休 1/1>                                     9:00〜18:00(12/1〜3/15)", "uri": "https://www.michi-no-eki.jp/stations/view/242", "old_station_id": "fukushima/nishiaizu"}}, {"type": "Feature", "geometry": {"type": "Point", "coordinates": [139.670802, 37.477758]}, "properties": {"pref_id": "7", "station_id": "243", "name": "尾瀬街道みしま宿", "address": "969-7515 福島県大沼郡三島町大字川井字天屋原610", "hours": "8:00〜18:00 <休 1/1〜1/3>", "uri": "https://www.michi-no-eki.jp/stations/view/243", "old_station_id": "fukushima/ozekaido-mishimajuku"}}, {"type": "Feature", "geometry": {"type": "Point", "coordinates": [140.418137, 37.222832]}, "properties": {"pref_id": "7", "station_id": "244", "name": "たまかわ", "address": "963-7800 福島県石川郡玉川村大字岩法寺字宮ノ前140-2", "hours": "8:00〜18:00", "uri": "https://www.michi-no-eki.jp/stations/view/244", "old_station_id": "fukushima/tamakawa"}}, {"type": "Feature", "geometry": {"type": "Point", "coordinates": [140.063392, 37.239976]}, "properties": {"pref_id": "7", "station_id": "245", "name": "羽鳥湖高原", "address": "962-0622 福島県岩瀬郡天栄村大字田良尾字芝草1-3552", "hours": "9:00〜18:00", "uri": "https://www.michi-no-eki.jp/stations/view/245", "old_station_id": "fukushima/hatorikokogen"}}, {"type": "Feature", "geometry": {"type": "Point", "coordinates": [140.983582, 37.635707]}, "properties": {"pref_id": "7", "station_id": "246", "name": "南相馬", "address": "975-0033 福島県南相馬市原町区高見町2-30-1", "hours": "9:00〜18:00〔施設により異なる〕", "uri": "https://www.michi-no-eki.jp/stations/view/246", "old_station_id": "fukushima/minamisoma"}}, {"type": "Feature", "geometry": {"type": "Point", "coordinates": [139.916343, 37.203539]}, "properties": {"pref_id": "7", "station_id": "247", "name": "しもごう", "address": "969-5335 福島県南会津郡下郷町大字南倉沢 字木賊844-188", "hours": "8:00〜18:00(4月〜11月)、8:00〜17:00(12月〜3月)<休 12/31〜1/1>", "uri": "https://www.michi-no-eki.jp/stations/view/247", "old_station_id": "fukushima/shimogo"}}, {"type": "Feature", "geometry": {"type": "Point", "coordinates": [140.560032, 37.250545]}, "properties": {"pref_id": "7", "station_id": "248", "name": "ひらた", "address": "963-8202 福島県石川郡平田村大字上蓬田字横森後160", "hours": "9:30〜18:00 <休 1/1>", "uri": "https://www.michi-no-eki.jp/stations/view/248", "old_station_id": "fukushima/hirata"}}, {"type": "Feature", "geometry": {"type": "Point", "coordinates": [140.992995, 37.107429]}, "properties": {"pref_id": "7", "station_id": "249", "name": "よつくら港", "address": "979-0201 福島県いわき市四倉町5-218-1", "hours": "9:00〜18:00〔施設により異なる〕*『11月〜2月 閉店17:00』 <休 1/1、毎週火曜日(但し 祝日、GW・お盆期間、1/2・3は営業いたします。)>", "uri": "https://www.michi-no-eki.jp/stations/view/249", "old_station_id": "fukushima/yotsukurako"}}, {"type": "Feature", "geometry": {"type": "Point", "coordinates": [139.986633, 37.562804]}, "properties": {"pref_id": "7", "station_id": "250", "name": "ばんだい", "address": "969-3301 福島県耶麻郡磐梯町大字磐梯字十王堂38", "hours": "8:30〜18:30(2019.12.1〜) 〔コーナーにより異なる〕", "uri": "https://www.michi-no-eki.jp/stations/view/250", "old_station_id": "fukushima/bandai"}}, {"type": "Feature", "geometry": {"type": "Point", "coordinates": [140.529774, 37.09313]}, "properties": {"pref_id": "7", "station_id": "251", "name": "ふるどの", "address": "963-8306 福島県石川郡古殿町大字田口字平舘25", "hours": "9:00〜18:00 <休 年末年始>", "uri": "https://www.michi-no-eki.jp/stations/view/251", "old_station_id": "fukushima/furudono"}}, {"type": "Feature", "geometry": {"type": "Point", "coordinates": [139.615486, 37.068822]}, "properties": {"pref_id": "7", "station_id": "252", "name": "番屋", "address": "967-0324 福島県南会津郡南会津町番屋4", "hours": "8:00〜17:00<休 毎週火曜日、木曜日(冬期のみ)、12/29〜1/1>", "uri": "https://www.michi-no-eki.jp/stations/view/252", "old_station_id": "fukushima/banya"}}, {"type": "Feature", "geometry": {"type": "Point", "coordinates": [140.244786, 37.24366]}, "properties": {"pref_id": "7", "station_id": "253", "name": "季の里天栄", "address": "962-0504 福島県岩瀬郡天栄村大字大里字天房50-1", "hours": "9:00〜18:00 <休 12/31〜1/3> 冬期間9:00〜17:00<12/1〜2/28>", "uri": "https://www.michi-no-eki.jp/stations/view/253", "old_station_id": "fukushima/kinosatotenei"}}, {"type": "Feature", "geometry": {"type": "Point", "coordinates": [139.54266, 37.221982]}, "properties": {"pref_id": "7", "station_id": "254", "name": "きらら289", "address": "967-0611 福島県南会津郡南会津町山口字橋尻1", "hours": "10:00〜20:00(火曜日は10:00〜14:00)", "uri": "https://www.michi-no-eki.jp/stations/view/254", "old_station_id": "fukushima/kirara-289"}}, {"type": "Feature", "geometry": {"type": "Point", "coordinates": [139.530583, 37.471924]}, "properties": {"pref_id": "7", "station_id": "255", "name": "奥会津かねやま", "address": "968-0006 福島県大沼郡金山町大字中川字上居平949-8", "hours": "9:00〜18:30<休 12/30〜1/2>", "uri": "https://www.michi-no-eki.jp/stations/view/255", "old_station_id": "fukushima/okuaizukaneyama"}}, {"type": "Feature", "geometry": {"type": "Point", "coordinates": [140.590248, 37.53478]}, "properties": {"pref_id": "7", "station_id": "256", "name": "さくらの郷", "address": "964-0301 福島県二本松市東新殿字平石田12-2", "hours": "9:00〜17:00 <休 年始>", "uri": "https://www.michi-no-eki.jp/stations/view/256", "old_station_id": "fukushima/sakuranosato"}}, {"type": "Feature", "geometry": {"type": "Point", "coordinates": [139.863136, 37.556999]}, "properties": {"pref_id": "7", "station_id": "257", "name": "あいづ 湯川・会津坂下", "address": "969-3555  福島県河沼郡湯川村大字佐野目字五丁ノ目78-1", "hours": "9:00〜19:00〔施設により異なる〕≪冬期・営業時間変更あり≫ <休 2月第3水曜日>", "uri": "https://www.michi-no-eki.jp/stations/view/257", "old_station_id": "fukushima/aizu-yugawa-aizubange"}}, {"type": "Feature", "geometry": {"type": "Point", "coordinates": [139.630139, 37.325463]}, "properties": {"pref_id": "7", "station_id": "258", "name": "からむし織の里しょうわ", "address": "968-0215 福島県大沼郡昭和村大字佐倉字上ノ原1", "hours": "9:00〜17:00 <休 12/29〜1/3>", "uri": "https://www.michi-no-eki.jp/stations/view/258", "old_station_id": "fukushima/karamushiorinosato-showa"}}, {"type": "Feature", "geometry": {"type": "Point", "coordinates": [140.107459, 37.538341]}, "properties": {"pref_id": "7", "station_id": "11976", "name": "猪苗代", "address": "969-3132 福島県耶麻郡猪苗代町大字堅田字五百苅1", "hours": "9:00〜18:00 軽食9:00〜17:30LO ダイニング10:30〜15:30LO 観光案内9:00頃〜16:00", "uri": "https://www.michi-no-eki.jp/stations/view/11976", "old_station_id": null}}, {"type": "Feature", "geometry": {"type": "Point", "coordinates": [140.545612, 37.872681]}, "properties": {"pref_id": "7", "station_id": "14134", "name": "国見 あつかしの郷", "address": "969-1761 福島県伊達郡国見町大字藤田字日渡二18-1", "hours": "9:00〜17:30 〔施設により異なる〕※詳細な臨時休業日・営業時間等は下記HPをご確認ください。", "uri": "https://www.michi-no-eki.jp/stations/view/14134", "old_station_id": null}},