{"type": "FeatureCollection", "features": [{"geometry": {"type": "Point", "coordinates": [141.8045499, 43.2466006]}, "type": "Feature", "properties": {"station_id": "mikasa", "name": "三笠", "pref_id": "hokkaido", "address": "北海道三笠市岡山1056番地1"}}, {"geometry": {"type": "Point", "coordinates": [142.1888941, 43.5255178]}, "type": "Feature", "properties": {"station_id": "suta%ef%bd%b0puraza-ashibetsu", "name": "スタープラザ 芦別", "pref_id": "hokkaido", "address": "北海道芦別市北4条東1丁目1番地"}}, {"geometry": {"type": "Point", "coordinates": [142.5727983, 43.1697013]}, "type": "Feature", "properties": {"station_id": "minamifurano", "name": "南ふらの", "pref_id": "hokkaido", "address": "北海道空知郡南富良野町字幾寅687"}}, {"geometry": {"type": "Point", "coordinates": [144.1981267, 42.9927351]}, "type": "Feature", "properties": {"station_id": "shiranuka-koitoi", "name": "しらぬか恋問", "pref_id": "hokkaido", "address": "北海道白糠郡白糠町コイトイ40番地3"}}, {"geometry": {"type": "Point", "coordinates": [142.3200331, 44.5588576]}, "type": "Feature", "properties": {"station_id": "bifuka", "name": "びふか", "pref_id": "hokkaido", "address": "北海道中川郡美深町字大手307番地1"}}, {"geometry": {"type": "Point", "coordinates": [140.1392974, 41.8943396]}, "type": "Feature", "properties": {"station_id": "esashi", "name": "江差", "pref_id": "hokkaido", "address": "北海道檜山郡江差町字尾山町1番地"}}, {"geometry": {"type": "Point", "coordinates": [141.0966168, 42.8551796]}, "type": "Feature", "properties": {"station_id": "boyo-nakayama", "name": "望羊中山", "pref_id": "hokkaido", "address": "北海道虻田郡喜茂別町字川上345番地"}}, {"geometry": {"type": "Point", "coordinates": [141.7935889, 44.7141176]}, "type": "Feature", "properties": {"station_id": "fujimi", "name": "富士見", "pref_id": "hokkaido", "address": "北海道天塩郡遠別町字富士見46番地1"}}, {"geometry": {"type": "Point", "coordinates": [143.2991945, 42.5588618]}, "type": "Feature", "properties": {"station_id": "chuurui", "name": "忠類", "pref_id": "hokkaido", "address": "北海道中川郡幕別町忠類白銀町384番地12"}}, {"geometry": {"type": "Point", "coordinates": [143.4806105, 43.2522652]}, "type": "Feature", "properties": {"station_id": "ashoroko", "name": "足寄湖", "pref_id": "hokkaido", "address": "北海道足寄郡足寄町中矢673番地4"}}, {"geometry": {"type": "Point", "coordinates": [144.4477354, 43.4923275]}, "type": "Feature", "properties": {"station_id": "mashuuonsen", "name": "摩周温泉", "pref_id": "hokkaido", "address": "北海道川上郡弟子屈町湯の島3丁目5番5"}}, {"geometry": {"type": "Point", "coordinates": [142.2578444, 44.7290586]}, "type": "Feature", "properties": {"station_id": "otoineppu", "name": "おといねっぷ", "pref_id": "hokkaido", "address": "北海道中川郡音威子府村字音威子府155番地"}}, {"geometry": {"type": "Point", "coordinates": [143.5956986, 44.1851816]}, "type": "Feature", "properties": {"station_id": "kamiyuubetsuonsen-chu%ef%bd%b0rippunoyu", "name": "かみゆうべつ温泉チューリップの湯", "pref_id": "hokkaido", "address": "北海道紋別郡湧別町中湧別中町3020番地の1"}}, {"geometry": {"type": "Point", "coordinates": [140.5167801, 42.9834347]}, "type": "Feature", "properties": {"station_id": "iwanai", "name": "いわない", "pref_id": "hokkaido", "address": "北海道岩内郡岩内町字万代47番地4"}}, {"geometry": {"type": "Point", "coordinates": [143.3287235, 43.9959412]}, "type": "Feature", "properties": {"station_id": "maruseppu", "name": "まるせっぷ", "pref_id": "hokkaido", "address": "北海道紋別郡遠軽町丸瀬布元町42-2"}}, {"geometry": {"type": "Point", "coordinates": [144.8471957, 43.0611082]}, "type": "Feature", "properties": {"station_id": "akkeshi-gurumepa%ef%bd%b0ku", "name": "厚岸グルメパーク", "pref_id": "hokkaido", "address": "北海道厚岸郡厚岸町住の江町2丁目2番地"}}, {"geometry": {"type": "Point", "coordinates": [141.875302, 43.7510483]}, "type": "Feature", "properties": {"station_id": "sanfurawa%ef%bd%b0hokuryuu", "name": "サンフラワー北竜", "pref_id": "hokkaido", "address": "北海道雨竜郡北竜町字板谷163番地2"}}, {"geometry": {"type": "Point", "coordinates": [142.6342261, 42.2208744]}, "type": "Feature", "properties": {"station_id": "mitsuishi", "name": "みついし", "pref_id": "hokkaido", "address": "北海道日高郡新ひだか町三石鳧舞161番地2"}}, {"geometry": {"type": "Point", "coordinates": [140.2161538, 41.9165731]}, "type": "Feature", "properties": {"station_id": "assabu", "name": "あっさぶ", "pref_id": "hokkaido", "address": "北海道檜山郡厚沢部町緑町72-1"}}, {"geometry": {"type": "Point", "coordinates": [140.0134173, 42.6867269]}, "type": "Feature", "properties": {"station_id": "yottekeshimamaki", "name": "よってけ!島牧", "pref_id": "hokkaido", "address": "北海道島牧郡島牧村字千走11番地の1"}}, {"geometry": {"type": "Point", "coordinates": [139.8814335, 42.2074831]}, "type": "Feature", "properties": {"station_id": "tekkuirando-taisei", "name": "てっくいランド大成", "pref_id": "hokkaido", "address": "北海道久遠郡せたな町大成区平浜378番地"}}, {"geometry": {"type": "Point", "coordinates": [143.3750043, 44.3283409]}, "type": "Feature", "properties": {"station_id": "oho%ef%bd%b0tsuku-mombetsu", "name": "オホーツク紋別", "pref_id": "hokkaido", "address": "北海道紋別市元紋別11番地6号"}}, {"geometry": {"type": "Point", "coordinates": [140.5681829, 42.1022506]}, "type": "Feature", "properties": {"station_id": "yuu-yuu-mori", "name": "YOU･遊･もり", "pref_id": "hokkaido", "address": "北海道茅部郡森町字上台町326-18"}}, {"geometry": {"type": "Point", "coordinates": [143.5005308, 43.7546445]}, "type": "Feature", "properties": {"station_id": "onneyuonsen", "name": "おんねゆ温泉", "pref_id": "hokkaido", "address": "北海道北見市留辺蘂町松山1-4"}}, {"geometry": {"type": "Point", "coordinates": [140.1062194, 42.0113971]}, "type": "Feature", "properties": {"station_id": "ru%ef%bd%b0to229-gennadai", "name": "ルート229元和台", "pref_id": "hokkaido", "address": "北海道爾志郡乙部町字元和169番地"}}, {"geometry": {"type": "Point", "coordinates": [141.8888016, 43.4332722]}, "type": "Feature", "properties": {"station_id": "hausuyarubi-naie", "name": "ハウスヤルビ奈井江", "pref_id": "hokkaido", "address": "北海道空知郡奈井江町字奈井江28番地1"}}, {"geometry": {"type": "Point", "coordinates": [141.6545521, 44.1499867]}, "type": "Feature", "properties": {"station_id": "obiranishimbanya", "name": "おびら鰊番屋", "pref_id": "hokkaido", "address": "北海道留萌郡小平町字鬼鹿広富"}}, {"geometry": {"type": "Point", "coordinates": [142.631813, 44.8783757]}, "type": "Feature", "properties": {"station_id": "mari%ef%bd%b0nairandookashima", "name": "マリーンアイランド岡島", "pref_id": "hokkaido", "address": "北海道枝幸郡枝幸町字岡島1978番地13"}}, {"geometry": {"type": "Point", "coordinates": [143.108823, 44.4665614]}, "type": "Feature", "properties": {"station_id": "okoppe", "name": "おこっぺ", "pref_id": "hokkaido", "address": "北海道紋別郡興部町字興部(幸町)"}}, {"geometry": {"type": "Point", "coordinates": [144.1469574, 43.1440197]}, "type": "Feature", "properties": {"station_id": "akan-tanchonosato", "name": "阿寒丹頂の里", "pref_id": "hokkaido", "address": "北海道釧路市阿寒町上阿寒23線38番地"}}, {"geometry": {"type": "Point", "coordinates": [143.2074571, 42.9765515]}, "type": "Feature", "properties": {"station_id": "otofuke", "name": "おとふけ", "pref_id": "hokkaido", "address": "北海道河東郡音更町木野大通西19丁目5番地"}}, {"geometry": {"type": "Point", "coordinates": [142.2134021, 44.8774622]}, "type": "Feature", "properties": {"station_id": "pinneshiri", "name": "ピンネシリ", "pref_id": "hokkaido", "address": "北海道枝幸郡中頓別町字敏音知72番7"}}, {"geometry": {"type": "Point", "coordinates": [141.1303562, 42.69805]}, "type": "Feature", "properties": {"station_id": "fo%ef%bd%b0resuto276otaki", "name": "フォーレスト276大滝", "pref_id": "hokkaido", "address": "北海道伊達市大滝区三階滝町637-5"}}, {"geometry": {"type": "Point", "coordinates": [140.0949691, 41.8084993]}, "type": "Feature", "properties": {"station_id": "kaminokunimonju", "name": "上ノ国もんじゅ", "pref_id": "hokkaido", "address": "北海道檜山郡上ノ国町字原歌3番地"}}, {"geometry": {"type": "Point", "coordinates": [140.3855694, 43.1653589]}, "type": "Feature", "properties": {"station_id": "osukoikamoenai", "name": "オスコイ!かもえない", "pref_id": "hokkaido", "address": "北海道古宇郡神恵内村大字赤石村字大森292番地1"}}, {"geometry": {"type": "Point", "coordinates": [143.1267878, 42.6922166]}, "type": "Feature", "properties": {"station_id": "nakasatsunai", "name": "なかさつない", "pref_id": "hokkaido", "address": "北海道河西郡中札内村大通南7丁目"}}, {"geometry": {"type": "Point", "coordinates": [141.7164386, 42.9457427]}, "type": "Feature", "properties": {"station_id": "maoinokakoen", "name": "マオイの丘公園", "pref_id": "hokkaido", "address": "北海道夕張郡長沼町東10線南7番地"}}, {"geometry": {"type": "Point", "coordinates": [142.4420074, 42.8767898]}, "type": "Feature", "properties": {"station_id": "jukairo%ef%bd%b0dohidaka", "name": "樹海ロード日高", "pref_id": "hokkaido", "address": "北海道沙流郡日高町本町東1丁目298-1"}}, {"geometry": {"type": "Point", "coordinates": [140.899004, 42.5591385]}, "type": "Feature", "properties": {"station_id": "sobetsujohokanai", "name": "そうべつ情報館i(アイ)", "pref_id": "hokkaido", "address": "北海道有珠郡壮瞥町字滝之町384-1"}}, {"geometry": {"type": "Point", "coordinates": [140.7023947, 42.7994921]}, "type": "Feature", "properties": {"station_id": "nisekobyu%ef%bd%b0puraza", "name": "ニセコビュープラザ", "pref_id": "hokkaido", "address": "北海道虻田郡ニセコ町字元町77番地10"}}, {"geometry": {"type": "Point", "coordinates": [140.3358339, 41.6012589]}, "type": "Feature", "properties": {"station_id": "shiriuchi", "name": "しりうち", "pref_id": "hokkaido", "address": "北海道上磯郡知内町字湯の里48番地13"}}, {"geometry": {"type": "Point", "coordinates": [140.251326, 41.4838023]}, "type": "Feature", "properties": {"station_id": "yokozunanosato-fukushima", "name": "横綱の里ふくしま", "pref_id": "hokkaido", "address": "北海道松前郡福島町字福島143番地の1ほか"}}, {"geometry": {"type": "Point", "coordinates": [142.3156908, 42.3598362]}, "type": "Feature", "properties": {"station_id": "sarabureddoro%ef%bd%b0do-niikappu", "name": "サラブレッドロード新冠", "pref_id": "hokkaido", "address": "北海道新冠郡新冠町字中央町1番地の20"}}, {"geometry": {"type": "Point", "coordinates": [143.2425854, 43.1538708]}, "type": "Feature", "properties": {"station_id": "pia21-shihoro", "name": "ピア21しほろ", "pref_id": "hokkaido", "address": "北海道河東郡士幌町字士幌西2線147番地"}}, {"geometry": {"type": "Point", "coordinates": [143.0815044, 44.1943416]}, "type": "Feature", "properties": {"station_id": "kaorinosato-takinoe", "name": "香りの里たきのうえ", "pref_id": "hokkaido", "address": "北海道紋別郡滝上町旭町"}}, {"geometry": {"type": "Point", "coordinates": [141.8940224, 43.6625089]}, "type": "Feature", "properties": {"station_id": "denennosato-uryuu", "name": "田園の里うりゅう", "pref_id": "hokkaido", "address": "北海道雨竜郡雨竜町字満寿28番地の3"}}, {"geometry": {"type": "Point", "coordinates": [140.9435886, 42.3419735]}, "type": "Feature", "properties": {"station_id": "mitaramuroran", "name": "みたら室蘭", "pref_id": "hokkaido", "address": "北海道室蘭市祝津町4丁目16番地15"}}, {"geometry": {"type": "Point", "coordinates": [142.475721, 43.8370939]}, "type": "Feature", "properties": {"station_id": "toma", "name": "とうま", "pref_id": "hokkaido", "address": "北海道上川郡当麻町字園別2区"}}, {"geometry": {"type": "Point", "coordinates": [140.7887813, 43.1885383]}, "type": "Feature", "properties": {"station_id": "supe%ef%bd%b0su-appuru-yoichi", "name": "スペース・アップルよいち", "pref_id": "hokkaido", "address": "北海道余市郡余市町黒川町6丁目4番地"}}, {"geometry": {"type": "Point", "coordinates": [141.7065768, 44.3673322]}, "type": "Feature", "properties": {"station_id": "hotto-haboro", "name": "ほっと♡はぼろ", "pref_id": "hokkaido", "address": "北海道苫前郡羽幌町北3条1丁目29番地"}}, {"geometry": {"type": "Point", "coordinates": [143.8241425, 44.0999179]}, "type": "Feature", "properties": {"station_id": "saromako", "name": "サロマ湖", "pref_id": "hokkaido", "address": "北海道常呂郡佐呂間町字浪速121番地3"}}, {"geometry": {"type": "Point", "coordinates": [143.7192064, 44.1308204]}, "type": "Feature", "properties": {"station_id": "airando-yuubetsu", "name": "愛ランド湧別", "pref_id": "hokkaido", "address": "北海道紋別郡湧別町志撫子6-2"}}, {"geometry": {"type": "Point", "coordinates": [142.9597327, 44.5830367]}, "type": "Feature", "properties": {"station_id": "omu", "name": "おうむ", "pref_id": "hokkaido", "address": "北海道紋別郡雄武町字雄武1885番地14"}}, {"geometry": {"type": "Point", "coordinates": [142.1603076, 45.342711]}, "type": "Feature", "properties": {"station_id": "sarufutsukoen", "name": "さるふつ公園", "pref_id": "hokkaido", "address": "北海道宗谷郡猿払村字浜鬼志別241番地7"}}, {"geometry": {"type": "Point", "coordinates": [142.1443851, 44.1275711]}, "type": "Feature", "properties": {"station_id": "moritomizuuminosato-horokanai", "name": "森と湖の里ほろかない", "pref_id": "hokkaido", "address": "北海道雨竜郡幌加内町字政和第一"}}, {"geometry": {"type": "Point", "coordinates": [142.0058361, 43.5032309]}, "type": "Feature", "properties": {"station_id": "utashinaichirorunoyu", "name": "うたしないチロルの湯", "pref_id": "hokkaido", "address": "北海道歌志内市字中村72番地1"}}, {"geometry": {"type": "Point", "coordinates": [140.3799948, 42.6727205]}, "type": "Feature", "properties": {"station_id": "kuromatsunai", "name": "くろまつない", "pref_id": "hokkaido", "address": "北海道寿都郡黒松内町字白井川8番10"}}, {"geometry": {"type": "Point", "coordinates": [141.941478, 43.6234396]}, "type": "Feature", "properties": {"station_id": "takikawa", "name": "たきかわ", "pref_id": "hokkaido", "address": "北海道滝川市江部乙町東11丁目13番3"}}, {"geometry": {"type": "Point", "coordinates": [145.4384065, 43.2617463]}, "type": "Feature", "properties": {"station_id": "suwan44nemuro", "name": "スワン44ねむろ", "pref_id": "hokkaido", "address": "北海道根室市酪陽1番地"}}, {"geometry": {"type": "Point", "coordinates": [141.8357178, 43.4516011]}, "type": "Feature", "properties": {"station_id": "tsurunuma", "name": "つるぬま", "pref_id": "hokkaido", "address": "北海道樺戸郡浦臼町字ｷﾅｳｽﾅｲ186番地214"}}, {"geometry": {"type": "Point", "coordinates": [141.1016303, 41.7794873]}, "type": "Feature", "properties": {"station_id": "natowa-esan", "name": "なとわ・えさん", "pref_id": "hokkaido", "address": "北海道函館市日ノ浜町31番2"}}, {"geometry": {"type": "Point", "coordinates": [140.6673361, 42.1253109]}, "type": "Feature", "properties": {"station_id": "tsudo-ru-puraza-sawara", "name": "つど～る・プラザ・さわら", "pref_id": "hokkaido", "address": "北海道茅部郡森町砂原2丁目358ー1"}}, {"geometry": {"type": "Point", "coordinates": [145.1920893, 44.0174537]}, "type": "Feature", "properties": {"station_id": "shiretoko-rausu", "name": "知床・らうす", "pref_id": "hokkaido", "address": "北海道目梨郡羅臼町本町361-1"}}, {"geometry": {"type": "Point", "coordinates": [143.2718483, 42.6333115]}, "type": "Feature", "properties": {"station_id": "sarabetsu", "name": "さらべつ", "pref_id": "hokkaido", "address": "北海道河西郡更別村字弘和464番地1"}}, {"geometry": {"type": "Point", "coordinates": [140.8771001, 42.4717206]}, "type": "Feature", "properties": {"station_id": "daterekishinomori", "name": "だて歴史の杜", "pref_id": "hokkaido", "address": "北海道伊達市松ヶ枝町34番地1"}}, {"geometry": {"type": "Point", "coordinates": [142.3484295, 43.7600112]}, "type": "Feature", "properties": {"station_id": "asahikawa", "name": "あさひかわ", "pref_id": "hokkaido", "address": "北海道旭川市神楽4条6丁目1番12号"}}, {"geometry": {"type": "Point", "coordinates": [142.3977464, 42.979587]}, "type": "Feature", "properties": {"station_id": "shizentaikan-shimukappu", "name": "自然体感しむかっぷ", "pref_id": "hokkaido", "address": "北海道勇払郡占冠村字中央"}}, {"geometry": {"type": "Point", "coordinates": [142.8680679, 44.3359883]}, "type": "Feature", "properties": {"station_id": "nishiokoppe-kamu", "name": "にしおこっぺ花夢", "pref_id": "hokkaido", "address": "北海道紋別郡西興部村字上興部37番地"}}, {"geometry": {"type": "Point", "coordinates": [143.747243, 43.4689808]}, "type": "Feature", "properties": {"station_id": "o%ef%bd%b0rorataun93rikubetsu", "name": "オーロラタウン93りくべつ", "pref_id": "hokkaido", "address": "北海道足寄郡陸別町大通"}}, {"geometry": {"type": "Point", "coordinates": [144.453268, 43.9339211]}, "type": "Feature", "properties": {"station_id": "hanayaka-koshimizu", "name": "はなやか(葉菜野花)小清水", "pref_id": "hokkaido", "address": "北海道斜里郡小清水町字浜小清水474番地の7"}}, {"geometry": {"type": "Point", "coordinates": [142.070593, 43.6994831]}, "type": "Feature", "properties": {"station_id": "raisurando-fukagawa", "name": "ライスランドふかがわ", "pref_id": "hokkaido", "address": "北海道深川市音江町字広里59番地7"}}, {"geometry": {"type": "Point", "coordinates": [142.0673479, 44.8016913]}, "type": "Feature", "properties": {"station_id": "nakagawa", "name": "なかがわ", "pref_id": "hokkaido", "address": "北海道中川郡中川町字誉498番1"}}, {"geometry": {"type": "Point", "coordinates": [140.8861263, 42.7409709]}, "type": "Feature", "properties": {"station_id": "niisammaru-rusutsu", "name": "230ルスツ", "pref_id": "hokkaido", "address": "北海道虻田郡留寿都村字留寿都127番地"}}, {"geometry": {"type": "Point", "coordinates": [141.7477551, 44.8845723]}, "type": "Feature", "properties": {"station_id": "teshio", "name": "てしお", "pref_id": "hokkaido", "address": "北海道天塩郡天塩町新開通4丁目7227番2"}}, {"geometry": {"type": "Point", "coordinates": [143.2732731, 42.489788]}, "type": "Feature", "properties": {"station_id": "kosumo%ef%bd%b0ru-taiki", "name": "コスモール大樹", "pref_id": "hokkaido", "address": "北海道広尾郡大樹町西本通98番地"}}, {"geometry": {"type": "Point", "coordinates": [144.1838562, 43.7224857]}, "type": "Feature", "properties": {"station_id": "guruttopanoramabihorotoge", "name": "ぐるっとパノラマ美幌峠", "pref_id": "hokkaido", "address": "北海道網走郡美幌町字古梅"}}, {"geometry": {"type": "Point", "coordinates": [140.4789853, 42.7620988]}, "type": "Feature", "properties": {"station_id": "rankoshi-furusatonoka", "name": "らんこし・ふるさとの丘", "pref_id": "hokkaido", "address": "北海道磯谷郡蘭越町字相生969番地"}}, {"geometry": {"type": "Point", "coordinates": [140.7216955, 42.5782067]}, "type": "Feature", "properties": {"station_id": "toyora", "name": "とようら", "pref_id": "hokkaido", "address": "北海道虻田郡豊浦町字旭町65番地8"}}, {"geometry": {"type": "Point", "coordinates": [144.1885992, 43.9173746]}, "type": "Feature", "properties": {"station_id": "meruhennoka-memambetsu", "name": "メルヘンの丘めまんべつ", "pref_id": "hokkaido", "address": "北海道網走郡大空町女満別昭和96番地"}}, {"geometry": {"type": "Point", "coordinates": [141.9254643, 42.5739733]}, "type": "Feature", "properties": {"station_id": "mukawashikinoyakata", "name": "むかわ四季の館", "pref_id": "hokkaido", "address": "北海道勇払郡むかわ町美幸3丁目3番地1"}}, {"geometry": {"type": "Point", "coordinates": [143.9822417, 43.5452499]}, "type": "Feature", "properties": {"station_id": "aioi", "name": "あいおい", "pref_id": "hokkaido", "address": "北海道網走郡津別町字相生"}}, {"geometry": {"type": "Point", "coordinates": [142.9902764, 43.0977132]}, "type": "Feature", "properties": {"station_id": "shikaoi", "name": "しかおい", "pref_id": "hokkaido", "address": "北海道河東郡鹿追町東町3丁目2番地"}}, {"geometry": {"type": "Point", "coordinates": [143.0762301, 43.869861]}, "type": "Feature", "properties": {"station_id": "shirataki", "name": "しらたき", "pref_id": "hokkaido", "address": "北海道紋別郡遠軽町奥白滝"}}, {"geometry": {"type": "Point", "coordinates": [143.5472862, 43.2445035]}, "type": "Feature", "properties": {"station_id": "ashoro-gingaho%ef%bd%b0ru21", "name": "あしょろ銀河ホール21", "pref_id": "hokkaido", "address": "北海道足寄郡足寄町北1条1丁目"}}, {"geometry": {"type": "Point", "coordinates": [141.6583218, 42.8329064]}, "type": "Feature", "properties": {"station_id": "sa%ef%bd%b0mompa%ef%bd%b0ku-chitose", "name": "サーモンパーク千歳", "pref_id": "hokkaido", "address": "北海道千歳市花園2丁目"}}, {"geometry": {"type": "Point", "coordinates": [142.5088143, 43.6973051]}, "type": "Feature", "properties": {"station_id": "higashikawa-michikusakan", "name": "ひがしかわ「道草館」", "pref_id": "hokkaido", "address": "北海道上川郡東川町東町1丁目1番15号"}}, {"geometry": {"type": "Point", "coordinates": [141.5856753, 42.8972354]}, "type": "Feature", "properties": {"station_id": "hanaro%ef%bd%b0do-eniwa", "name": "花ロードえにわ", "pref_id": "hokkaido", "address": "北海道恵庭市南島松817番地18"}}, {"geometry": {"type": "Point", "coordinates": [140.370027, 42.8801825]}, "type": "Feature", "properties": {"station_id": "sherupurazaminato", "name": "シェルプラザ・港", "pref_id": "hokkaido", "address": "北海道磯谷郡蘭越町港町1402番2"}}, {"geometry": {"type": "Point", "coordinates": [140.8077046, 42.7623215]}, "type": "Feature", "properties": {"station_id": "makkari-furawa%ef%bd%b0senta", "name": "真狩フラワーセンター", "pref_id": "hokkaido", "address": "北海道虻田郡真狩村字光8番地3"}}, {"geometry": {"type": "Point", "coordinates": [141.9638879, 43.7668024]}, "type": "Feature", "properties": {"station_id": "kanenonarumachichippubetsu", "name": "鐘のなるまち・ちっぷべつ", "pref_id": "hokkaido", "address": "北海道雨竜郡秩父別町2085番地"}}, {"geometry": {"type": "Point", "coordinates": [140.7787362, 42.5289975]}, "type": "Feature", "properties": {"station_id": "aputa", "name": "あぷた", "pref_id": "hokkaido", "address": "北海道虻田郡洞爺湖町入江84番地2"}}, {"geometry": {"type": "Point", "coordinates": [143.0250228, 43.1697466]}, "type": "Feature", "properties": {"station_id": "urimaku", "name": "うりまく", "pref_id": "hokkaido", "address": "北海道河東郡鹿追町瓜幕西3丁目1番地外"}}, {"geometry": {"type": "Point", "coordinates": [142.3909798, 44.0938311]}, "type": "Feature", "properties": {"station_id": "ehonnosatokembuchi", "name": "絵本の里けんぶち", "pref_id": "hokkaido", "address": "北海道上川郡剣淵町東町2420番地"}}, {"geometry": {"type": "Point", "coordinates": [141.6564717, 44.3133031]}, "type": "Feature", "properties": {"station_id": "fuwattotomamae", "name": "風Wとままえ", "pref_id": "hokkaido", "address": "北海道苫前郡苫前町字苫前119番地1"}}, {"geometry": {"type": "Point", "coordinates": [143.3685496, 43.1392319]}, "type": "Feature", "properties": {"station_id": "shihoronsen", "name": "しほろ温泉", "pref_id": "hokkaido", "address": "北海道河東郡士幌町字下居辺西2線134番地"}}, {"geometry": {"type": "Point", "coordinates": [140.8709024, 42.8589072]}, "type": "Feature", "properties": {"station_id": "meisuinosato-kyogoku", "name": "名水の郷きょうごく", "pref_id": "hokkaido", "address": "北海道虻田郡京極町字川西45番地1"}}, {"geometry": {"type": "Point", "coordinates": [142.4637855, 43.5921253]}, "type": "Feature", "properties": {"station_id": "biei-okanokura", "name": "びえい「丘のくら」", "pref_id": "hokkaido", "address": "北海道上川郡美瑛町本町1丁目9番地21号"}}, {"geometry": {"type": "Point", "coordinates": [141.7768178, 44.5635037]}, "type": "Feature", "properties": {"station_id": "romankaido-shosambetsu", "name": "☆ロマン街道しょさんべつ", "pref_id": "hokkaido", "address": "北海道苫前郡初山別村字豊岬153番地1"}}, {"geometry": {"type": "Point", "coordinates": [144.9906685, 44.0690729]}, "type": "Feature", "properties": {"station_id": "utoro-shirietoku", "name": "うとろ・シリエトク", "pref_id": "hokkaido", "address": "北海道斜里郡斜里町ウトロ西186番地8"}}, {"geometry": {"type": "Point", "coordinates": [144.6642138, 43.9117709]}, "type": "Feature", "properties": {"station_id": "shari", "name": "しゃり", "pref_id": "hokkaido", "address": "北海道斜里郡斜里町本町37番地"}}, {"geometry": {"type": "Point", "coordinates": [144.5339946, 43.7904595]}, "type": "Feature", "properties": {"station_id": "papasurando-sattsuru", "name": "パパスランドさっつる", "pref_id": "hokkaido", "address": "北海道斜里郡清里町字神威1071番地"}}, {"geometry": {"type": "Point", "coordinates": [142.4137718, 44.2874188]}, "type": "Feature", "properties": {"station_id": "mochigomenosato-nayoro", "name": "もち米の里☆なよろ", "pref_id": "hokkaido", "address": "北海道名寄市風連町西町334番地1"}}, {"geometry": {"type": "Point", "coordinates": [140.2318241, 42.7955338]}, "type": "Feature", "properties": {"station_id": "minatoma-re-suttsu", "name": "みなとま～れ寿都", "pref_id": "hokkaido", "address": "北海道寿都郡寿都町字大磯町29番地1"}}, {"geometry": {"type": "Point", "coordinates": [140.8218199, 42.6645114]}, "type": "Feature", "properties": {"station_id": "toyako", "name": "とうや湖", "pref_id": "hokkaido", "address": "北海道虻田郡洞爺湖町香川9番地4"}}, {"geometry": {"type": "Point", "coordinates": [144.2738176, 44.0220429]}, "type": "Feature", "properties": {"station_id": "ryuuhyokaidoabashiri", "name": "流氷街道網走", "pref_id": "hokkaido", "address": "北海道網走市南3条東4丁目"}}, {"geometry": {"type": "Point", "coordinates": [140.1072323, 41.4265145]}, "type": "Feature", "properties": {"station_id": "kitamaebune-matsumae", "name": "北前船 松前", "pref_id": "hokkaido", "address": "北海道松前郡松前町字唐津379番地"}}, {"geometry": {"type": "Point", "coordinates": [143.6133059, 43.1259453]}, "type": "Feature", "properties": {"station_id": "sutera-hombetsu", "name": "ステラ★ほんべつ", "pref_id": "hokkaido", "address": "北海道中川郡本別町北3丁目1番地1"}}, {"geometry": {"type": "Point", "coordinates": [141.6946488, 42.6999513]}, "type": "Feature", "properties": {"station_id": "utonaiko", "name": "ウトナイ湖", "pref_id": "hokkaido", "address": "北海道苫小牧市字植苗156番地の30"}}, {"geometry": {"type": "Point", "coordinates": [143.6629753, 42.8148018]}, "type": "Feature", "properties": {"station_id": "urahoro", "name": "うらほろ", "pref_id": "hokkaido", "address": "北海道十勝郡浦幌町字北町16番地3"}}, {"geometry": {"type": "Point", "coordinates": [141.6427006, 43.2141162]}, "type": "Feature", "properties": {"station_id": "shinshinotsu", "name": "しんしのつ", "pref_id": "hokkaido", "address": "北海道石狩郡新篠津村第45線北2番地"}}, {"geometry": {"type": "Point", "coordinates": [142.0387367, 42.9366332]}, "type": "Feature", "properties": {"station_id": "yuubari-mero%ef%bd%b0do", "name": "夕張メロード", "pref_id": "hokkaido", "address": "北海道夕張市紅葉山529"}}, {"geometry": {"type": "Point", "coordinates": [145.2368756, 43.533413]}, "type": "Feature", "properties": {"station_id": "odaito", "name": "おだいとう", "pref_id": "hokkaido", "address": "北海道野付郡別海町尾岱沼5番地27"}}, {"geometry": {"type": "Point", "coordinates": [140.9447498, 41.9279214]}, "type": "Feature", "properties": {"station_id": "jomonroman-minamikayabe", "name": "縄文ロマン 南かやべ", "pref_id": "hokkaido", "address": "北海道函館市臼尻町551番地1"}}, {"geometry": {"type": "Point", "coordinates": [141.6788235, 45.4158671]}, "type": "Feature", "properties": {"station_id": "wakkanai", "name": "わっかない", "pref_id": "hokkaido", "address": "北海道稚内市開運2丁目"}}, {"geometry": {"type": "Point", "coordinates": [140.8444473, 43.051414]}, "type": "Feature", "properties": {"station_id": "akaigawa", "name": "あかいがわ", "pref_id": "hokkaido", "address": "北海道余市郡赤井川村字都190番地16"}}, {"geometry": {"type": "Point", "coordinates": [140.4354293, 41.6778749]}, "type": "Feature", "properties": {"station_id": "misogi-no-sato-kikonai", "name": "みそぎの郷 きこない", "pref_id": "hokkaido", "address": "北海道上磯郡木古内町字本町338番地14"}}, {"geometry": {"type": "Point", "coordinates": [140.8305528, 42.0285219]}, "type": "Feature", "properties": {"station_id": "shikabe-kanketsusen-koen", "name": "しかべ間歇泉公園", "pref_id": "hokkaido", "address": "北海道茅部郡鹿部町字鹿部18番地1"}}, {"geometry": {"type": "Point", "coordinates": [141.1552503, 40.7168253]}, "type": "Feature", "properties": {"station_id": "shichinohe", "name": "しちのへ", "pref_id": "aomori", "address": "青森県上北郡七戸町字荒熊内67-94"}}, {"geometry": {"type": "Point", "coordinates": [141.6084329, 40.4584959]}, "type": "Feature", "properties": {"station_id": "hashikami", "name": "はしかみ", "pref_id": "aomori", "address": "青森県三戸郡階上町大字道仏字耳ヶ吠3-3"}}, {"geometry": {"type": "Point", "coordinates": [140.6876135, 40.5810837]}, "type": "Feature", "properties": {"station_id": "nijinoko", "name": "虹の湖", "pref_id": "aomori", "address": "青森県黒石市大字沖浦字山神1-5"}}, {"geometry": {"type": "Point", "coordinates": [140.8051462, 41.1678884]}, "type": "Feature", "properties": {"station_id": "wakinosawa", "name": "わきのさわ", "pref_id": "aomori", "address": "青森県むつ市脇野沢七引201-5"}}, {"geometry": {"type": "Point", "coordinates": [140.8883745, 41.2704065]}, "type": "Feature", "properties": {"station_id": "kawauchiko", "name": "かわうち湖", "pref_id": "aomori", "address": "青森県むつ市川内町福浦山314"}}, {"geometry": {"type": "Point", "coordinates": [141.0744483, 40.4317501]}, "type": "Feature", "properties": {"station_id": "shingo", "name": "しんごう", "pref_id": "aomori", "address": "青森県三戸郡新郷村大字戸来字雨池11-2"}}, {"geometry": {"type": "Point", "coordinates": [140.5487947, 40.5547521]}, "type": "Feature", "properties": {"station_id": "hirosaki", "name": "ひろさき", "pref_id": "aomori", "address": "青森県弘前市大字石川字泉田62-1"}}, {"geometry": {"type": "Point", "coordinates": [141.117367, 40.5851607]}, "type": "Feature", "properties": {"station_id": "oirase", "name": "奥入瀬", "pref_id": "aomori", "address": "青森県十和田市大字奥瀬字堰道39-1"}}, {"geometry": {"type": "Point", "coordinates": [141.2552369, 40.3877691]}, "type": "Feature", "properties": {"station_id": "sannohe", "name": "さんのへ", "pref_id": "aomori", "address": "青森県三戸郡三戸町大字川守田字西張渡39-1"}}, {"geometry": {"type": "Point", "coordinates": [140.579519, 40.7179284]}, "type": "Feature", "properties": {"station_id": "namioka", "name": "なみおか", "pref_id": "aomori", "address": "青森県青森市浪岡大字女鹿沢字野尻2番地3"}}, {"geometry": {"type": "Point", "coordinates": [140.3839883, 41.0457185]}, "type": "Feature", "properties": {"station_id": "juusanko-kogen", "name": "十三湖高原", "pref_id": "aomori", "address": "青森県五所川原市相内実取287-1058"}}, {"geometry": {"type": "Point", "coordinates": [140.5143116, 41.1455455]}, "type": "Feature", "properties": {"station_id": "imabetsu", "name": "いまべつ", "pref_id": "aomori", "address": "青森県東津軽郡今別町大字大川平字清川87-16"}}, {"geometry": {"type": "Point", "coordinates": [141.4883986, 40.5122839]}, "type": "Feature", "properties": {"station_id": "nango", "name": "なんごう", "pref_id": "aomori", "address": "青森県八戸市南郷区大字中野字舘野4-4"}}, {"geometry": {"type": "Point", "coordinates": [140.3221841, 40.7844457]}, "type": "Feature", "properties": {"station_id": "morita", "name": "もりた", "pref_id": "aomori", "address": "青森県つがる市森田町床舞稚桜4-1"}}, {"geometry": {"type": "Point", "coordinates": [140.8613989, 40.8916894]}, "type": "Feature", "properties": {"station_id": "asamushionsen", "name": "浅虫温泉", "pref_id": "aomori", "address": "青森県青森市大字浅虫字螢谷341-19"}}, {"geometry": {"type": "Point", "coordinates": [140.6231068, 40.4815243]}, "type": "Feature", "properties": {"station_id": "ikarigaseki", "name": "いかりがせき", "pref_id": "aomori", "address": "青森県平川市碇ヶ関碇石13-1"}}, {"geometry": {"type": "Point", "coordinates": [140.577686, 40.6336189]}, "type": "Feature", "properties": {"station_id": "inakadate", "name": "いなかだて", "pref_id": "aomori", "address": "青森県南津軽郡田舎館村大字高樋字八幡10"}}, {"geometry": {"type": "Point", "coordinates": [141.2567596, 41.0837357]}, "type": "Feature", "properties": {"station_id": "yokohama", "name": "よこはま", "pref_id": "aomori", "address": "青森県上北郡横浜町字林ノ脇79-12"}}, {"geometry": {"type": "Point", "coordinates": [140.3467912, 41.2538342]}, "type": "Feature", "properties": {"station_id": "mimmaya", "name": "みんまや", "pref_id": "aomori", "address": "青森県東津軽郡外ヶ浜町字三厩龍浜99"}}, {"geometry": {"type": "Point", "coordinates": [140.3205958, 41.1449049]}, "type": "Feature", "properties": {"station_id": "kodomari", "name": "こどまり", "pref_id": "aomori", "address": "青森県北津軽郡中泊町大字小泊字折腰内45"}}, {"geometry": {"type": "Point", "coordinates": [141.3640675, 40.7856637]}, "type": "Feature", "properties": {"station_id": "misawa", "name": "みさわ", "pref_id": "aomori", "address": "青森県三沢市谷地頭4丁目298-652"}}, {"geometry": {"type": "Point", "coordinates": [141.2646116, 40.574645]}, "type": "Feature", "properties": {"station_id": "towada", "name": "とわだ", "pref_id": "aomori", "address": "青森県十和田市大字伝法寺字平窪37-2"}}, {"geometry": {"type": "Point", "coordinates": [140.4427046, 40.7371457]}, "type": "Feature", "properties": {"station_id": "tsuruta", "name": "つるた", "pref_id": "aomori", "address": "青森県北津軽郡鶴田町大字境字里見176-1"}}, {"geometry": {"type": "Point", "coordinates": [140.0004692, 40.7442227]}, "type": "Feature", "properties": {"station_id": "fukaura", "name": "ふかうら", "pref_id": "aomori", "address": "青森県西津軽郡深浦町大字風合瀬字上砂子川144-1"}}, {"geometry": {"type": "Point", "coordinates": [141.2747031, 40.7282907]}, "type": "Feature", "properties": {"station_id": "ogawarako", "name": "おがわら湖", "pref_id": "aomori", "address": "青森県上北郡東北町大字上野字南谷地122"}}, {"geometry": {"type": "Point", "coordinates": [140.6411974, 41.1748371]}, "type": "Feature", "properties": {"station_id": "tairadate", "name": "たいらだて", "pref_id": "aomori", "address": "青森県東津軽郡外ヶ浜町字平舘太郎右ェ門沢1-3"}}, {"geometry": {"type": "Point", "coordinates": [141.3247271, 40.6064042]}, "type": "Feature", "properties": {"station_id": "rokunohe", "name": "ろくのへ", "pref_id": "aomori", "address": "青森県上北郡六戸町大字犬落瀬字後田87"}}, {"geometry": {"type": "Point", "coordinates": [140.3756092, 40.2517099]}, "type": "Feature", "properties": {"station_id": "takanosu", "name": "たかのす", "pref_id": "akita", "address": "秋田県北秋田市綴子字大堤道下62-1"}}, {"geometry": {"type": "Point", "coordinates": [140.2384924, 40.2107756]}, "type": "Feature", "properties": {"station_id": "futatsui", "name": "ふたつい", "pref_id": "akita", "address": "秋田県能代市二ツ井町小繁字中島109-10"}}, {"geometry": {"type": "Point", "coordinates": [140.0145207, 39.3628883]}, "type": "Feature", "properties": {"station_id": "nishime", "name": "にしめ", "pref_id": "akita", "address": "秋田県由利本荘市西目町沼田字新道下1112-2"}}, {"geometry": {"type": "Point", "coordinates": [140.6253234, 40.4208672]}, "type": "Feature", "properties": {"station_id": "yatatetoge", "name": "やたて峠", "pref_id": "akita", "address": "秋田県大館市長走字陣場311"}}, {"geometry": {"type": "Point", "coordinates": [139.948678, 40.4215825]}, "type": "Feature", "properties": {"station_id": "hachimori", "name": "はちもり", "pref_id": "akita", "address": "秋田県山本郡八峰町八森字乙の水72-4"}}, {"geometry": {"type": "Point", "coordinates": [140.7852155, 40.1818401]}, "type": "Feature", "properties": {"station_id": "kazuno", "name": "かづの", "pref_id": "akita", "address": "秋田県鹿角市花輪字新田町11番地4"}}, {"geometry": {"type": "Point", "coordinates": [140.3767219, 39.5221473]}, "type": "Feature", "properties": {"station_id": "kamioka", "name": "かみおか", "pref_id": "akita", "address": "秋田県大仙市北楢岡字船戸187"}}, {"geometry": {"type": "Point", "coordinates": [140.0804783, 40.0211494]}, "type": "Feature", "properties": {"station_id": "kotoka", "name": "ことおか", "pref_id": "akita", "address": "秋田県山本郡三種町鹿渡字高石野126-1"}}, {"geometry": {"type": "Point", "coordinates": [140.285026, 39.3016038]}, "type": "Feature", "properties": {"station_id": "higashiyuri", "name": "東由利", "pref_id": "akita", "address": "秋田県由利本荘市東由利老方字畑田28"}}, {"geometry": {"type": "Point", "coordinates": [140.2970636, 40.0638357]}, "type": "Feature", "properties": {"station_id": "kamikoani", "name": "かみこあに", "pref_id": "akita", "address": "秋田県北秋田郡上小阿仁村小沢田字向川原66-1"}}, {"geometry": {"type": "Point", "coordinates": [139.9001819, 39.220129]}, "type": "Feature", "properties": {"station_id": "kisakata", "name": "象潟", "pref_id": "akita", "address": "秋田県にかほ市象潟町字大塩越73-1"}}, {"geometry": {"type": "Point", "coordinates": [140.5331821, 39.5385396]}, "type": "Feature", "properties": {"station_id": "nakasen", "name": "なかせん", "pref_id": "akita", "address": "秋田県大仙市長野字高畑95-1"}}, {"geometry": {"type": "Point", "coordinates": [140.4603263, 39.0651056]}, "type": "Feature", "properties": {"station_id": "ogachi", "name": "おがち", "pref_id": "akita", "address": "秋田県湯沢市小野字橋本90"}}, {"geometry": {"type": "Point", "coordinates": [140.0095627, 39.8568152]}, "type": "Feature", "properties": {"station_id": "tenno", "name": "てんのう", "pref_id": "akita", "address": "秋田県潟上市天王字江川上谷地109-2"}}, {"geometry": {"type": "Point", "coordinates": [140.052933, 39.5420844]}, "type": "Feature", "properties": {"station_id": "iwaki", "name": "岩城", "pref_id": "akita", "address": "秋田県由利本荘市岩城内道川字新鶴潟192-43"}}, {"geometry": {"type": "Point", "coordinates": [140.0755567, 39.863705]}, "type": "Feature", "properties": {"station_id": "showa", "name": "しょうわ", "pref_id": "akita", "address": "秋田県潟上市昭和豊川竜毛字山ノ下1-1"}}, {"geometry": {"type": "Point", "coordinates": [140.0299626, 40.2668499]}, "type": "Feature", "properties": {"station_id": "minehama", "name": "みねはま", "pref_id": "akita", "address": "秋田県山本郡八峰町峰浜沼田字ホンコ谷地147"}}, {"geometry": {"type": "Point", "coordinates": [140.6258076, 39.2893172]}, "type": "Feature", "properties": {"station_id": "sannai", "name": "さんない", "pref_id": "akita", "address": "秋田県横手市山内土渕字小目倉沢34"}}, {"geometry": {"type": "Point", "coordinates": [140.0901559, 39.4428837]}, "type": "Feature", "properties": {"station_id": "ochi", "name": "おおうち", "pref_id": "akita", "address": "秋田県由利本荘市岩谷町字西越36"}}, {"geometry": {"type": "Point", "coordinates": [140.4558876, 39.8992981]}, "type": "Feature", "properties": {"station_id": "ani", "name": "あに", "pref_id": "akita", "address": "秋田県北秋田市阿仁比立内字家ノ後8-1外"}}, {"geometry": {"type": "Point", "coordinates": [140.5854606, 40.2196674]}, "type": "Feature", "properties": {"station_id": "hinai", "name": "ひない", "pref_id": "akita", "address": "秋田県大館市比内町扇田字新大堤下93-11"}}, {"geometry": {"type": "Point", "coordinates": [140.1442137, 39.9470864]}, "type": "Feature", "properties": {"station_id": "gojome", "name": "五城目", "pref_id": "akita", "address": "秋田県南秋田郡五城目町富津内下山内字上広ヶ野76-1"}}, {"geometry": {"type": "Point", "coordinates": [140.2914923, 39.1095378]}, "type": "Feature", "properties": {"station_id": "shimizunosatochokaigo", "name": "清水の里・鳥海郷", "pref_id": "akita", "address": "秋田県由利本荘市鳥海町上笹子字堺台100"}}, {"geometry": {"type": "Point", "coordinates": [140.5675681, 39.3789953]}, "type": "Feature", "properties": {"station_id": "karinosatosennan", "name": "雁の里せんなん", "pref_id": "akita", "address": "秋田県仙北郡美郷町金沢字下舘124"}}, {"geometry": {"type": "Point", "coordinates": [140.3624414, 39.6187833]}, "type": "Feature", "properties": {"station_id": "kyowa", "name": "協和", "pref_id": "akita", "address": "秋田県大仙市協和荒川字新田表15-2"}}, {"geometry": {"type": "Point", "coordinates": [140.5214896, 39.2261241]}, "type": "Feature", "properties": {"station_id": "mamederaga-michinoekijuumonji", "name": "まめでらが～ 道の駅十文字", "pref_id": "akita", "address": "秋田県横手市十文字町字海道下21-4"}}, {"geometry": {"type": "Point", "coordinates": [139.9515185, 40.0153495]}, "type": "Feature", "properties": {"station_id": "ogata", "name": "おおがた", "pref_id": "akita", "address": "秋田県南秋田郡大潟村字西5-2"}}, {"geometry": {"type": "Point", "coordinates": [140.061005, 39.7527085]}, "type": "Feature", "properties": {"station_id": "akitako", "name": "あきた港", "pref_id": "akita", "address": "秋田県秋田市土崎港西1丁目9-1"}}, {"geometry": {"type": "Point", "coordinates": [140.7632516, 40.3087704]}, "type": "Feature", "properties": {"station_id": "kosakananataki", "name": "こさか七滝", "pref_id": "akita", "address": "秋田県鹿角郡小坂町上向字藤原35-3外"}}, {"geometry": {"type": "Point", "coordinates": [140.3707417, 40.2260542]}, "type": "Feature", "properties": {"station_id": "odate-noshirokuuko", "name": "大館能代空港", "pref_id": "akita", "address": "秋田県北秋田市脇神字カラムシ岱21-144外"}}, {"geometry": {"type": "Point", "coordinates": [140.4089347, 39.1975954]}, "type": "Feature", "properties": {"station_id": "ugo", "name": "うご", "pref_id": "akita", "address": "秋田県雄勝郡羽後町西馬音内字中野200番地"}}, {"geometry": {"type": "Point", "coordinates": [141.1421369, 39.4832705]}, "type": "Feature", "properties": {"station_id": "ishidoriya", "name": "石鳥谷", "pref_id": "iwate", "address": "岩手県花巻市石鳥谷町中寺林第7地割17-3"}}, {"geometry": {"type": "Point", "coordinates": [141.6291675, 39.008402]}, "type": "Feature", "properties": {"station_id": "takatamatsubara", "name": "高田松原", "pref_id": "iwate", "address": "岩手県陸前高田市高田町字古川28-5"}}, {"geometry": {"type": "Point", "coordinates": [141.3535295, 39.6516145]}, "type": "Feature", "properties": {"station_id": "kuzakaikogen", "name": "区界高原", "pref_id": "iwate", "address": "岩手県宮古市区界2-434-2"}}, {"geometry": {"type": "Point", "coordinates": [141.6634076, 40.2792091]}, "type": "Feature", "properties": {"station_id": "ono", "name": "おおの", "pref_id": "iwate", "address": "岩手県九戸郡洋野町大野58-12-30"}}, {"geometry": {"type": "Point", "coordinates": [141.3958808, 39.1798365]}, "type": "Feature", "properties": {"station_id": "taneyamagahara", "name": "種山ヶ原", "pref_id": "iwate", "address": "岩手県気仙郡住田町世田米字子飼沢30-39"}}, {"geometry": {"type": "Point", "coordinates": [141.8626587, 39.8423053]}, "type": "Feature", "properties": {"station_id": "iwaizumi", "name": "いわいずみ", "pref_id": "iwate", "address": "岩手県下閉伊郡岩泉町乙茂字乙茂90-1"}}, {"geometry": {"type": "Point", "coordinates": [141.8190261, 40.1158959]}, "type": "Feature", "properties": {"station_id": "noda", "name": "のだ", "pref_id": "iwate", "address": "岩手県九戸郡野田村大字野田31-31-1"}}, {"geometry": {"type": "Point", "coordinates": [141.965689, 39.7634891]}, "type": "Feature", "properties": {"station_id": "taro", "name": "たろう", "pref_id": "iwate", "address": "岩手県宮古市田老字重津部34-2"}}, {"geometry": {"type": "Point", "coordinates": [141.9023197, 39.9096169]}, "type": "Feature", "properties": {"station_id": "tanohata", "name": "たのはた", "pref_id": "iwate", "address": "岩手県下閉伊郡田野畑村菅窪223-85"}}, {"geometry": {"type": "Point", "coordinates": [141.1571153, 39.1162935]}, "type": "Feature", "properties": {"station_id": "mizusawa", "name": "みずさわ", "pref_id": "iwate", "address": "岩手県奥州市水沢区姉体町字石川原51-3"}}, {"geometry": {"type": "Point", "coordinates": [141.0993785, 39.8799671]}, "type": "Feature", "properties": {"station_id": "nishine", "name": "にしね", "pref_id": "iwate", "address": "岩手県八幡平市大更2-154-36"}}, {"geometry": {"type": "Point", "coordinates": [141.5735177, 40.1509394]}, "type": "Feature", "properties": {"station_id": "shirakabanosato-yamagata", "name": "白樺の里やまがた", "pref_id": "iwate", "address": "岩手県久慈市山形町川井8-12-1"}}, {"geometry": {"type": "Point", "coordinates": [141.3513044, 39.3460524]}, "type": "Feature", "properties": {"station_id": "miyamori", "name": "みやもり", "pref_id": "iwate", "address": "岩手県遠野市宮守町下宮守30-37-1"}}, {"geometry": {"type": "Point", "coordinates": [141.2064173, 39.5555548]}, "type": "Feature", "properties": {"station_id": "shiwa", "name": "紫波", "pref_id": "iwate", "address": "岩手県紫波郡紫波町遠山字松原7-8"}}, {"geometry": {"type": "Point", "coordinates": [141.3238952, 39.4994461]}, "type": "Feature", "properties": {"station_id": "hayachine", "name": "はやちね", "pref_id": "iwate", "address": "岩手県花巻市大迫町内川目10-30-114"}}, {"geometry": {"type": "Point", "coordinates": [141.973205, 39.4369048]}, "type": "Feature", "properties": {"station_id": "yamada", "name": "やまだ", "pref_id": "iwate", "address": "岩手県下閉伊郡山田町船越6-141"}}, {"geometry": {"type": "Point", "coordinates": [141.5008119, 39.3308864]}, "type": "Feature", "properties": {"station_id": "tonokazenoka", "name": "遠野風の丘", "pref_id": "iwate", "address": "岩手県遠野市綾織町新里8-2-1"}}, {"geometry": {"type": "Point", "coordinates": [141.70853, 39.0819011]}, "type": "Feature", "properties": {"station_id": "sanriku", "name": "さんりく", "pref_id": "iwate", "address": "岩手県大船渡市三陸町越善来字井戸洞95-27"}}, {"geometry": {"type": "Point", "coordinates": [140.875147, 39.3007195]}, "type": "Feature", "properties": {"station_id": "kinshuuko", "name": "錦秋湖", "pref_id": "iwate", "address": "岩手県和賀郡西和賀町杉名畑44-264"}}, {"geometry": {"type": "Point", "coordinates": [141.3399576, 39.984567]}, "type": "Feature", "properties": {"station_id": "kuzumakikogen", "name": "くずまき高原", "pref_id": "iwate", "address": "岩手県岩手郡葛巻町葛巻39-159-3"}}, {"geometry": {"type": "Point", "coordinates": [141.2137995, 39.9686599]}, "type": "Feature", "properties": {"station_id": "ishigaminoka", "name": "石神の丘", "pref_id": "iwate", "address": "岩手県岩手郡岩手町大字五日市第10地割121-20"}}, {"geometry": {"type": "Point", "coordinates": [140.8748864, 39.7064117]}, "type": "Feature", "properties": {"station_id": "shizukuishianekko", "name": "雫石あねっこ", "pref_id": "iwate", "address": "岩手県岩手郡雫石町橋場坂本118-10"}}, {"geometry": {"type": "Point", "coordinates": [141.2218949, 39.3824368]}, "type": "Feature", "properties": {"station_id": "towa", "name": "とうわ", "pref_id": "iwate", "address": "岩手県花巻市東和町安俵6区147-2"}}, {"geometry": {"type": "Point", "coordinates": [141.0528845, 38.9464394]}, "type": "Feature", "properties": {"station_id": "gembikei", "name": "厳美渓", "pref_id": "iwate", "address": "岩手県一関市厳美町字沖野々220-1"}}, {"geometry": {"type": "Point", "coordinates": [141.4165286, 40.248349]}, "type": "Feature", "properties": {"station_id": "oritsume", "name": "おりつめ", "pref_id": "iwate", "address": "岩手県九戸郡九戸村大字山屋2-28-1"}}, {"geometry": {"type": "Point", "coordinates": [141.2723745, 38.8986767]}, "type": "Feature", "properties": {"station_id": "kawasaki", "name": "かわさき", "pref_id": "iwate", "address": "岩手県一関市川崎町薄衣字法道地42-3"}}, {"geometry": {"type": "Point", "coordinates": [141.5891622, 39.6488825]}, "type": "Feature", "properties": {"station_id": "yamabikokan", "name": "やまびこ館", "pref_id": "iwate", "address": "岩手県宮古市川内8-2"}}, {"geometry": {"type": "Point", "coordinates": [141.9700633, 39.6389792]}, "type": "Feature", "properties": {"station_id": "miyako", "name": "みやこ", "pref_id": "iwate", "address": "岩手県宮古市臨港通1-20"}}, {"geometry": {"type": "Point", "coordinates": [141.5898044, 39.8712707]}, "type": "Feature", "properties": {"station_id": "mitagaibunko", "name": "三田貝分校", "pref_id": "iwate", "address": "岩手県下閉伊郡岩泉町門字三田貝47番地2"}}, {"geometry": {"type": "Point", "coordinates": [141.7646387, 40.1898882]}, "type": "Feature", "properties": {"station_id": "kuji", "name": "くじ", "pref_id": "iwate", "address": "岩手県久慈市中町2-5-6"}}, {"geometry": {"type": "Point", "coordinates": [141.7824749, 39.2534105]}, "type": "Feature", "properties": {"station_id": "kamaishisennintouge", "name": "釜石仙人峠", "pref_id": "iwate", "address": "岩手県釜石市甲子町第7地割155番4"}}, {"geometry": {"type": "Point", "coordinates": [139.874426, 38.5870194]}, "type": "Feature", "properties": {"station_id": "gassan", "name": "月山", "pref_id": "yamagata", "address": "山形県鶴岡市越中山字名平3-1"}}, {"geometry": {"type": "Point", "coordinates": [140.3284634, 38.4130448]}, "type": "Feature", "properties": {"station_id": "kahoku", "name": "河北", "pref_id": "yamagata", "address": "山形県西村山郡河北町谷地字真木335-1"}}, {"geometry": {"type": "Point", "coordinates": [140.2710722, 38.3988001]}, "type": "Feature", "properties": {"station_id": "sagae", "name": "寒河江 チェリーランド", "pref_id": "yamagata", "address": "山形県寒河江市大字八鍬字川原919-8"}}, {"geometry": {"type": "Point", "coordinates": [139.5580697, 38.580422]}, "type": "Feature", "properties": {"station_id": "atsumi", "name": "あつみ", "pref_id": "yamagata", "address": "山形県鶴岡市早田字戸ノ浦606"}}, {"geometry": {"type": "Point", "coordinates": [140.1000454, 38.4358627]}, "type": "Feature", "properties": {"station_id": "nishikawa", "name": "にしかわ", "pref_id": "yamagata", "address": "山形県西村山郡西川町大字水沢2304"}}, {"geometry": {"type": "Point", "coordinates": [139.9946712, 38.0260649]}, "type": "Feature", "properties": {"station_id": "iide", "name": "いいで", "pref_id": "yamagata", "address": "山形県西置賜郡飯豊町大字松原1898"}}, {"geometry": {"type": "Point", "coordinates": [140.3823105, 38.4871462]}, "type": "Feature", "properties": {"station_id": "murayama", "name": "むらやま", "pref_id": "yamagata", "address": "山形県村山市大字楯岡7635-1"}}, {"geometry": {"type": "Point", "coordinates": [140.1623858, 38.7276748]}, "type": "Feature", "properties": {"station_id": "tozawa", "name": "とざわ", "pref_id": "yamagata", "address": "山形県最上郡戸沢村大字蔵岡3704-12"}}, {"geometry": {"type": "Point", "coordinates": [139.8756261, 39.0603295]}, "type": "Feature", "properties": {"station_id": "chokai", "name": "鳥海", "pref_id": "yamagata", "address": "山形県飽海郡遊佐町大字菅里字菅野308-1"}}, {"geometry": {"type": "Point", "coordinates": [139.9841823, 37.8776582]}, "type": "Feature", "properties": {"station_id": "tazawa", "name": "田沢", "pref_id": "yamagata", "address": "山形県米沢市大字入田沢573-19"}}, {"geometry": {"type": "Point", "coordinates": [139.7306094, 38.0719561]}, "type": "Feature", "properties": {"station_id": "shiroimorioguni", "name": "白い森おぐに", "pref_id": "yamagata", "address": "山形県西置賜郡小国町大字小国小坂町616-1"}}, {"geometry": {"type": "Point", "coordinates": [140.2132908, 38.3677556]}, "type": "Feature", "properties": {"station_id": "oe", "name": "おおえ", "pref_id": "yamagata", "address": "山形県西村山郡大江町大字藤田218-1"}}, {"geometry": {"type": "Point", "coordinates": [139.8463299, 38.7828046]}, "type": "Feature", "properties": {"station_id": "shonaimikawa", "name": "庄内みかわ", "pref_id": "yamagata", "address": "山形県東田川郡三川町大字横山字堤172-1"}}, {"geometry": {"type": "Point", "coordinates": [140.2172464, 38.0067776]}, "type": "Feature", "properties": {"station_id": "takahata", "name": "たかはた", "pref_id": "yamagata", "address": "山形県東置賜郡高畠町大字安久津2072-1"}}, {"geometry": {"type": "Point", "coordinates": [140.3892296, 38.3542797]}, "type": "Feature", "properties": {"station_id": "tendonsen", "name": "天童温泉", "pref_id": "yamagata", "address": "山形県天童市大字貫津字鍬ノ町2551"}}, {"geometry": {"type": "Point", "coordinates": [140.3637045, 38.6569302]}, "type": "Feature", "properties": {"station_id": "obanazawa", "name": "尾花沢", "pref_id": "yamagata", "address": "山形県尾花沢市芦沢1195-1"}}, {"geometry": {"type": "Point", "coordinates": [140.0973224, 38.2181108]}, "type": "Feature", "properties": {"station_id": "shiratakayanakoen", "name": "白鷹ヤナ公園", "pref_id": "yamagata", "address": "山形県西置賜郡白鷹町大字下山661"}}, {"geometry": {"type": "Point", "coordinates": [137.5557708, 36.9520072]}, "type": "Feature", "properties": {"station_id": "asahimachi", "name": "あさひまち", "pref_id": "yamagata", "address": "山形県西村山郡朝日町大字和合字北又2724"}}, {"geometry": {"type": "Point", "coordinates": [139.9849376, 38.7944561]}, "type": "Feature", "properties": {"station_id": "shonai", "name": "しょうない(2016年度開業予定)", "pref_id": "yamagata", "address": "山形県東田川郡庄内町狩川字外北割97番地1"}}, {"geometry": {"type": "Point", "coordinates": [140.5053545, 37.9711643]}, "type": "Feature", "properties": {"station_id": "shichigashuku", "name": "七ヶ宿", "pref_id": "miyagi", "address": "宮城県刈田郡七ヶ宿町字野沢倉山2-119"}}, {"geometry": {"type": "Point", "coordinates": [141.3489206, 38.62794]}, "type": "Feature", "properties": {"station_id": "tsuyama", "name": "津山", "pref_id": "miyagi", "address": "宮城県登米市津山町横山字細谷26-1"}}, {"geometry": {"type": "Point", "coordinates": [140.938334, 38.5216081]}, "type": "Feature", "properties": {"station_id": "sambongi", "name": "三本木", "pref_id": "miyagi", "address": "宮城県大崎市三本木字大豆坂63-13"}}, {"geometry": {"type": "Point", "coordinates": [140.844399, 38.7944349]}, "type": "Feature", "properties": {"station_id": "rotarihanayama", "name": "路田里はなやま", "pref_id": "miyagi", "address": "宮城県栗原市花山字本沢北ノ前112-1"}}, {"geometry": {"type": "Point", "coordinates": [141.5664266, 38.8140565]}, "type": "Feature", "properties": {"station_id": "oyakaigan", "name": "大谷海岸", "pref_id": "miyagi", "address": "宮城県気仙沼市本吉町三島94-12"}}, {"geometry": {"type": "Point", "coordinates": [140.9935638, 38.4238511]}, "type": "Feature", "properties": {"station_id": "osato", "name": "おおさと", "pref_id": "miyagi", "address": "宮城県黒川郡大郷町中村字北浦51-6"}}, {"geometry": {"type": "Point", "coordinates": [141.1878908, 38.6271176]}, "type": "Feature", "properties": {"station_id": "yoneyama", "name": "米山", "pref_id": "miyagi", "address": "宮城県登米市米山町西野字遠田67"}}, {"geometry": {"type": "Point", "coordinates": [140.8336267, 38.7068042]}, "type": "Feature", "properties": {"station_id": "a-ra-datenamichinoeki", "name": "あ・ら・伊達な道の駅", "pref_id": "miyagi", "address": "宮城県大崎市岩出山池月字下宮道下4-1"}}, {"geometry": {"type": "Point", "coordinates": [141.3156265, 38.741396]}, "type": "Feature", "properties": {"station_id": "rinrinkan", "name": "林林館", "pref_id": "miyagi", "address": "宮城県登米市東和町米川字六反33-1"}}, {"geometry": {"type": "Point", "coordinates": [141.2953175, 38.5010332]}, "type": "Feature", "properties": {"station_id": "jobonnosato", "name": "上品の郷", "pref_id": "miyagi", "address": "宮城県石巻市小船越字二子北下1番地1"}}, {"geometry": {"type": "Point", "coordinates": [141.1606326, 38.6648826]}, "type": "Feature", "properties": {"station_id": "minamikata", "name": "みなみかた", "pref_id": "miyagi", "address": "宮城県登米市南方町新高石浦150-1"}}, {"geometry": {"type": "Point", "coordinates": [140.7242784, 38.1212671]}, "type": "Feature", "properties": {"station_id": "murata", "name": "村田", "pref_id": "miyagi", "address": "宮城県柴田郡村田町大字村田字北塩田41"}}, {"geometry": {"type": "Point", "coordinates": [141.3223942, 38.7091166]}, "type": "Feature", "properties": {"station_id": "mitakido", "name": "三滝堂(2017.3.31開業予定)", "pref_id": "miyagi", "address": "宮城県登米市東和町米谷字福平191-1"}}, {"geometry": {"type": "Point", "coordinates": [140.3342938, 37.6551202]}, "type": "Feature", "properties": {"station_id": "tsuchiyu", "name": "つちゆ", "pref_id": "fukushima", "address": "福島県福島市松川町水原字南沢41-2"}}, {"geometry": {"type": "Point", "coordinates": [140.5766931, 37.6678183]}, "type": "Feature", "properties": {"station_id": "kawamata", "name": "川俣", "pref_id": "fukushima", "address": "福島県伊達郡川俣町大字鶴沢字東13-1"}}, {"geometry": {"type": "Point", "coordinates": [139.7275995, 37.0865496]}, "type": "Feature", "properties": {"station_id": "tajima", "name": "たじま", "pref_id": "fukushima", "address": "福島県南会津郡南会津町糸沢字男鹿沼原3242-8"}}, {"geometry": {"type": "Point", "coordinates": [140.5109969, 37.628596]}, "type": "Feature", "properties": {"station_id": "adachi", "name": "安達", "pref_id": "fukushima", "address": "福島県二本松市下川崎字上平33-1(上り線)福島県二本松市米沢字下川原田105-2(下り線)"}}, {"geometry": {"type": "Point", "coordinates": [139.8782643, 37.7019379]}, "type": "Feature", "properties": {"station_id": "kitanosato", "name": "喜多の郷", "pref_id": "fukushima", "address": "福島県喜多方市松山町鳥見山字三町歩5598-1"}}, {"geometry": {"type": "Point", "coordinates": [140.0433895, 37.6649638]}, "type": "Feature", "properties": {"station_id": "urabandai", "name": "裏磐梯", "pref_id": "fukushima", "address": "福島県耶麻郡北塩原村大字桧原字南黄連沢山1157"}}, {"geometry": {"type": "Point", "coordinates": [140.9976258, 37.2500062]}, "type": "Feature", "properties": {"station_id": "naraha", "name": "ならは", "pref_id": "fukushima", "address": "福島県双葉郡楢葉町大字山田岡字大堤入22-1"}}, {"geometry": {"type": "Point", "coordinates": [140.9479413, 37.7611061]}, "type": "Feature", "properties": {"station_id": "soma", "name": "そうま", "pref_id": "fukushima", "address": "福島県相馬市日下石字金谷77-1"}}, {"geometry": {"type": "Point", "coordinates": [140.414492, 36.9506326]}, "type": "Feature", "properties": {"station_id": "hanawa", "name": "はなわ", "pref_id": "fukushima", "address": "福島県東白川郡塙町大字塙字桜木町388-1"}}, {"geometry": {"type": "Point", "coordinates": [139.7221754, 37.527693]}, "type": "Feature", "properties": {"station_id": "aizuyanaizu", "name": "会津柳津", "pref_id": "fukushima", "address": "福島県河沼郡柳津町字下平乙181-1"}}, {"geometry": {"type": "Point", "coordinates": [140.5773494, 37.5699562]}, "type": "Feature", "properties": {"station_id": "fukushimatowa", "name": "ふくしま東和", "pref_id": "fukushima", "address": "福島県二本松市太田字下田2-3"}}, {"geometry": {"type": "Point", "coordinates": [139.6425952, 37.5858675]}, "type": "Feature", "properties": {"station_id": "nishiaizu", "name": "にしあいづ", "pref_id": "fukushima", "address": "福島県耶麻郡西会津町野沢字下條乙1969-26"}}, {"geometry": {"type": "Point", "coordinates": [139.670802, 37.4777576]}, "type": "Feature", "properties": {"station_id": "ozekaido-mishimajuku", "name": "尾瀬街道みしま宿", "pref_id": "fukushima", "address": "福島県大沼郡三島町大字川井字天屋原610"}}, {"geometry": {"type": "Point", "coordinates": [140.4181372, 37.2228324]}, "type": "Feature", "properties": {"station_id": "tamakawa", "name": "たまかわ", "pref_id": "fukushima", "address": "福島県石川郡玉川村大字岩法寺字宮ノ前140-2"}}, {"geometry": {"type": "Point", "coordinates": [140.0633922, 37.2399765]}, "type": "Feature", "properties": {"station_id": "hatorikokogen", "name": "羽鳥湖高原", "pref_id": "fukushima", "address": "福島県岩瀬郡天栄村大字田良尾字芝草1-3552"}}, {"geometry": {"type": "Point", "coordinates": [140.983643, 37.6353066]}, "type": "Feature", "properties": {"station_id": "minamisoma", "name": "南相馬", "pref_id": "fukushima", "address": "福島県南相馬市原町区高見町2丁目30-1"}}, {"geometry": {"type": "Point", "coordinates": [139.9163428, 37.2035393]}, "type": "Feature", "properties": {"station_id": "shimogo", "name": "しもごう", "pref_id": "fukushima", "address": "福島県南会津郡下郷町大字南倉沢字木賊844-188"}}, {"geometry": {"type": "Point", "coordinates": [140.5600321, 37.2505454]}, "type": "Feature", "properties": {"station_id": "hirata", "name": "ひらた", "pref_id": "fukushima", "address": "福島県石川郡平田村大字上蓬田字横森後160"}}, {"geometry": {"type": "Point", "coordinates": [140.9936059, 37.1072569]}, "type": "Feature", "properties": {"station_id": "yotsukurako", "name": "よつくら港", "pref_id": "fukushima", "address": "福島県いわき市四倉町字五丁目218-1"}}, {"geometry": {"type": "Point", "coordinates": [139.9866523, 37.5627514]}, "type": "Feature", "properties": {"station_id": "bandai", "name": "ばんだい", "pref_id": "fukushima", "address": "福島県耶麻郡磐梯町大字磐梯字十王堂38"}}, {"geometry": {"type": "Point", "coordinates": [140.5297735, 37.0931301]}, "type": "Feature", "properties": {"station_id": "furudono", "name": "ふるどの", "pref_id": "fukushima", "address": "福島県石川郡古殿町大字田口字平舘25"}}, {"geometry": {"type": "Point", "coordinates": [139.6154861, 37.0688217]}, "type": "Feature", "properties": {"station_id": "banya", "name": "番屋", "pref_id": "fukushima", "address": "福島県南会津郡南会津町番屋4番地"}}, {"geometry": {"type": "Point", "coordinates": [140.2447857, 37.2436603]}, "type": "Feature", "properties": {"station_id": "kinosatotenei", "name": "季の里天栄", "pref_id": "fukushima", "address": "福島県岩瀬郡天栄村大字大里字天房50-1"}}, {"geometry": {"type": "Point", "coordinates": [139.5426599, 37.2219817]}, "type": "Feature", "properties": {"station_id": "kirara-289", "name": "きらら289", "pref_id": "fukushima", "address": "福島県南会津郡南会津町山口字橋尻1番地"}}, {"geometry": {"type": "Point", "coordinates": [139.5305383, 37.4719298]}, "type": "Feature", "properties": {"station_id": "okuaizukaneyama", "name": "奥会津かねやま", "pref_id": "fukushima", "address": "福島県大沼郡金山町大字中川字上居平949番地8"}}, {"geometry": {"type": "Point", "coordinates": [140.5902479, 37.53478]}, "type": "Feature", "properties": {"station_id": "sakuranosato", "name": "さくらの郷", "pref_id": "fukushima", "address": "福島県二本松市東新殿字平石田12番地2"}}, {"geometry": {"type": "Point", "coordinates": [139.8622973, 37.5572992]}, "type": "Feature", "properties": {"station_id": "aizu-yugawa-aizubange", "name": "あいづ 湯川・会津坂下", "pref_id": "fukushima", "address": "福島県河沼郡湯川村大字佐野目字五丁ノ目78番地1"}}, {"geometry": {"type": "Point", "coordinates": [139.6298557, 37.3259046]}, "type": "Feature", "properties": {"station_id": "karamushiorinosato-showa", "name": "からむし織の里しょうわ", "pref_id": "fukushima", "address": "福島県大沼郡昭和村大字佐倉字上ノ原1番地"}}, {"geometry": {"type": "Point", "coordinates": [140.1039922, 37.5350877]}, "type": "Feature", "properties": {"station_id": "inawashiro", "name": "猪苗代(2016年度開業予定)", "pref_id": "fukushima", "address": "福島県耶麻郡猪苗代町大字堅田字五百苅1"}}, {"geometry": {"type": "Point", "coordinates": [138.7841057, 36.0805323]}, "type": "Feature", "properties": {"station_id": "ueno", "name": "上野", "pref_id": "gunma", "address": "群馬県多野郡上野村大字勝山127番地"}}, {"geometry": {"type": "Point", "coordinates": [139.136429, 36.4590603]}, "type": "Feature", "properties": {"station_id": "guri%ef%bd%b0nfurawa%ef%bd%b0bokujo-ogo", "name": "ぐりーんふらわー牧場・大胡", "pref_id": "gunma", "address": "群馬県前橋市滝窪町1369番地1"}}, {"geometry": {"type": "Point", "coordinates": [138.6276317, 36.595804]}, "type": "Feature", "properties": {"station_id": "kuni", "name": "六合", "pref_id": "gunma", "address": "群馬県吾妻郡中之条町大字小雨22"}}, {"geometry": {"type": "Point", "coordinates": [138.9528062, 36.5481138]}, "type": "Feature", "properties": {"station_id": "onoko", "name": "おのこ", "pref_id": "gunma", "address": "群馬県渋川市小野子1980"}}, {"geometry": {"type": "Point", "coordinates": [139.0403486, 36.1430927]}, "type": "Feature", "properties": {"station_id": "joshuuonishi", "name": "上州おにし", "pref_id": "gunma", "address": "群馬県藤岡市譲原1089-2"}}, {"geometry": {"type": "Point", "coordinates": [139.10714, 36.687081]}, "type": "Feature", "properties": {"station_id": "kawabadenempuraza", "name": "川場田園プラザ", "pref_id": "gunma", "address": "群馬県利根郡川場村大字萩室385番地"}}, {"geometry": {"type": "Point", "coordinates": [138.96767, 36.7645152]}, "type": "Feature", "properties": {"station_id": "minakamimizukikokan", "name": "みなかみ水紀行館", "pref_id": "gunma", "address": "群馬県利根郡みなかみ町湯原1681-1"}}, {"geometry": {"type": "Point", "coordinates": [139.1200313, 36.6616976]}, "type": "Feature", "properties": {"station_id": "shirasawa", "name": "白沢", "pref_id": "gunma", "address": "群馬県沼田市白沢町平出1297"}}, {"geometry": {"type": "Point", "coordinates": [138.5919117, 36.6157315]}, "type": "Feature", "properties": {"station_id": "kusatsuundojayakoen", "name": "草津運動茶屋公園", "pref_id": "gunma", "address": "群馬県吾妻郡草津町大字草津2-1"}}, {"geometry": {"type": "Point", "coordinates": [139.2719912, 36.491184]}, "type": "Feature", "properties": {"station_id": "kurohoneyamabiko", "name": "くろほね・やまびこ", "pref_id": "gunma", "address": "群馬県桐生市黒保根町下田沢91番地4"}}, {"geometry": {"type": "Point", "coordinates": [139.0702194, 36.2786744]}, "type": "Feature", "properties": {"station_id": "raranfujioka", "name": "ららん藤岡", "pref_id": "gunma", "address": "群馬県藤岡市中1060-5"}}, {"geometry": {"type": "Point", "coordinates": [139.0163627, 36.5151403]}, "type": "Feature", "properties": {"station_id": "komochi", "name": "こもち", "pref_id": "gunma", "address": "群馬県渋川市白井2318-1"}}, {"geometry": {"type": "Point", "coordinates": [138.9812566, 36.6976003]}, "type": "Feature", "properties": {"station_id": "tsukiyonoyazeshinsuikoen", "name": "月夜野矢瀬親水公園", "pref_id": "gunma", "address": "群馬県利根郡みなかみ町月夜野2936"}}, {"geometry": {"type": "Point", "coordinates": [138.7660059, 36.2996188]}, "type": "Feature", "properties": {"station_id": "myogi", "name": "みょうぎ", "pref_id": "gunma", "address": "群馬県富岡市妙義町岳322-7"}}, {"geometry": {"type": "Point", "coordinates": [138.8978301, 36.1092423]}, "type": "Feature", "properties": {"station_id": "mambanosato", "name": "万葉の里", "pref_id": "gunma", "address": "群馬県多野郡神流町大字黒田742-1"}}, {"geometry": {"type": "Point", "coordinates": [138.8020231, 36.2240525]}, "type": "Feature", "properties": {"station_id": "shimonita", "name": "しもにた", "pref_id": "gunma", "address": "群馬県甘楽郡下仁田町大字馬山3766-11"}}, {"geometry": {"type": "Point", "coordinates": [139.3728487, 36.5525594]}, "type": "Feature", "properties": {"station_id": "tomihirobijutsukan", "name": "富弘美術館", "pref_id": "gunma", "address": "群馬県みどり市東町草木86番地"}}, {"geometry": {"type": "Point", "coordinates": [138.9082915, 36.6960522]}, "type": "Feature", "properties": {"station_id": "takuminosato", "name": "たくみの里", "pref_id": "gunma", "address": "群馬県利根郡みなかみ町須川847"}}, {"geometry": {"type": "Point", "coordinates": [138.8297562, 36.6089289]}, "type": "Feature", "properties": {"station_id": "reizantakeyama", "name": "霊山たけやま", "pref_id": "gunma", "address": "群馬県吾妻郡中之条町大字五反田222-1"}}, {"geometry": {"type": "Point", "coordinates": [139.0351612, 36.4416071]}, "type": "Feature", "properties": {"station_id": "yoshiokaonsen", "name": "よしおか温泉", "pref_id": "gunma", "address": "群馬県北群馬郡吉岡町大字漆原2004番地"}}, {"geometry": {"type": "Point", "coordinates": [139.1284555, 36.4236952]}, "type": "Feature", "properties": {"station_id": "akaginomegumi", "name": "赤城の恵", "pref_id": "gunma", "address": "群馬県前橋市荻窪町437-11"}}, {"geometry": {"type": "Point", "coordinates": [138.9167972, 36.2337132]}, "type": "Feature", "properties": {"station_id": "kanra", "name": "甘楽", "pref_id": "gunma", "address": "群馬県甘楽郡甘楽町大字小幡444-1"}}, {"geometry": {"type": "Point", "coordinates": [139.0689353, 36.612775]}, "type": "Feature", "properties": {"station_id": "aguri%ef%bd%b0mushowa", "name": "あぐりーむ昭和", "pref_id": "gunma", "address": "群馬県利根郡昭和村大字森下2406-2"}}, {"geometry": {"type": "Point", "coordinates": [138.7417079, 36.1782734]}, "type": "Feature", "properties": {"station_id": "oashisunammoku", "name": "オアシスなんもく", "pref_id": "gunma", "address": "群馬県甘楽郡南牧村大字千原3-1"}}, {"geometry": {"type": "Point", "coordinates": [139.0942386, 36.4693828]}, "type": "Feature", "properties": {"station_id": "fujimi-2", "name": "ふじみ", "pref_id": "gunma", "address": "群馬県前橋市富士見町石井1569-1"}}, {"geometry": {"type": "Point", "coordinates": [139.2964207, 36.2646406]}, "type": "Feature", "properties": {"station_id": "ota", "name": "おおた", "pref_id": "gunma", "address": "群馬県太田市粕川町701番地1"}}, {"geometry": {"type": "Point", "coordinates": [138.6842731, 36.5475134]}, "type": "Feature", "properties": {"station_id": "yambafurusatokan", "name": "八ッ場ふるさと館", "pref_id": "gunma", "address": "群馬県吾妻郡長野原町大字林1567番地4"}}, {"geometry": {"type": "Point", "coordinates": [138.9543706, 36.6225003]}, "type": "Feature", "properties": {"station_id": "nakayamabonchi", "name": "中山盆地", "pref_id": "gunma", "address": "群馬県吾妻郡高山村大字中山2357番地1"}}, {"geometry": {"type": "Point", "coordinates": [138.7930923, 36.4245358]}, "type": "Feature", "properties": {"station_id": "kurabuchiogurinosato", "name": "くらぶち小栗の里", "pref_id": "gunma", "address": "群馬県高崎市倉渕町三ノ倉296番地1"}}, {"geometry": {"type": "Point", "coordinates": [138.7356141, 36.5695872]}, "type": "Feature", "properties": {"station_id": "agatsumakyo", "name": "あがつま峡", "pref_id": "gunma", "address": "群馬県吾妻郡東吾妻町大字三島6441"}}, {"geometry": {"type": "Point", "coordinates": [139.0943274, 36.3082618]}, "type": "Feature", "properties": {"station_id": "tamamurajuku", "name": "玉村宿", "pref_id": "gunma", "address": "群馬県佐波郡玉村町大字上新田604-1"}}, {"geometry": {"type": "Point", "coordinates": [140.1728576, 36.5278259]}, "type": "Feature", "properties": {"station_id": "motegi", "name": "もてぎ", "pref_id": "tochigi", "address": "栃木県芳賀郡茂木町大字茂木1090-1"}}, {"geometry": {"type": "Point", "coordinates": [139.964996, 36.3673361]}, "type": "Feature", "properties": {"station_id": "ninomiya", "name": "にのみや", "pref_id": "tochigi", "address": "栃木県真岡市久下田2204-1"}}, {"geometry": {"type": "Point", "coordinates": [139.8993301, 36.9557969]}, "type": "Feature", "properties": {"station_id": "yunokashiobara", "name": "湯の香しおばら", "pref_id": "tochigi", "address": "栃木県那須塩原市関谷442番地"}}, {"geometry": {"type": "Point", "coordinates": [140.0137036, 37.0415321]}, "type": "Feature", "properties": {"station_id": "nasukogen-yuuainomori", "name": "那須高原友愛の森", "pref_id": "tochigi", "address": "栃木県那須郡那須町大字高久乙593-8"}}, {"geometry": {"type": "Point", "coordinates": [139.9850158, 37.0010944]}, "type": "Feature", "properties": {"station_id": "meijinomorikuroiso", "name": "明治の森・黒磯", "pref_id": "tochigi", "address": "栃木県那須塩原市青木27番地"}}, {"geometry": {"type": "Point", "coordinates": [140.1498965, 36.7475796]}, "type": "Feature", "properties": {"station_id": "bato", "name": "ばとう", "pref_id": "tochigi", "address": "栃木県那須郡那珂川町北向田183-1"}}, {"geometry": {"type": "Point", "coordinates": [140.1574148, 36.9540542]}, "type": "Feature", "properties": {"station_id": "tosando-iono", "name": "東山道伊王野", "pref_id": "tochigi", "address": "栃木県那須郡那須町大字伊王野459"}}, {"geometry": {"type": "Point", "coordinates": [140.0326363, 36.7154994]}, "type": "Feature", "properties": {"station_id": "kitsuregawa", "name": "きつれがわ", "pref_id": "tochigi", "address": "栃木県さくら市喜連川4145-10"}}, {"geometry": {"type": "Point", "coordinates": [139.5721208, 36.3435044]}, "type": "Feature", "properties": {"station_id": "domannaka-tanuma", "name": "どまんなか たぬま", "pref_id": "tochigi", "address": "栃木県佐野市吉水町366-2"}}, {"geometry": {"type": "Point", "coordinates": [140.0581962, 36.5523813]}, "type": "Feature", "properties": {"station_id": "haga", "name": "はが", "pref_id": "tochigi", "address": "栃木県芳賀郡芳賀町大字祖母井842-1"}}, {"geometry": {"type": "Point", "coordinates": [140.0873784, 36.8630177]}, "type": "Feature", "properties": {"station_id": "nasunoyoichinosato", "name": "那須与一の郷", "pref_id": "tochigi", "address": "栃木県大田原市南金丸1584-6"}}, {"geometry": {"type": "Point", "coordinates": [139.9685838, 36.9008623]}, "type": "Feature", "properties": {"station_id": "nasunogahara-hakubutsukan", "name": "那須野が原博物館", "pref_id": "tochigi", "address": "栃木県那須塩原市三島5-1"}}, {"geometry": {"type": "Point", "coordinates": [139.734081, 36.3823804]}, "type": "Feature", "properties": {"station_id": "mikamo", "name": "みかも", "pref_id": "tochigi", "address": "栃木県栃木市藤岡町大和田678"}}, {"geometry": {"type": "Point", "coordinates": [139.7607489, 36.3081846]}, "type": "Feature", "properties": {"station_id": "omoigawa", "name": "思川", "pref_id": "tochigi", "address": "栃木県小山市大字下国府塚25-1"}}, {"geometry": {"type": "Point", "coordinates": [139.6779606, 36.9323012]}, "type": "Feature", "properties": {"station_id": "yunishigawa", "name": "湯西川", "pref_id": "tochigi", "address": "栃木県日光市西川478番地1"}}, {"geometry": {"type": "Point", "coordinates": [139.8069587, 36.4552686]}, "type": "Feature", "properties": {"station_id": "mibu", "name": "みぶ", "pref_id": "tochigi", "address": "栃木県下都賀郡壬生町大字国谷1870-2"}}, {"geometry": {"type": "Point", "coordinates": [139.7431798, 36.4666875]}, "type": "Feature", "properties": {"station_id": "nishikata", "name": "にしかた", "pref_id": "tochigi", "address": "栃木県栃木市西方町元369-1"}}, {"geometry": {"type": "Point", "coordinates": [139.8837944, 36.3971639]}, "type": "Feature", "properties": {"station_id": "shimotsuke", "name": "しもつけ", "pref_id": "tochigi", "address": "栃木県下野市薬師寺3720-1"}}, {"geometry": {"type": "Point", "coordinates": [139.9216154, 36.805614]}, "type": "Feature", "properties": {"station_id": "yaita", "name": "やいた", "pref_id": "tochigi", "address": "栃木県矢板市矢板114番地1"}}, {"geometry": {"type": "Point", "coordinates": [139.781318, 36.7647074]}, "type": "Feature", "properties": {"station_id": "yuusuinosato-shioya", "name": "湧水の郷しおや", "pref_id": "tochigi", "address": "栃木県塩谷郡塩谷町大字船生3733-1"}}, {"geometry": {"type": "Point", "coordinates": [139.8313127, 36.633391]}, "type": "Feature", "properties": {"station_id": "utsunomiya-romanchikkumura", "name": "うつのみや ろまんちっく村", "pref_id": "tochigi", "address": "栃木県宇都宮市新里町丙254番地"}}, {"geometry": {"type": "Point", "coordinates": [140.1001434, 36.5426889]}, "type": "Feature", "properties": {"station_id": "sashibanosatoichikai", "name": "サシバの里いちかい", "pref_id": "tochigi", "address": "栃木県芳賀郡市貝町大字市塙1270番地"}}, {"geometry": {"type": "Point", "coordinates": [139.688067, 36.7252183]}, "type": "Feature", "properties": {"station_id": "nikkou", "name": "日光", "pref_id": "tochigi", "address": "栃木県日光市今市719番地1"}}, {"geometry": {"type": "Point", "coordinates": [140.0844274, 36.4300685]}, "type": "Feature", "properties": {"station_id": "mashiko", "name": "ましこ(2016年度開業予定)", "pref_id": "tochigi", "address": "栃木県芳賀郡益子町大字長堤2271番地"}}, {"geometry": {"type": "Point", "coordinates": [140.3330587, 36.5449685]}, "type": "Feature", "properties": {"station_id": "katsura", "name": "かつら", "pref_id": "ibaraki", "address": "茨城県東茨城郡城里町大字御前山37番地"}}, {"geometry": {"type": "Point", "coordinates": [140.2800036, 36.6558574]}, "type": "Feature", "properties": {"station_id": "miwa", "name": "みわ", "pref_id": "ibaraki", "address": "茨城県常陸大宮市鷲子272番地"}}, {"geometry": {"type": "Point", "coordinates": [140.5096817, 36.7057462]}, "type": "Feature", "properties": {"station_id": "satomi", "name": "さとみ", "pref_id": "ibaraki", "address": "茨城県常陸太田市小菅694番地3"}}, {"geometry": {"type": "Point", "coordinates": [139.8043185, 36.1115211]}, "type": "Feature", "properties": {"station_id": "sakai", "name": "さかい", "pref_id": "ibaraki", "address": "茨城県猿島郡境町1341番地1"}}, {"geometry": {"type": "Point", "coordinates": [140.3592347, 36.7685851]}, "type": "Feature", "properties": {"station_id": "okukujidaigo", "name": "奥久慈だいご", "pref_id": "ibaraki", "address": "茨城県久慈郡大子町大字池田2830番地1"}}, {"geometry": {"type": "Point", "coordinates": [139.9865656, 36.2158713]}, "type": "Feature", "properties": {"station_id": "shimotsuma", "name": "しもつま", "pref_id": "ibaraki", "address": "茨城県下妻市数須140番地"}}, {"geometry": {"type": "Point", "coordinates": [140.4037633, 36.0963942]}, "type": "Feature", "properties": {"station_id": "tamatsukuri", "name": "たまつくり", "pref_id": "ibaraki", "address": "茨城県行方市玉造甲1963-5"}}, {"geometry": {"type": "Point", "coordinates": [140.5892448, 35.9461322]}, "type": "Feature", "properties": {"station_id": "itako", "name": "いたこ", "pref_id": "ibaraki", "address": "茨城県潮来市前川1326-1"}}, {"geometry": {"type": "Point", "coordinates": [139.7582595, 36.095335]}, "type": "Feature", "properties": {"station_id": "goka", "name": "ごか", "pref_id": "ibaraki", "address": "茨城県猿島郡五霞町幸主18-1"}}, {"geometry": {"type": "Point", "coordinates": [139.7025248, 36.1846451]}, "type": "Feature", "properties": {"station_id": "makuraganosato-koga", "name": "まくらがの里 こが", "pref_id": "ibaraki", "address": "茨城県古河市大田和2623番地"}}, {"geometry": {"type": "Point", "coordinates": [140.6151942, 36.4923537]}, "type": "Feature", "properties": {"station_id": "hitachi-osakanasenta", "name": "日立おさかなセンター", "pref_id": "ibaraki", "address": "茨城県日立市みなと町5779-24"}}, {"geometry": {"type": "Point", "coordinates": [140.4115467, 36.5928004]}, "type": "Feature", "properties": {"station_id": "hitachiomiya", "name": "常陸大宮", "pref_id": "ibaraki", "address": "茨城県常陸大宮市岩崎717番1"}}, {"geometry": {"type": "Point", "coordinates": [140.5278257, 36.506628]}, "type": "Feature", "properties": {"station_id": "hitachiota-eki", "name": "ひたちおおた", "pref_id": "ibaraki", "address": "茨城県常陸太田市下河合町1016番1 "}}, {"geometry": {"type": "Point", "coordinates": [139.3414749, 35.6866238]}, "type": "Feature", "properties": {"station_id": "hachiojitakiyama", "name": "八王子滝山", "pref_id": "tokyo", "address": "東京都八王子市滝山町1-592-2"}}, {"geometry": {"type": "Point", "coordinates": [139.8371306, 35.0376773]}, "type": "Feature", "properties": {"station_id": "tomiura", "name": "とみうら", "pref_id": "chiba", "address": "千葉県南房総市富浦町青木123-1"}}, {"geometry": {"type": "Point", "coordinates": [139.8948453, 35.0341006]}, "type": "Feature", "properties": {"station_id": "miyoshimura", "name": "三芳村", "pref_id": "chiba", "address": "千葉県南房総市川田82-2"}}, {"geometry": {"type": "Point", "coordinates": [140.1067486, 35.7584154]}, "type": "Feature", "properties": {"station_id": "yachiyo", "name": "やちよ", "pref_id": "chiba", "address": "千葉県八千代市米本4905-1"}}, {"geometry": {"type": "Point", "coordinates": [139.8371002, 35.1279707]}, "type": "Feature", "properties": {"station_id": "kyonan", "name": "きょなん", "pref_id": "chiba", "address": "千葉県安房郡鋸南町吉浜517-1"}}, {"geometry": {"type": "Point", "coordinates": [140.0770891, 35.0638015]}, "type": "Feature", "properties": {"station_id": "kamogawa-o%ef%bd%b0shampa%ef%bd%b0ku", "name": "鴨川オーシャンパーク", "pref_id": "chiba", "address": "千葉県鴨川市江見太夫崎22"}}, {"geometry": {"type": "Point", "coordinates": [139.9753266, 35.0086555]}, "type": "Feature", "properties": {"station_id": "ro%ef%bd%b0zumari%ef%bd%b0koen", "name": "ローズマリー公園", "pref_id": "chiba", "address": "千葉県南房総市白子1501"}}, {"geometry": {"type": "Point", "coordinates": [140.0695173, 35.1985309]}, "type": "Feature", "properties": {"station_id": "fureaipa%ef%bd%b0ku-kimitsu", "name": "ふれあいパーク・きみつ", "pref_id": "chiba", "address": "千葉県君津市笹字椿1766-3"}}, {"geometry": {"type": "Point", "coordinates": [140.0232539, 35.8577705]}, "type": "Feature", "properties": {"station_id": "shonan", "name": "しょうなん", "pref_id": "chiba", "address": "千葉県柏市箕輪新田59-2"}}, {"geometry": {"type": "Point", "coordinates": [140.2566948, 35.2490314]}, "type": "Feature", "properties": {"station_id": "takeyuranosatotaki", "name": "たけゆらの里おおたき", "pref_id": "chiba", "address": "千葉県夷隅郡大多喜町石神870-5"}}, {"geometry": {"type": "Point", "coordinates": [140.4752437, 35.7314732]}, "type": "Feature", "properties": {"station_id": "tako", "name": "多古", "pref_id": "chiba", "address": "千葉県香取郡多古町多古1069-1"}}, {"geometry": {"type": "Point", "coordinates": [140.109646, 35.4638588]}, "type": "Feature", "properties": {"station_id": "azunosatoichihara", "name": "あずの里いちはら", "pref_id": "chiba", "address": "千葉県市原市浅井小向492-1"}}, {"geometry": {"type": "Point", "coordinates": [140.4701229, 35.8059964]}, "type": "Feature", "properties": {"station_id": "kurimoto", "name": "くりもと", "pref_id": "chiba", "address": "千葉県香取市沢1372-1"}}, {"geometry": {"type": "Point", "coordinates": [139.9520926, 34.9299008]}, "type": "Feature", "properties": {"station_id": "chikurashiokazeokoku", "name": "ちくら・潮風王国", "pref_id": "chiba", "address": "千葉県南房総市千倉町千田1051"}}, {"geometry": {"type": "Point", "coordinates": [139.8556137, 35.1005082]}, "type": "Feature", "properties": {"station_id": "furaritomiyama", "name": "富楽里とみやま", "pref_id": "chiba", "address": "千葉県南房総市二部1900"}}, {"geometry": {"type": "Point", "coordinates": [139.8603645, 35.0577165]}, "type": "Feature", "properties": {"station_id": "otsunosato", "name": "おおつの里", "pref_id": "chiba", "address": "千葉県南房総市富浦町大津320"}}, {"geometry": {"type": "Point", "coordinates": [140.5015935, 35.6017957]}, "type": "Feature", "properties": {"station_id": "oraihasunuma", "name": "オライはすぬま", "pref_id": "chiba", "address": "千葉県山武市蓮沼ハ4826番地"}}, {"geometry": {"type": "Point", "coordinates": [140.2066599, 35.4573078]}, "type": "Feature", "properties": {"station_id": "nagara", "name": "ながら", "pref_id": "chiba", "address": "千葉県長生郡長柄町六地蔵138-1"}}, {"geometry": {"type": "Point", "coordinates": [140.3036799, 35.352183]}, "type": "Feature", "properties": {"station_id": "tsudoinosato-mutsuzawa", "name": "つどいの郷むつざわ", "pref_id": "chiba", "address": "千葉県長生郡睦沢町上之郷2048-1"}}, {"geometry": {"type": "Point", "coordinates": [139.8773943, 34.9062804]}, "type": "Feature", "properties": {"station_id": "shirahamanojimazaki", "name": "白浜野島崎", "pref_id": "chiba", "address": "千葉県南房総市白浜町滝口9240"}}, {"geometry": {"type": "Point", "coordinates": [139.8257175, 34.9356846]}, "type": "Feature", "properties": {"station_id": "namboparadaisu", "name": "南房パラダイス", "pref_id": "chiba", "address": "千葉県館山市藤原1495番地"}}, {"geometry": {"type": "Point", "coordinates": [140.4683213, 35.9106606]}, "type": "Feature", "properties": {"station_id": "mizunosatosawara", "name": "水の郷さわら", "pref_id": "chiba", "address": "千葉県香取市イ3981-2"}}, {"geometry": {"type": "Point", "coordinates": [140.4100301, 35.6950636]}, "type": "Feature", "properties": {"station_id": "fuwarishibayama", "name": "風和里しばやま", "pref_id": "chiba", "address": "千葉県山武郡芝山町小池2568番"}}, {"geometry": {"type": "Point", "coordinates": [140.0206607, 35.0426681]}, "type": "Feature", "properties": {"station_id": "wadaura-wao", "name": "和田浦 WA・O!", "pref_id": "chiba", "address": "千葉県南房総市和田町仁我浦243"}}, {"geometry": {"type": "Point", "coordinates": [140.3818703, 35.8985158]}, "type": "Feature", "properties": {"station_id": "hakkonosatokozaki", "name": "発酵の里こうざき", "pref_id": "chiba", "address": "千葉県香取郡神崎町松崎855番地"}}, {"geometry": {"type": "Point", "coordinates": [140.6074449, 35.7230384]}, "type": "Feature", "properties": {"station_id": "kirariasahi", "name": "季楽里あさひ", "pref_id": "chiba", "address": "千葉県旭市イの5238番地"}}, {"geometry": {"type": "Point", "coordinates": [139.8439717, 35.1437407]}, "type": "Feature", "properties": {"station_id": "hotasyougakkou", "name": "保田小学校", "pref_id": "chiba", "address": "千葉県安房郡鋸南町保田724番地"}}, {"geometry": {"type": "Point", "coordinates": [140.3836171, 35.5772168]}, "type": "Feature", "properties": {"station_id": "minori-no-sato-togane", "name": "みのりの郷東金", "pref_id": "chiba", "address": "千葉県東金市田間1300番地3"}}, {"geometry": {"type": "Point", "coordinates": [139.0156098, 35.1867643]}, "type": "Feature", "properties": {"station_id": "hakonetoge", "name": "箱根峠", "pref_id": "kanagawa", "address": "神奈川県足柄下郡箱根町箱根381番地22"}}, {"geometry": {"type": "Point", "coordinates": [139.0314839, 35.3798757]}, "type": "Feature", "properties": {"station_id": "yamakita", "name": "山北", "pref_id": "kanagawa", "address": "神奈川県足柄上郡山北町湯触317番地"}}, {"geometry": {"type": "Point", "coordinates": [139.2771732, 35.4825222]}, "type": "Feature", "properties": {"station_id": "kiyokawa-eki", "name": "清川", "pref_id": "kanagawa", "address": "神奈川県愛甲郡清川村煤ヶ谷2129"}}, {"geometry": {"type": "Point", "coordinates": [139.0126641, 35.9544339]}, "type": "Feature", "properties": {"station_id": "arakawa", "name": "あらかわ", "pref_id": "saitama", "address": "埼玉県秩父市荒川日野538番地1"}}, {"geometry": {"type": "Point", "coordinates": [139.2811686, 36.0523844]}, "type": "Feature", "properties": {"station_id": "ogawamachi", "name": "おがわまち", "pref_id": "saitama", "address": "埼玉県比企郡小川町大字小川1220番地"}}, {"geometry": {"type": "Point", "coordinates": [139.765769, 35.848019]}, "type": "Feature", "properties": {"station_id": "kawaguchiangyo", "name": "川口・あんぎょう", "pref_id": "saitama", "address": "埼玉県川口市安行領家844番地2"}}, {"geometry": {"type": "Point", "coordinates": [138.9381995, 35.9503803]}, "type": "Feature", "properties": {"station_id": "otakionsen", "name": "大滝温泉", "pref_id": "saitama", "address": "埼玉県秩父市大滝4277番地2"}}, {"geometry": {"type": "Point", "coordinates": [139.2412797, 36.2185243]}, "type": "Feature", "properties": {"station_id": "okabe", "name": "おかべ", "pref_id": "saitama", "address": "埼玉県深谷市岡688-1"}}, {"geometry": {"type": "Point", "coordinates": [139.0401035, 36.0489837]}, "type": "Feature", "properties": {"station_id": "ryuuseikaikan", "name": "龍勢会館", "pref_id": "saitama", "address": "埼玉県秩父市吉田久長32番地"}}, {"geometry": {"type": "Point", "coordinates": [139.6451589, 36.170307]}, "type": "Feature", "properties": {"station_id": "doyonofurusato-otone", "name": "童謡のふる里おおとね", "pref_id": "saitama", "address": "埼玉県加須市佐波258番地1"}}, {"geometry": {"type": "Point", "coordinates": [139.227294, 36.1218906]}, "type": "Feature", "properties": {"station_id": "hanazono", "name": "はなぞの", "pref_id": "saitama", "address": "埼玉県深谷市小前田458-1"}}, {"geometry": {"type": "Point", "coordinates": [138.9709644, 36.0047724]}, "type": "Feature", "properties": {"station_id": "ryokamionsenyakushinoyu", "name": "両神温泉薬師の湯", "pref_id": "saitama", "address": "埼玉県秩父郡小鹿野町両神薄2380番地"}}, {"geometry": {"type": "Point", "coordinates": [139.2890291, 36.1515097]}, "type": "Feature", "properties": {"station_id": "kawamoto", "name": "かわもと", "pref_id": "saitama", "address": "埼玉県深谷市長在家1279-2"}}, {"geometry": {"type": "Point", "coordinates": [139.3693257, 36.2145575]}, "type": "Feature", "properties": {"station_id": "menuma", "name": "めぬま", "pref_id": "saitama", "address": "埼玉県熊谷市弥藤吾720番地"}}, {"geometry": {"type": "Point", "coordinates": [139.0893968, 35.9974408]}, "type": "Feature", "properties": {"station_id": "chichibu", "name": "ちちぶ", "pref_id": "saitama", "address": "埼玉県秩父市大宮4625番地"}}, {"geometry": {"type": "Point", "coordinates": [139.7692596, 36.0246324]}, "type": "Feature", "properties": {"station_id": "aguripa%ef%bd%b0kuyumesugito", "name": "アグリパークゆめすぎと", "pref_id": "saitama", "address": "埼玉県北葛飾郡杉戸町大字才羽823番地2"}}, {"geometry": {"type": "Point", "coordinates": [139.1355565, 35.9769074]}, "type": "Feature", "properties": {"station_id": "kajukoenashigakubo", "name": "果樹公園あしがくぼ", "pref_id": "saitama", "address": "埼玉県秩父郡横瀬町大字芦ヶ久保1915番地6"}}, {"geometry": {"type": "Point", "coordinates": [139.4576883, 36.0363563]}, "type": "Feature", "properties": {"station_id": "ichigonosatoyoshimi", "name": "いちごの里 よしみ", "pref_id": "saitama", "address": "埼玉県比企郡吉見町大字久保田1737番地"}}, {"geometry": {"type": "Point", "coordinates": [139.6627834, 36.2110887]}, "type": "Feature", "properties": {"station_id": "kitakawabe", "name": "きたかわべ", "pref_id": "saitama", "address": "埼玉県加須市小野袋1737番地"}}, {"geometry": {"type": "Point", "coordinates": [139.7947804, 35.9967914]}, "type": "Feature", "properties": {"station_id": "showa-2", "name": "庄和", "pref_id": "saitama", "address": "埼玉県春日部市上柳995番地"}}, {"geometry": {"type": "Point", "coordinates": [139.5107702, 36.1887372]}, "type": "Feature", "properties": {"station_id": "hanyuu", "name": "はにゅう", "pref_id": "saitama", "address": "埼玉県羽生市大字上新郷7066"}}, {"geometry": {"type": "Point", "coordinates": [139.1096496, 36.0769587]}, "type": "Feature", "properties": {"station_id": "minano", "name": "みなの", "pref_id": "saitama", "address": "埼玉県秩父郡皆野町大字皆野3236-35"}}, {"geometry": {"type": "Point", "coordinates": [138.4850509, 35.2417855]}, "type": "Feature", "properties": {"station_id": "tomizawa", "name": "とみざわ", "pref_id": "yamanashi", "address": "山梨県南巨摩郡南部町福士28507番地1"}}, {"geometry": {"type": "Point", "coordinates": [138.7927141, 35.6359342]}, "type": "Feature", "properties": {"station_id": "kaiyamato", "name": "甲斐大和", "pref_id": "yamanashi", "address": "山梨県甲州市大和町初鹿野2248番地"}}, {"geometry": {"type": "Point", "coordinates": [138.7063623, 35.4813922]}, "type": "Feature", "properties": {"station_id": "narusawa", "name": "なるさわ", "pref_id": "yamanashi", "address": "山梨県南都留郡鳴沢村字ジラゴンノ8532番地63"}}, {"geometry": {"type": "Point", "coordinates": [138.7561943, 35.8588444]}, "type": "Feature", "properties": {"station_id": "mitomi", "name": "みとみ", "pref_id": "yamanashi", "address": "山梨県山梨市三富川浦1822番地1"}}, {"geometry": {"type": "Point", "coordinates": [138.5248248, 35.4755771]}, "type": "Feature", "properties": {"station_id": "shimobe", "name": "しもべ", "pref_id": "yamanashi", "address": "山梨県南巨摩郡身延町古関字大境4321"}}, {"geometry": {"type": "Point", "coordinates": [138.5452121, 35.5849397]}, "type": "Feature", "properties": {"station_id": "toyotomi", "name": "とよとみ", "pref_id": "yamanashi", "address": "山梨県中央市浅利1010-1"}}, {"geometry": {"type": "Point", "coordinates": [138.4384924, 35.7483839]}, "type": "Feature", "properties": {"station_id": "nirasaki", "name": "にらさき", "pref_id": "yamanashi", "address": "山梨県韮崎市中田町中条1795"}}, {"geometry": {"type": "Point", "coordinates": [138.8427664, 35.521613]}, "type": "Feature", "properties": {"station_id": "doshi", "name": "どうし", "pref_id": "yamanashi", "address": "山梨県南都留郡道志村9745番地"}}, {"geometry": {"type": "Point", "coordinates": [138.7343244, 35.5043351]}, "type": "Feature", "properties": {"station_id": "katsuyama", "name": "かつやま", "pref_id": "yamanashi", "address": "山梨県南都留郡富士河口湖町勝山3758"}}, {"geometry": {"type": "Point", "coordinates": [138.7182402, 35.7544312]}, "type": "Feature", "properties": {"station_id": "hanakagenosato-makioka", "name": "花かげの郷まきおか", "pref_id": "yamanashi", "address": "山梨県山梨市牧丘町室伏2120"}}, {"geometry": {"type": "Point", "coordinates": [138.3306551, 35.8103246]}, "type": "Feature", "properties": {"station_id": "hakushuu", "name": "はくしゅう", "pref_id": "yamanashi", "address": "山梨県北杜市白州町白須1308"}}, {"geometry": {"type": "Point", "coordinates": [138.8019941, 35.4592444]}, "type": "Feature", "properties": {"station_id": "fujiyoshida", "name": "富士吉田", "pref_id": "yamanashi", "address": "山梨県富士吉田市新屋1936-6番地"}}, {"geometry": {"type": "Point", "coordinates": [138.4277858, 35.8657383]}, "type": "Feature", "properties": {"station_id": "minamikiyosato", "name": "南きよさと", "pref_id": "yamanashi", "address": "山梨県北杜市高根町長沢760番地"}}, {"geometry": {"type": "Point", "coordinates": [138.471159, 35.6380315]}, "type": "Feature", "properties": {"station_id": "shirane", "name": "しらね", "pref_id": "yamanashi", "address": "山梨県南アルプス市在家塚595-1"}}, {"geometry": {"type": "Point", "coordinates": [138.3167144, 35.8789005]}, "type": "Feature", "properties": {"station_id": "kobuchisawa", "name": "こぶちさわ", "pref_id": "yamanashi", "address": "山梨県北杜市小淵沢町2968-1"}}, {"geometry": {"type": "Point", "coordinates": [138.4417405, 35.411963]}, "type": "Feature", "properties": {"station_id": "fujikawa-furusatokogeikan", "name": "富士川ふるさと工芸館", "pref_id": "yamanashi", "address": "山梨県南巨摩郡身延町下山1578"}}, {"geometry": {"type": "Point", "coordinates": [138.9222313, 35.7897122]}, "type": "Feature", "properties": {"station_id": "tabayama", "name": "たばやま", "pref_id": "yamanashi", "address": "山梨県北都留郡丹波山村2901"}}, {"geometry": {"type": "Point", "coordinates": [138.4716301, 35.557298]}, "type": "Feature", "properties": {"station_id": "fujikawa", "name": "富士川", "pref_id": "yamanashi", "address": "山梨県南巨摩郡富士川町青柳町1655番地3"}}, {"geometry": {"type": "Point", "coordinates": [138.9401611, 35.760124]}, "type": "Feature", "properties": {"station_id": "kosuge", "name": "こすげ", "pref_id": "yamanashi", "address": "山梨県北都留郡小菅村3445"}}, {"geometry": {"type": "Point", "coordinates": [138.9348791, 35.5841188]}, "type": "Feature", "properties": {"station_id": "tsuru", "name": "つる(2016年度開業予定)", "pref_id": "yamanashi", "address": "山梨県都留市大原88番地外"}}, {"geometry": {"type": "Point", "coordinates": [139.1889989, 37.938121]}, "type": "Feature", "properties": {"station_id": "toyosaka", "name": "豊栄", "pref_id": "niigata", "address": "新潟県新潟市北区木崎字切尾山3644-乙"}}, {"geometry": {"type": "Point", "coordinates": [139.3724223, 38.0023437]}, "type": "Feature", "properties": {"station_id": "kajikawa", "name": "加治川", "pref_id": "niigata", "address": "新潟県新発田市横岡1147"}}, {"geometry": {"type": "Point", "coordinates": [139.4610655, 38.1724825]}, "type": "Feature", "properties": {"station_id": "kamihayashi", "name": "神林", "pref_id": "niigata", "address": "新潟県村上市九日市809 "}}, {"geometry": {"type": "Point", "coordinates": [139.5224236, 38.2821299]}, "type": "Feature", "properties": {"station_id": "asahi", "name": "朝日", "pref_id": "niigata", "address": "新潟県村上市猿沢1212 "}}, {"geometry": {"type": "Point", "coordinates": [139.0190552, 37.8700314]}, "type": "Feature", "properties": {"station_id": "niigatafurusatomura", "name": "新潟ふるさと村", "pref_id": "niigata", "address": "新潟県新潟市西区山田2307"}}, {"geometry": {"type": "Point", "coordinates": [138.0032107, 37.1134981]}, "type": "Feature", "properties": {"station_id": "no", "name": "能生", "pref_id": "niigata", "address": "新潟県糸魚川市大字能生小泊3596-2"}}, {"geometry": {"type": "Point", "coordinates": [139.360077, 37.7175486]}, "type": "Feature", "properties": {"station_id": "mikawa", "name": "みかわ", "pref_id": "niigata", "address": "新潟県東蒲原郡阿賀町岩谷2865"}}, {"geometry": {"type": "Point", "coordinates": [139.5705588, 38.0897506]}, "type": "Feature", "properties": {"station_id": "sekikawa", "name": "関川", "pref_id": "niigata", "address": "新潟県岩船郡関川村大字上関"}}, {"geometry": {"type": "Point", "coordinates": [138.809846, 37.3314631]}, "type": "Feature", "properties": {"station_id": "chijiminosatojiya", "name": "ちぢみの里おぢや", "pref_id": "niigata", "address": "新潟県小千谷市大字  甲1670-1"}}, {"geometry": {"type": "Point", "coordinates": [139.3071503, 37.7380086]}, "type": "Feature", "properties": {"station_id": "aganosato", "name": "阿賀の里", "pref_id": "niigata", "address": "新潟県東蒲原郡阿賀町石間4301"}}, {"geometry": {"type": "Point", "coordinates": [139.4585211, 38.3751788]}, "type": "Feature", "properties": {"station_id": "sasagawanagare", "name": "笹川流れ", "pref_id": "niigata", "address": "新潟県村上市桑川892-5 "}}, {"geometry": {"type": "Point", "coordinates": [138.6787088, 37.5388864]}, "type": "Feature", "properties": {"station_id": "echigoizumozaki-tenryonosato", "name": "越後出雲崎 天領の里", "pref_id": "niigata", "address": "新潟県三島郡出雲崎町大字尼瀬6-57"}}, {"geometry": {"type": "Point", "coordinates": [139.4529738, 38.0634898]}, "type": "Feature", "properties": {"station_id": "tainai", "name": "胎内", "pref_id": "niigata", "address": "新潟県胎内市下赤谷387番地1"}}, {"geometry": {"type": "Point", "coordinates": [138.9830342, 37.2238403]}, "type": "Feature", "properties": {"station_id": "yunotani", "name": "ゆのたに", "pref_id": "niigata", "address": "新潟県魚沼市吉田1148番地"}}, {"geometry": {"type": "Point", "coordinates": [138.7590595, 37.5816068]}, "type": "Feature", "properties": {"station_id": "ryokannosato-washima", "name": "良寛の里 わしま", "pref_id": "niigata", "address": "新潟県長岡市島崎5713番2"}}, {"geometry": {"type": "Point", "coordinates": [138.6148841, 37.1325534]}, "type": "Feature", "properties": {"station_id": "matsudaifurusatokaikan", "name": "まつだいふるさと会館", "pref_id": "niigata", "address": "新潟県十日町市松代3816番地"}}, {"geometry": {"type": "Point", "coordinates": [137.644862, 36.9799731]}, "type": "Feature", "properties": {"station_id": "echigoichiburinoseki", "name": "越後市振の関", "pref_id": "niigata", "address": "新潟県糸魚川市大字市振1035番地50"}}, {"geometry": {"type": "Point", "coordinates": [138.761379, 37.1384419]}, "type": "Feature", "properties": {"station_id": "kurosutentokamachi", "name": "クロス10十日町", "pref_id": "niigata", "address": "新潟県十日町市宇都宮71番地26"}}, {"geometry": {"type": "Point", "coordinates": [139.1020031, 37.5418094]}, "type": "Feature", "properties": {"station_id": "kangakunosatoshitada", "name": "漢学の里しただ", "pref_id": "niigata", "address": "新潟県三条市大字庭月451番地1"}}, {"geometry": {"type": "Point", "coordinates": [138.4899851, 37.3467762]}, "type": "Feature", "properties": {"station_id": "kazenokayoneyama", "name": "風の丘米山(リニューアルのため休止中)", "pref_id": "niigata", "address": "新潟県柏崎市大字青海川175番地1"}}, {"geometry": {"type": "Point", "coordinates": [139.0657486, 37.3576373]}, "type": "Feature", "properties": {"station_id": "irihirose", "name": "いりひろせ", "pref_id": "niigata", "address": "新潟県魚沼市大栃山357番地1"}}, {"geometry": {"type": "Point", "coordinates": [138.6621316, 37.4506748]}, "type": "Feature", "properties": {"station_id": "nishiyamafurusatokoen", "name": "西山ふるさと公苑", "pref_id": "niigata", "address": "新潟県柏崎市西山町坂田717番地4"}}, {"geometry": {"type": "Point", "coordinates": [138.2258864, 37.0261176]}, "type": "Feature", "properties": {"station_id": "arai", "name": "あらい", "pref_id": "niigata", "address": "新潟県妙高市大字猪野山58-1"}}, {"geometry": {"type": "Point", "coordinates": [139.0072657, 37.4595997]}, "type": "Feature", "properties": {"station_id": "ru%ef%bd%b0toniikyuumarutochio", "name": "R290とちお", "pref_id": "niigata", "address": "新潟県長岡市栃尾宮沢1764番地"}}, {"geometry": {"type": "Point", "coordinates": [138.4441595, 38.0457043]}, "type": "Feature", "properties": {"station_id": "geinototokinosato", "name": "芸能とトキの里", "pref_id": "niigata", "address": "新潟県佐渡市吾潟1839番地1、新穂潟上2202番地4"}}, {"geometry": {"type": "Point", "coordinates": [137.730334, 37.0031623]}, "type": "Feature", "properties": {"station_id": "oyashirazupiapa%ef%bd%b0ku", "name": "親不知ピアパーク", "pref_id": "niigata", "address": "新潟県糸魚川市大字外波903番地1"}}, {"geometry": {"type": "Point", "coordinates": [138.6863544, 37.1990419]}, "type": "Feature", "properties": {"station_id": "segaenosatosenda", "name": "瀬替えの郷せんだ", "pref_id": "niigata", "address": "新潟県十日町市中仙田甲826番地"}}, {"geometry": {"type": "Point", "coordinates": [138.470325, 37.095594]}, "type": "Feature", "properties": {"station_id": "yukinofurusato-yasuzuka", "name": "雪のふるさと やすづか", "pref_id": "niigata", "address": "新潟県上越市安塚区樽田140番地"}}, {"geometry": {"type": "Point", "coordinates": [138.6337552, 37.21292]}, "type": "Feature", "properties": {"station_id": "jonnobinosatotakayanagi", "name": "じょんのびの里高柳", "pref_id": "niigata", "address": "新潟県柏崎市高柳町高尾10-1"}}, {"geometry": {"type": "Point", "coordinates": [139.078895, 37.7925908]}, "type": "Feature", "properties": {"station_id": "kamuriniitsu", "name": "花夢里にいつ", "pref_id": "niigata", "address": "新潟県新潟市川根438"}}, {"geometry": {"type": "Point", "coordinates": [138.8251803, 37.6628849]}, "type": "Feature", "properties": {"station_id": "kugami", "name": "国上", "pref_id": "niigata", "address": "新潟県燕市国上5866番地1"}}, {"geometry": {"type": "Point", "coordinates": [138.8676192, 37.2608816]}, "type": "Feature", "properties": {"station_id": "echigokawaguchi", "name": "越後川口", "pref_id": "niigata", "address": "新潟県長岡市大字中山84番地2"}}, {"geometry": {"type": "Point", "coordinates": [138.3769706, 37.2416518]}, "type": "Feature", "properties": {"station_id": "yoshikawatojinosato", "name": "よしかわ杜氏の郷", "pref_id": "niigata", "address": "新潟県上越市吉川区杜氏の郷1番地"}}, {"geometry": {"type": "Point", "coordinates": [138.0868718, 37.1634469]}, "type": "Feature", "properties": {"station_id": "umiterasunadachi", "name": "うみてらす名立", "pref_id": "niigata", "address": "新潟県上越市名立区名立大町4280-1"}}, {"geometry": {"type": "Point", "coordinates": [138.8190001, 37.0036387]}, "type": "Feature", "properties": {"station_id": "minamiuonuma", "name": "南魚沼", "pref_id": "niigata", "address": "新潟県南魚沼市下一日市855番地"}}, {"geometry": {"type": "Point", "coordinates": [138.8835027, 37.5478735]}, "type": "Feature", "properties": {"station_id": "pationiigata", "name": "パティオにいがた", "pref_id": "niigata", "address": "新潟県見附市今町一丁目3358番地"}}, {"geometry": {"type": "Point", "coordinates": [138.7772, 36.8997193]}, "type": "Feature", "properties": {"station_id": "mitsumata", "name": "みつまた", "pref_id": "niigata", "address": "新潟県南魚沼郡湯沢町大字三俣1000番地"}}, {"geometry": {"type": "Point", "coordinates": [138.9334638, 37.6492628]}, "type": "Feature", "properties": {"station_id": "tsubamesanjo-jibasan-senter", "name": "燕三条地場産センター", "pref_id": "niigata", "address": "新潟県三条市須頃1丁目17番地"}}, {"geometry": {"type": "Point", "coordinates": [137.2381219, 36.4885782]}, "type": "Feature", "properties": {"station_id": "hosoiri", "name": "細入", "pref_id": "toyama", "address": "富山県富山市片掛3-5番地"}}, {"geometry": {"type": "Point", "coordinates": [136.960142, 36.6414846]}, "type": "Feature", "properties": {"station_id": "tonami", "name": "砺波", "pref_id": "toyama", "address": "富山県砺波市宮沢町3-9"}}, {"geometry": {"type": "Point", "coordinates": [136.8712835, 36.3808139]}, "type": "Feature", "properties": {"station_id": "kamitaira", "name": "上平", "pref_id": "toyama", "address": "富山県南砺市西赤尾町字村中72-1"}}, {"geometry": {"type": "Point", "coordinates": [137.0266638, 36.5244067]}, "type": "Feature", "properties": {"station_id": "toga", "name": "利賀", "pref_id": "toyama", "address": "富山県南砺市利賀村高沼下北山43-7"}}, {"geometry": {"type": "Point", "coordinates": [136.977887, 36.5615091]}, "type": "Feature", "properties": {"station_id": "inami", "name": "井波", "pref_id": "toyama", "address": "富山県南砺市北川730番地"}}, {"geometry": {"type": "Point", "coordinates": [136.8618918, 36.5664199]}, "type": "Feature", "properties": {"station_id": "fukumitsu", "name": "福光", "pref_id": "toyama", "address": "富山県南砺市中ノ江16番地"}}, {"geometry": {"type": "Point", "coordinates": [136.9739623, 36.445401]}, "type": "Feature", "properties": {"station_id": "taira", "name": "たいら", "pref_id": "toyama", "address": "富山県南砺市東中江215番地"}}, {"geometry": {"type": "Point", "coordinates": [136.9799003, 36.5743521]}, "type": "Feature", "properties": {"station_id": "shogawa", "name": "庄川", "pref_id": "toyama", "address": "富山県砺波市庄川町示野437番地"}}, {"geometry": {"type": "Point", "coordinates": [137.5415842, 36.8604235]}, "type": "Feature", "properties": {"station_id": "unazuki", "name": "うなづき", "pref_id": "toyama", "address": "富山県黒部市宇奈月町下立686番地"}}, {"geometry": {"type": "Point", "coordinates": [137.0849484, 36.7520142]}, "type": "Feature", "properties": {"station_id": "kamompa%ef%bd%b0kushimminato", "name": "カモンパーク新湊", "pref_id": "toyama", "address": "富山県射水市鏡宮296"}}, {"geometry": {"type": "Point", "coordinates": [137.3444592, 36.7743741]}, "type": "Feature", "properties": {"station_id": "we%ef%bd%b0bupa%ef%bd%b0kunamerikawa", "name": "ウェーブパークなめりかわ", "pref_id": "toyama", "address": "富山県滑川市中川原410"}}, {"geometry": {"type": "Point", "coordinates": [136.9869417, 36.8645636]}, "type": "Feature", "properties": {"station_id": "himi", "name": "氷見", "pref_id": "toyama", "address": "富山県氷見市北大町25-5"}}, {"geometry": {"type": "Point", "coordinates": [136.9693519, 36.7367136]}, "type": "Feature", "properties": {"station_id": "manyonosato-takaoka", "name": "万葉の里 高岡", "pref_id": "toyama", "address": "富山県高岡市蜂ヶ島131番地1"}}, {"geometry": {"type": "Point", "coordinates": [136.8766877, 36.6894706]}, "type": "Feature", "properties": {"station_id": "meruhenoyabe", "name": "メルヘンおやべ", "pref_id": "toyama", "address": "富山県小矢部市桜町1535番地1"}}, {"geometry": {"type": "Point", "coordinates": [137.0005917, 37.4232456]}, "type": "Feature", "properties": {"station_id": "semmaidapokettopa%ef%bd%b0ku", "name": "千枚田ポケットパーク", "pref_id": "ishikawa", "address": "石川県輪島市白米町ハ部99番地5"}}, {"geometry": {"type": "Point", "coordinates": [136.7416573, 36.7862873]}, "type": "Feature", "properties": {"station_id": "takamatsu", "name": "高松", "pref_id": "ishikawa", "address": "石川県かほく市二ツ屋16番地3"}}, {"geometry": {"type": "Point", "coordinates": [137.0465297, 37.0288253]}, "type": "Feature", "properties": {"station_id": "iori", "name": "いおり", "pref_id": "ishikawa", "address": "石川県七尾市庵町笹ヶ谷内3番地1"}}, {"geometry": {"type": "Point", "coordinates": [137.0112551, 37.3313915]}, "type": "Feature", "properties": {"station_id": "sakuratoge", "name": "桜峠", "pref_id": "ishikawa", "address": "石川県鳳珠郡能登町字当目2-24-24"}}, {"geometry": {"type": "Point", "coordinates": [136.630473, 36.436858]}, "type": "Feature", "properties": {"station_id": "shirayamasan", "name": "しらやまさん", "pref_id": "ishikawa", "address": "石川県能美市和佐谷町200番地"}}, {"geometry": {"type": "Point", "coordinates": [136.8502749, 37.1199503]}, "type": "Feature", "properties": {"station_id": "nakajimaromantoge", "name": "なかじまロマン峠", "pref_id": "ishikawa", "address": "石川県七尾市中島町中島二部1-19"}}, {"geometry": {"type": "Point", "coordinates": [136.7094471, 37.2482394]}, "type": "Feature", "properties": {"station_id": "akakami", "name": "赤神", "pref_id": "ishikawa", "address": "石川県輪島市門前町赤神壱110番"}}, {"geometry": {"type": "Point", "coordinates": [136.7260076, 37.1406104]}, "type": "Feature", "properties": {"station_id": "togiumikaido", "name": "とぎ海街道", "pref_id": "ishikawa", "address": "石川県羽咋郡志賀町富来領家町タ2-11"}}, {"geometry": {"type": "Point", "coordinates": [136.9117864, 37.3940479]}, "type": "Feature", "properties": {"station_id": "wajima", "name": "輪島", "pref_id": "ishikawa", "address": "石川県輪島市河井町20部1の131番地"}}, {"geometry": {"type": "Point", "coordinates": [136.780021, 37.0068731]}, "type": "Feature", "properties": {"station_id": "korogakinosatoshika", "name": "ころ柿の里しか", "pref_id": "ishikawa", "address": "石川県羽咋郡志賀町末吉新保向10番地"}}, {"geometry": {"type": "Point", "coordinates": [136.6493869, 36.2881213]}, "type": "Feature", "properties": {"station_id": "sena", "name": "瀬女", "pref_id": "ishikawa", "address": "石川県白山市瀬戸寅163-1"}}, {"geometry": {"type": "Point", "coordinates": [136.5990833, 36.3604418]}, "type": "Feature", "properties": {"station_id": "ikkoikkinosato", "name": "一向一揆の里", "pref_id": "ishikawa", "address": "石川県白山市出合町甲36"}}, {"geometry": {"type": "Point", "coordinates": [136.9293366, 37.2868166]}, "type": "Feature", "properties": {"station_id": "notokuuko", "name": "のと里山空港", "pref_id": "ishikawa", "address": "石川県輪島市三井町洲衛10部11番1"}}, {"geometry": {"type": "Point", "coordinates": [136.7680215, 36.6626452]}, "type": "Feature", "properties": {"station_id": "kurikara-gempeinosato", "name": "倶利伽羅 源平の郷", "pref_id": "ishikawa", "address": "石川県河北郡津幡町字竹橋"}}, {"geometry": {"type": "Point", "coordinates": [136.3675157, 36.2377003]},