{"type":"FeatureCollection","features":[{"type":"Feature","geometry":{"type":"Point","coordinates":[141.8045499,43.2466006]},"properties":{"prefId":"10","stationId":"18786","internalId":"0","name":"三笠","address":"068-2165 北海道三笠市岡山1056-1","tel":"01267-2-5775","hours":"9:00〜18:00(4〜9月) 9:00〜17:00(10〜3月)","uri":"https://www.michi-no-eki.jp/stations/views/18786","mapcode":"180 276 269"}},{"type":"Feature","geometry":{"type":"Point","coordinates":[142.1888941,43.5255178]},"properties":{"prefId":"10","stationId":"18787","internalId":"1","name":"スタープラザ 芦別","address":"075-0014 北海道芦別市北4条東1-1","tel":"0124-23-1437","hours":"9:00〜19:00(5〜10月)9:00〜18:00(11〜4月)","uri":"https://www.michi-no-eki.jp/stations/views/18787","mapcode":"450 668 692"}},{"type":"Feature","geometry":{"type":"Point","coordinates":[142.5727983,43.1697013]},"properties":{"prefId":"10","stationId":"18788","internalId":"2","name":"南ふらの","address":"079-2403 北海道空知郡南富良野町字幾寅687","tel":"0167-52-2100","hours":"9:00〜17:00(6〜9月は19:00まで)","uri":"https://www.michi-no-eki.jp/stations/views/18788","mapcode":"550 324 035"}},{"type":"Feature","geometry":{"type":"Point","coordinates":[144.189739,42.990533]},"properties":{"prefId":"10","stationId":"18789","internalId":"3","name":"しらぬか恋問館","address":"088-0562 北海道白糠郡白糠町恋問3丁目2-1","tel":"01547-5-3317","hours":"9:00〜19:00 テナント10:00〜19:00(ラストオーダー18:30)","uri":"https://www.michi-no-eki.jp/stations/views/18789","mapcode":"630 263 487*38"}},{"type":"Feature","geometry":{"type":"Point","coordinates":[142.3200331,44.5588576]},"properties":{"prefId":"10","stationId":"18790","internalId":"4","name":"びふか","address":"098-2362 北海道中川郡美深町字大手307-1","tel":"01656-2-1000","hours":"9:00〜18:00","uri":"https://www.michi-no-eki.jp/stations/views/18790","mapcode":"651 488 716"}},{"type":"Feature","geometry":{"type":"Point","coordinates":[140.1392891,41.8943424]},"properties":{"prefId":"10","stationId":"18791","internalId":"5","name":"江差","address":"043-0024 北海道檜山郡江差町字尾山町1","tel":"0139-52-1177","hours":"9:00〜17:00(4〜11月) 10:00〜16:00(12〜3月)","uri":"https://www.michi-no-eki.jp/stations/views/18791","mapcode":"482 512 003"}},{"type":"Feature","geometry":{"type":"Point","coordinates":[141.0965891,42.8551768]},"properties":{"prefId":"10","stationId":"18792","internalId":"6","name":"望羊中山","address":"044-0223 北海道虻田郡喜茂別町字川上345","tel":"0136-33-2671","hours":"8:30〜17:30","uri":"https://www.michi-no-eki.jp/stations/views/18792","mapcode":"759 672 331"}},{"type":"Feature","geometry":{"type":"Point","coordinates":[141.7936472,44.7141204]},"properties":{"prefId":"10","stationId":"18793","internalId":"7","name":"えんべつ富士見","address":"098-3534 北海道天塩郡遠別町字富士見46-1","tel":"01632-7-3939","hours":"9:00〜17:00","uri":"https://www.michi-no-eki.jp/stations/views/18793","mapcode":"830 170 350"}},{"type":"Feature","geometry":{"type":"Point","coordinates":[143.2991945,42.5588618]},"properties":{"prefId":"10","stationId":"18794","internalId":"8","name":"忠類","address":"089-1701 北海道中川郡幕別町忠類白銀町384-12","tel":"01558-8-3236","hours":"9:00〜18:00","uri":"https://www.michi-no-eki.jp/stations/views/18794","mapcode":"396 201 670"}},{"type":"Feature","geometry":{"type":"Point","coordinates":[144.4477187,43.4923914]},"properties":{"prefId":"10","stationId":"18796","internalId":"9","name":"摩周温泉","address":"088-3203 北海道川上郡弟子屈町湯の島3-5-5","tel":"015-482-2500","hours":"8:00〜18:00(11〜4月は9:00〜17:00)","uri":"https://www.michi-no-eki.jp/stations/views/18796","mapcode":"462 849 665"}},{"type":"Feature","geometry":{"type":"Point","coordinates":[142.257872,44.729078]},"properties":{"prefId":"10","stationId":"18797","internalId":"10","name":"おといねっぷ","address":"098-2501 北海道中川郡音威子府村字音威子府155","tel":"01656-5-3111","hours":"売店9:30〜17:00 レストラン11:00〜17:00","uri":"https://www.michi-no-eki.jp/stations/views/18797","mapcode":"684 226 192"}},{"type":"Feature","geometry":{"type":"Point","coordinates":[143.5956986,44.1851816]},"properties":{"prefId":"10","stationId":"18798","internalId":"11","name":"かみゆうべつ温泉チューリップの湯","address":"099-6329 北海道紋別郡湧別町中湧別中町3020-1","tel":"01586-4-1126","hours":"10:00〜22:00","uri":"https://www.michi-no-eki.jp/stations/views/18798","mapcode":"404 641 867"}},{"type":"Feature","geometry":{"type":"Point","coordinates":[140.5167801,42.9834347]},"properties":{"prefId":"10","stationId":"18799","internalId":"12","name":"いわない","address":"045-0003 北海道岩内郡岩内町字万代47-4","tel":"0135-63-1155","hours":"9:00〜18:00(4〜10月) 9:00〜17:30(11〜3月)","uri":"https://www.michi-no-eki.jp/stations/views/18799","mapcode":"398 812 613"}},{"type":"Feature","geometry":{"type":"Point","coordinates":[143.3287235,43.9959412]},"properties":{"prefId":"10","stationId":"18800","internalId":"13","name":"まるせっぷ","address":"099-0207 北海道紋別郡遠軽町丸瀬布元町42-2","tel":"0158-47-2010","hours":"9:00〜17:00","uri":"https://www.michi-no-eki.jp/stations/views/18800","mapcode":"617 279 177"}},{"type":"Feature","geometry":{"type":"Point","coordinates":[144.8440184,43.0576697]},"properties":{"prefId":"10","stationId":"18801","internalId":"14","name":"厚岸グルメパーク","address":"088-1119 北海道厚岸郡厚岸町住の江町2-2","tel":"0153-52-4139","hours":"9:00〜17:00(4〜10月)  10:00〜18:00(11〜3月)","uri":"https://www.michi-no-eki.jp/stations/views/18801","mapcode":"637 191 532"}},{"type":"Feature","geometry":{"type":"Point","coordinates":[141.875302,43.7510483]},"properties":{"prefId":"10","stationId":"18802","internalId":"15","name":"サンフラワー北竜","address":"078-2511 北海道雨竜郡北竜町字板谷163-2","tel":"0164-34-3321","hours":"8:00〜22:00","uri":"https://www.michi-no-eki.jp/stations/views/18802","mapcode":"179 870 764"}},{"type":"Feature","geometry":{"type":"Point","coordinates":[142.6342261,42.2208744]},"properties":{"prefId":"10","stationId":"18803","internalId":"16","name":"みついし","address":"059-3233 北海道日高郡新ひだか町三石鳧舞161-2","tel":"0146-34-2333","hours":"8:45〜17:30","uri":"https://www.michi-no-eki.jp/stations/views/18803","mapcode":"564 481 166"}},{"type":"Feature","geometry":{"type":"Point","coordinates":[140.2161538,41.9165731]},"properties":{"prefId":"10","stationId":"18804","internalId":"17","name":"あっさぶ","address":"043-1112 北海道檜山郡厚沢部町緑町72-1","tel":"0139-64-3738","hours":"8:30〜18:00(5〜10月) 9:00〜17:00(11〜4月)","uri":"https://www.michi-no-eki.jp/stations/views/18804","mapcode":"482 581 579"}},{"type":"Feature","geometry":{"type":"Point","coordinates":[140.0134173,42.6867269]},"properties":{"prefId":"10","stationId":"18805","internalId":"18","name":"よってけ!島牧","address":"048-0631 北海道島牧郡島牧村字千走11-1","tel":"0136-74-5183","hours":"9:00〜18:00(7〜8月) 9:00〜17:00(9〜6月)","uri":"https://www.michi-no-eki.jp/stations/views/18805","mapcode":"797 362 061"}},{"type":"Feature","geometry":{"type":"Point","coordinates":[139.876681,42.212366]},"properties":{"prefId":"10","stationId":"18806","internalId":"19","name":"てっくいランド大成","address":"043-0514 北海道久遠郡せたな町大成区平浜378","tel":"01398-4-6561","hours":"9:00〜17:00, 9:00〜16:00(11〜3月), 9:00〜19:00(7月中旬〜8月中旬)","uri":"https://www.michi-no-eki.jp/stations/views/18806","mapcode":"718 750 138"}},{"type":"Feature","geometry":{"type":"Point","coordinates":[143.3750043,44.3283409]},"properties":{"prefId":"10","stationId":"18807","internalId":"20","name":"オホーツク紋別","address":"094-0023 北海道紋別市元紋別11-6","tel":"0158-23-5400","hours":"9:00〜17:00","uri":"https://www.michi-no-eki.jp/stations/views/18807","mapcode":"801 585 074"}},{"type":"Feature","geometry":{"type":"Point","coordinates":[140.568716,42.098901]},"properties":{"prefId":"10","stationId":"18808","internalId":"21","name":"YOU・遊・もり","address":"049-2311 北海道茅部郡森町字上台町326-18","tel":"01374-2-4886","hours":"9:00〜17:30(3/21〜10/20) 9:00〜17:00(10/21〜3/20)","uri":"https://www.michi-no-eki.jp/stations/views/18808","mapcode":"490 638 470"}},{"type":"Feature","geometry":{"type":"Point","coordinates":[143.50053189187454,43.75352014534097]},"properties":{"prefId":"10","stationId":"18809","internalId":"22","name":"おんねゆ温泉","address":"091-0153 北海道北見市留辺蘂町松山1-4","tel":"0157-45-3373","hours":"9:00〜17:30","uri":"https://www.michi-no-eki.jp/stations/views/18809","mapcode":"402 600 106*24"}},{"type":"Feature","geometry":{"type":"Point","coordinates":[140.1062194,42.0113971]},"properties":{"prefId":"10","stationId":"18810","internalId":"23","name":"ルート229元和台","address":"043-0114 北海道爾志郡乙部町字元和169","tel":"0139-62-3009","hours":"8:30〜18:00(4〜10月) 9:00〜16:00(11〜3月)","uri":"https://www.michi-no-eki.jp/stations/views/18810","mapcode":"718 058 005"}},{"type":"Feature","geometry":{"type":"Point","coordinates":[141.8888016,43.4332722]},"properties":{"prefId":"10","stationId":"18811","internalId":"24","name":"ハウスヤルビ奈井江","address":"079-0312 北海道空知郡奈井江町字奈井江28-1","tel":"0125-65-4601","hours":"9:00〜18:00(4〜9月) 9:00〜17:00(10〜3月)","uri":"https://www.michi-no-eki.jp/stations/views/18811","mapcode":"360 047 603"}},{"type":"Feature","geometry":{"type":"Point","coordinates":[141.654956,44.137022]},"properties":{"prefId":"10","stationId":"18812","internalId":"25","name":"おびら鰊番屋","address":"078-3454 北海道留萌郡小平町字鬼鹿広富","tel":"0164-56-1828","hours":"8:00〜17:00","uri":"https://www.michi-no-eki.jp/stations/views/18812","mapcode":"959 184 090"}},{"type":"Feature","geometry":{"type":"Point","coordinates":[142.631813,44.8783757]},"properties":{"prefId":"10","stationId":"18813","internalId":"26","name":"マリーンアイランド岡島","address":"098-5802 北海道枝幸郡枝幸町字岡島1978-13","tel":"0163-62-2860","hours":"9:00〜17:00","uri":"https://www.michi-no-eki.jp/stations/views/18813","mapcode":"957 166 068"}},{"type":"Feature","geometry":{"type":"Point","coordinates":[143.116955,44.469498]},"properties":{"prefId":"10","stationId":"18814","internalId":"27","name":"おこっぺ","address":"098-1614 北海道紋別郡興部町字興部(幸町)","tel":"0158-82-2385","hours":"5月〜10月 9:00〜18:00、11月〜4月 9:00〜17:00","uri":"https://www.michi-no-eki.jp/stations/views/18814","mapcode":"587 509 044"}},{"type":"Feature","geometry":{"type":"Point","coordinates":[144.1469574,43.1440197]},"properties":{"prefId":"10","stationId":"18815","internalId":"28","name":"阿寒丹頂の里","address":"085-0245 北海道釧路市阿寒町上阿寒23-36-1","tel":"0154-66-2969","hours":"5月〜9月 9:00〜18:00 10月〜4月 9:00〜17:00 観光案内所10:00〜16:00","uri":"https://www.michi-no-eki.jp/stations/views/18815","mapcode":"556 183 843"}},{"type":"Feature","geometry":{"type":"Point","coordinates":[143.181694,42.974917]},"properties":{"prefId":"10","stationId":"18816","internalId":"29","name":"おとふけ","address":"080-0346 北海道河東郡音更町なつぞら2","tel":"0155-65-0822","hours":"9:00〜19:00","uri":"https://www.michi-no-eki.jp/stations/views/18816","mapcode":"124 802 666"}},{"type":"Feature","geometry":{"type":"Point","coordinates":[142.2134021,44.8774622]},"properties":{"prefId":"10","stationId":"18817","internalId":"30","name":"ピンネシリ","address":"098-5113 北海道枝幸郡中頓別町字敏音知72-7","tel":"01634-7-8510","hours":"9:00〜17:00","uri":"https://www.michi-no-eki.jp/stations/views/18817","mapcode":"684 761 002"}},{"type":"Feature","geometry":{"type":"Point","coordinates":[140.0949663,41.8084965]},"properties":{"prefId":"10","stationId":"18819","internalId":"31","name":"上ノ国もんじゅ","address":"049-0602 北海道檜山郡上ノ国町字原歌3","tel":"0139-55-3955","hours":"・文珠館 9:00〜17:00 ・特産品販売所 9:00〜17:00(4月〜10月)、10:00〜17:00(11月〜3月)※月曜定休(11月〜3月)月曜が祝日の場合は翌平日 ・レストラン 11:00〜15:00(LO14:30)※月曜定休(11月〜3月)月曜が祝日の場合は翌平日","uri":"https://www.michi-no-eki.jp/stations/views/18819","mapcode":"807 791 624"}},{"type":"Feature","geometry":{"type":"Point","coordinates":[140.3855694,43.1653589]},"properties":{"prefId":"10","stationId":"18820","internalId":"32","name":"オスコイ!かもえない","address":"045-0302 北海道古宇郡神恵内村大字赤石村字大森292-1","tel":"0135-76-5800","hours":"9:00〜17:00","uri":"https://www.michi-no-eki.jp/stations/views/18820","mapcode":"775 271 501"}},{"type":"Feature","geometry":{"type":"Point","coordinates":[143.126839,42.69214]},"properties":{"prefId":"10","stationId":"18821","internalId":"33","name":"なかさつない","address":"089-1330 北海道河西郡中札内村大通南7-14","tel":"0155-67-2811","hours":"9:00〜18:00(4〜10月) 9:00〜17:00(11〜3月)営業時間、定休日は店舗により異なります","uri":"https://www.michi-no-eki.jp/stations/views/18821","mapcode":"396 660 680"}},{"type":"Feature","geometry":{"type":"Point","coordinates":[141.716616,42.94998]},"properties":{"prefId":"10","stationId":"18822","internalId":"34","name":"マオイの丘公園","address":"069-1460 北海道夕張郡長沼町東10線南7番地","tel":"0123-84-2120","hours":"9:00〜18:00(4月〜11月)、9:00〜17:00(11月〜3月)、※「ピッツェリアトニーノ北海道長沼」は営業時間が異なります。詳しくは、公式ホームページよりご確認下さい。","uri":"https://www.michi-no-eki.jp/stations/views/18822","mapcode":"230 416 613"}},{"type":"Feature","geometry":{"type":"Point","coordinates":[142.4420074,42.8767898]},"properties":{"prefId":"10","stationId":"18823","internalId":"35","name":"樹海ロード日高","address":"055-2301 北海道沙流郡日高町本町東1-298-1","tel":"01457-6-2001","hours":"9:00〜18:00","uri":"https://www.michi-no-eki.jp/stations/views/18823","mapcode":"694 128 794"}},{"type":"Feature","geometry":{"type":"Point","coordinates":[140.8990485,42.559133]},"properties":{"prefId":"10","stationId":"18824","internalId":"36","name":"そうべつ情報館i(アイ)","address":"052-0101 北海道有珠郡壮瞥町字滝之町384-1","tel":"0142-66-4200","hours":"9:00〜17:30 (11/16〜3/31は17:00迄)","uri":"https://www.michi-no-eki.jp/stations/views/18824","mapcode":"321 498 699"}},{"type":"Feature","geometry":{"type":"Point","coordinates":[140.7023947,42.7994921]},"properties":{"prefId":"10","stationId":"18825","internalId":"37","name":"ニセコビュープラザ","address":"048-1544 北海道虻田郡ニセコ町字元町77-10","tel":"0136-43-2051","hours":"情報プラザ棟:9:00-18:00農産物直売コーナー:9:00-17:00(4月下旬〜10月:8:30-17:00)テイクアウトコーナー:10:00-16:00(4月下旬〜10月:9:30-16:30)","uri":"https://www.michi-no-eki.jp/stations/views/18825","mapcode":"398 174 561"}},{"type":"Feature","geometry":{"type":"Point","coordinates":[140.3358339,41.6012589]},"properties":{"prefId":"10","stationId":"18826","internalId":"38","name":"しりうち","address":"049-1221 北海道上磯郡知内町字湯の里48-13","tel":"01392-6-2270","hours":"8:00〜18:00","uri":"https://www.michi-no-eki.jp/stations/views/18826","mapcode":"584 340 741"}},{"type":"Feature","geometry":{"type":"Point","coordinates":[140.255731,41.479134]},"properties":{"prefId":"10","stationId":"18827","internalId":"39","name":"横綱の里ふくしま","address":"049-1312 北海道松前郡福島町字福島143-1","tel":"0139-47-4072","hours":"9:00〜17:00","uri":"https://www.michi-no-eki.jp/stations/views/18827","mapcode":"676 526 123"}},{"type":"Feature","geometry":{"type":"Point","coordinates":[142.3156908,42.3598362]},"properties":{"prefId":"10","stationId":"18828","internalId":"40","name":"サラブレッドロード新冠","address":"059-2402 北海道新冠郡新冠町字中央町1-20","tel":"0146-45-7070","hours":"10:00〜18:00","uri":"https://www.michi-no-eki.jp/stations/views/18828","mapcode":"551 068 789"}},{"type":"Feature","geometry":{"type":"Point","coordinates":[143.23924295,43.14434238]},"properties":{"prefId":"10","stationId":"18829","internalId":"41","name":"ピア21しほろ","address":"080-1200 北海道河東郡士幌町字士幌西2線147","tel":"01564-5-3940","hours":"9:00〜18:00(4月〜11月) 9:00〜17:00(12月〜3月)","uri":"https://www.michi-no-eki.jp/stations/views/18829","mapcode":"424 524 005*35"}},{"type":"Feature","geometry":{"type":"Point","coordinates":[143.090986,44.19689]},"properties":{"prefId":"10","stationId":"18830","internalId":"42","name":"香りの里たきのうえ","address":"099-5602 北海道紋別郡滝上町旭町","tel":"0158-29-3300","hours":"8:30 〜17:00","uri":"https://www.michi-no-eki.jp/stations/views/18830","mapcode":"570 701 311"}},{"type":"Feature","geometry":{"type":"Point","coordinates":[141.8940224,43.6625089]},"properties":{"prefId":"10","stationId":"18831","internalId":"43","name":"田園の里うりゅう","address":"078-2600 北海道雨竜郡雨竜町字満寿28-3","tel":"0125-79-2100","hours":"9:00〜18:00(5〜10月) 10:00〜16:00(11〜4月)","uri":"https://www.michi-no-eki.jp/stations/views/18831","mapcode":"179 572 202"}},{"type":"Feature","geometry":{"type":"Point","coordinates":[140.943745,42.342012]},"properties":{"prefId":"10","stationId":"18832","internalId":"44","name":"みたら室蘭","address":"051-0036 北海道室蘭市祝津町4-16-15","tel":"0143-26-2030","hours":"9:30〜19:00 (11〜3月は17:00まで、毎週木曜・祝日の場合は金曜定休日) ※館内各店舗の営業時間は店舗により異なる","uri":"https://www.michi-no-eki.jp/stations/views/18832","mapcode":"159 308 650"}},{"type":"Feature","geometry":{"type":"Point","coordinates":[142.4895,43.844134]},"properties":{"prefId":"10","stationId":"18833","internalId":"45","name":"とうま","address":"078-1332 北海道上川郡当麻町字園別2区","tel":"0166-58-8639","hours":"9:00〜18:00","uri":"https://www.michi-no-eki.jp/stations/views/18833","mapcode":"79 659 005"}},{"type":"Feature","geometry":{"type":"Point","coordinates":[140.7887813,43.1885383]},"properties":{"prefId":"10","stationId":"18834","internalId":"46","name":"スペース・アップルよいち","address":"046-0003 北海道余市郡余市町黒川町6-4","tel":"0135-22-1515","hours":"4月中旬〜11月上旬 9:00〜18:00 11月上旬〜4月中旬 9:00〜17:00","uri":"https://www.michi-no-eki.jp/stations/views/18834","mapcode":"164 665 300"}},{"type":"Feature","geometry":{"type":"Point","coordinates":[141.7065768,44.3673322]},"properties":{"prefId":"10","stationId":"18835","internalId":"47","name":"ほっと♡はぼろ","address":"078-4113 北海道苫前郡羽幌町北3条1-29","tel":"0164-62-3800","hours":"7:00〜22:00","uri":"https://www.michi-no-eki.jp/stations/views/18835","mapcode":"508 700 697"}},{"type":"Feature","geometry":{"type":"Point","coordinates":[143.8241425,44.0999179]},"properties":{"prefId":"10","stationId":"18836","internalId":"48","name":"サロマ湖","address":"093-0421 北海道常呂郡佐呂間町字浪速121-3","tel":"01587-5-2828","hours":"9:00〜18:00(11〜3月は9:00〜17:00)","uri":"https://www.michi-no-eki.jp/stations/views/18836","mapcode":"955 054 611"}},{"type":"Feature","geometry":{"type":"Point","coordinates":[143.7192064,44.1308204]},"properties":{"prefId":"10","stationId":"18837","internalId":"49","name":"愛ランド湧別","address":"093-0652 北海道紋別郡湧別町志撫子6-2","tel":"01586-8-2455","hours":"9:00〜17:30","uri":"https://www.michi-no-eki.jp/stations/views/18837","mapcode":"404 476 382"}},{"type":"Feature","geometry":{"type":"Point","coordinates":[142.9597327,44.5830367]},"properties":{"prefId":"10","stationId":"18838","internalId":"50","name":"おうむ","address":"098-1702 北海道紋別郡雄武町字雄武1885-14","tel":"0158-84-2403","hours":"8:00〜21:00 (5〜10月) 8:00〜20:00 (11〜4月)","uri":"https://www.michi-no-eki.jp/stations/views/18838","mapcode":"587 880 619"}},{"type":"Feature","geometry":{"type":"Point","coordinates":[142.177348,45.329219]},"properties":{"prefId":"10","stationId":"18839","internalId":"51","name":"さるふつ公園","address":"098-6222 北海道宗谷郡猿払村字浜鬼志別241-7","tel":"01635-2-2311","hours":"9:00〜17:00","uri":"https://www.michi-no-eki.jp/stations/views/18839","mapcode":"680 591 232"}},{"type":"Feature","geometry":{"type":"Point","coordinates":[142.139546,44.114633]},"properties":{"prefId":"10","stationId":"18840","internalId":"52","name":"森と湖の里ほろかない","address":"074-0425 北海道雨竜郡幌加内町字政和第1","tel":"0165-37-2070","hours":"10:00〜21:00 冬期10:30〜21:00","uri":"https://www.michi-no-eki.jp/stations/views/18840","mapcode":"701 707 425"}},{"type":"Feature","geometry":{"type":"Point","coordinates":[142.00583873202555,43.50329330668253]},"properties":{"prefId":"10","stationId":"18841","internalId":"53","name":"うたしないチロルの湯","address":"073-0406 北海道歌志内市字中村72-1","tel":"0125-42-5566","hours":"9:00〜17:00","uri":"https://www.michi-no-eki.jp/stations/views/18841","mapcode":"179 016 094*73"}},{"type":"Feature","geometry":{"type":"Point","coordinates":[140.3800337,42.6727094]},"properties":{"prefId":"10","stationId":"18842","internalId":"54","name":"くろまつない","address":"048-0134 北海道寿都郡黒松内町字白井川8-10","tel":"0136-71-2222","hours":"9:00〜18:00(4〜10月) 9:00〜17:00(11〜3月)","uri":"https://www.michi-no-eki.jp/stations/views/18842","mapcode":"521 616 330"}},{"type":"Feature","geometry":{"type":"Point","coordinates":[141.941478,43.6234396]},"properties":{"prefId":"10","stationId":"18843","internalId":"55","name":"たきかわ","address":"079-0463 北海道滝川市江部乙町東11-13-3","tel":"0125-26-5500","hours":"9:00〜18:00(4〜10月) 10:00〜17:00(11〜3月)","uri":"https://www.michi-no-eki.jp/stations/views/18843","mapcode":"179 428 432"}},{"type":"Feature","geometry":{"type":"Point","coordinates":[145.4383704,43.2616741]},"properties":{"prefId":"10","stationId":"18844","internalId":"56","name":"スワン44ねむろ","address":"086-0073 北海道根室市酪陽1","tel":"0153-25-3055","hours":"9:00〜17:00(4〜6,10月) 9:00〜18:00(7〜9月) 9:00〜16:00(11〜3月)","uri":"https://www.michi-no-eki.jp/stations/views/18844","mapcode":"734 353 062"}},{"type":"Feature","geometry":{"type":"Point","coordinates":[141.8357178,43.4516011]},"properties":{"prefId":"10","stationId":"18845","internalId":"57","name":"つるぬま","address":"061-0600 北海道樺戸郡浦臼町字キナウスナイ186-214","tel":"0125-68-2626","hours":"9:00〜18:00(4〜9月) 10:00〜17:00(10〜3月)","uri":"https://www.michi-no-eki.jp/stations/views/18845","mapcode":"360 100 802"}},{"type":"Feature","geometry":{"type":"Point","coordinates":[141.1016303,41.7794873]},"properties":{"prefId":"10","stationId":"18846","internalId":"58","name":"なとわ・えさん","address":"041-0525 北海道函館市日ノ浜町31-2","tel":"0138-85-4010","hours":"9:00〜18:00(4〜9月) 9:00〜17:00(10〜3月)","uri":"https://www.michi-no-eki.jp/stations/views/18846","mapcode":"582 417 198"}},{"type":"Feature","geometry":{"type":"Point","coordinates":[140.6673361,42.1253109]},"properties":{"prefId":"10","stationId":"18847","internalId":"59","name":"つど〜る・プラザ・さわら","address":"049-2222 北海道茅部郡森町砂原2-358-1","tel":"01374-8-2828","hours":"9:00〜17:00","uri":"https://www.michi-no-eki.jp/stations/views/18847","mapcode":"490 740 674"}},{"type":"Feature","geometry":{"type":"Point","coordinates":[145.1920893,44.0174537]},"properties":{"prefId":"10","stationId":"18848","internalId":"60","name":"知床・らうす","address":"086-1833 北海道目梨郡羅臼町本町361-1","tel":"0153-87-5151","hours":"9:00〜17:00(5〜10月) 10:00〜16:00(11〜4月)","uri":"https://www.michi-no-eki.jp/stations/views/18848","mapcode":"757 353 676"}},{"type":"Feature","geometry":{"type":"Point","coordinates":[143.2718483,42.6333115]},"properties":{"prefId":"10","stationId":"18849","internalId":"61","name":"さらべつ","address":"089-1573 北海道河西郡更別村字弘和464-1","tel":"0155-53-3663","hours":"9:00〜18:00","uri":"https://www.michi-no-eki.jp/stations/views/18849","mapcode":"396 468 572"}},{"type":"Feature","geometry":{"type":"Point","coordinates":[140.87549148029083,42.47050228223599]},"properties":{"prefId":"10","stationId":"18850","internalId":"62","name":"だて歴史の杜","address":"052-0012 北海道伊達市松ヶ枝町34-1","tel":"0142-25-5567","hours":"9:00〜18:00","uri":"https://www.michi-no-eki.jp/stations/views/18850","mapcode":"159 780 134*41"}},{"type":"Feature","geometry":{"type":"Point","coordinates":[142.3484462,43.7600001]},"properties":{"prefId":"10","stationId":"18851","internalId":"63","name":"あさひかわ","address":"070-8004 北海道旭川市神楽4条6-1-12","tel":"0166-61-2283","hours":"9:00〜21:00 (売店は19:00(夏季)まで・フードコートは店舗により異なります)","uri":"https://www.michi-no-eki.jp/stations/views/18851","mapcode":"79 312 788"}},{"type":"Feature","geometry":{"type":"Point","coordinates":[142.39758,42.978859]},"properties":{"prefId":"10","stationId":"18852","internalId":"64","name":"自然体感しむかっぷ","address":"079-2201 北海道勇払郡占冠村字中央","tel":"0167-39-8010","hours":"9:00〜18:00","uri":"https://www.michi-no-eki.jp/stations/views/18852","mapcode":"694 513 094"}},{"type":"Feature","geometry":{"type":"Point","coordinates":[142.8680679,44.3359883]},"properties":{"prefId":"10","stationId":"18853","internalId":"65","name":"にしおこっぺ花夢","address":"098-1421 北海道紋別郡西興部村字上興部37","tel":"0158-87-2333","hours":"9:00〜17:00","uri":"https://www.michi-no-eki.jp/stations/views/18853","mapcode":"1009 014 019"}},{"type":"Feature","geometry":{"type":"Point","coordinates":[143.742367,43.467863]},"properties":{"prefId":"10","stationId":"18854","internalId":"66","name":"オーロラタウン93りくべつ","address":"089-4315 北海道足寄郡陸別町大通","tel":"0156-27-2012","hours":"9:00〜17:00","uri":"https://www.michi-no-eki.jp/stations/views/18854","mapcode":"596 464 737"}},{"type":"Feature","geometry":{"type":"Point","coordinates":[144.453268,43.9339211]},"properties":{"prefId":"10","stationId":"18855","internalId":"67","name":"はなやか(葉菜野花)小清水","address":"099-3452 北海道斜里郡小清水町字浜小清水474-7","tel":"0152-67-7752","hours":"9:00〜18:00  レストランは11:00〜15:00","uri":"https://www.michi-no-eki.jp/stations/views/18855","mapcode":"958 054 715"}},{"type":"Feature","geometry":{"type":"Point","coordinates":[142.070593,43.6994831]},"properties":{"prefId":"10","stationId":"18856","internalId":"68","name":"ライスランドふかがわ","address":"074-1271 北海道深川市音江町字広里59-7","tel":"0164-26-3636","hours":"4月・5月〜10月:9:00〜18:00、6月〜9月:9:00〜19:00、11月〜3月:9:00〜17:00","uri":"https://www.michi-no-eki.jp/stations/views/18856","mapcode":"179 713 597"}},{"type":"Feature","geometry":{"type":"Point","coordinates":[142.0673479,44.8016913]},"properties":{"prefId":"10","stationId":"18857","internalId":"69","name":"なかがわ","address":"098-2805 北海道中川郡中川町字誉498-1","tel":"01656-7-2683","hours":"9:00〜17:00","uri":"https://www.michi-no-eki.jp/stations/views/18857","mapcode":"640 473 826"}},{"type":"Feature","geometry":{"type":"Point","coordinates":[140.8845626,42.7399293]},"properties":{"prefId":"10","stationId":"18858","internalId":"70","name":"230ルスツ","address":"048-1731 北海道虻田郡留寿都村字留寿都127","tel":"0136-47-2068","hours":"9:00〜18:00(4月下旬〜10月) 9:00〜17:00(11〜4月下旬)","uri":"https://www.michi-no-eki.jp/stations/views/18858","mapcode":"385 256 437"}},{"type":"Feature","geometry":{"type":"Point","coordinates":[141.7477551,44.8845723]},"properties":{"prefId":"10","stationId":"18859","internalId":"71","name":"てしお","address":"098-3305 北海道天塩郡天塩町新開通4-7227-2","tel":"01632-9-2155","hours":"4月〜10月  9:00〜19:00                      11月〜3月 9:00〜17:00","uri":"https://www.michi-no-eki.jp/stations/views/18859","mapcode":"530 150 785"}},{"type":"Feature","geometry":{"type":"Point","coordinates":[143.273259,42.489824]},"properties":{"prefId":"10","stationId":"18860","internalId":"72","name":"コスモール大樹","address":"089-2152 北海道広尾郡大樹町西本通98","tel":"01558-6-5220","hours":"特産品コーナー 9:00〜17:30 (十勝バス大樹案内所【乗車券販売など】)休館 年末年始(12月31日〜1月3日)             ショッピングセンター 9:00〜20:00 (衣料品すずき、100円ショップ、写真店、オリーブ薬局、 コープさっぽろ、ヘアークラブMock、クリーニング、 理療整体院、ラーメンハウスMAMO)休館 1月1日(各テナント臨時休業あり)","uri":"https://www.michi-no-eki.jp/stations/views/18860","mapcode":"454 858 397"}},{"type":"Feature","geometry":{"type":"Point","coordinates":[144.2478543319179,43.648286095455596]},"properties":{"prefId":"10","stationId":"18861","internalId":"73","name":"ぐるっとパノラマ美幌峠","address":"092-0022 北海道網走郡美幌町字古梅","tel":"0152-77-6001","hours":"4月〜10月 9:00〜18:00  11月〜3月 9:00〜17:00","uri":"https://www.michi-no-eki.jp/stations/views/18861","mapcode":"638 225 426*43"}},{"type":"Feature","geometry":{"type":"Point","coordinates":[140.4789853,42.7620988]},"properties":{"prefId":"10","stationId":"18862","internalId":"74","name":"らんこし・ふるさとの丘","address":"048-1251 北海道磯谷郡蘭越町字相生969","tel":"0136-55-3251","hours":"9:00〜17:00","uri":"https://www.michi-no-eki.jp/stations/views/18862","mapcode":"730 057 146"}},{"type":"Feature","geometry":{"type":"Point","coordinates":[140.722382,42.577551]},"properties":{"prefId":"10","stationId":"18863","internalId":"75","name":"とようら","address":"049-5412 北海道虻田郡豊浦町字旭町65-8","tel":"0142-83-1010","hours":"直売所9:00〜17:00          テイクアウトコーナー10:00〜16:00","uri":"https://www.michi-no-eki.jp/stations/views/18863","mapcode":"662 267 873"}},{"type":"Feature","geometry":{"type":"Point","coordinates":[144.1884881,43.9173357]},"properties":{"prefId":"10","stationId":"18864","internalId":"76","name":"メルヘンの丘めまんべつ","address":"099-2356 北海道網走郡大空町女満別昭和96","tel":"0152-75-6160","hours":"8:45〜17:30","uri":"https://www.michi-no-eki.jp/stations/views/18864","mapcode":"305 278 692"}},{"type":"Feature","geometry":{"type":"Point","coordinates":[141.9254643,42.5739733]},"properties":{"prefId":"10","stationId":"18865","internalId":"77","name":"むかわ四季の館","address":"054-0042 北海道勇払郡むかわ町美幸3-3-1","tel":"0145-42-4171","hours":"6:00〜22:00","uri":"https://www.michi-no-eki.jp/stations/views/18865","mapcode":"455 261 494"}},{"type":"Feature","geometry":{"type":"Point","coordinates":[143.980525,43.545622]},"properties":{"prefId":"10","stationId":"18866","internalId":"78","name":"あいおい","address":"092-0361 北海道網走郡津別町字相生","tel":"0152-75-9101","hours":"9:00〜17:00【火曜日定休日(トイレは24時間開放)】","uri":"https://www.michi-no-eki.jp/stations/views/18866","mapcode":"866 463 123"}},{"type":"Feature","geometry":{"type":"Point","coordinates":[142.98857,43.098188]},"properties":{"prefId":"10","stationId":"18867","internalId":"79","name":"しかおい","address":"081-0222 北海道河東郡鹿追町東町3-2","tel":"0156-66-1125","hours":"9:00〜17:00(3〜6月、10〜11月) 10:00〜16:00(12〜2月) 9:00〜18:00(7〜9月)","uri":"https://www.michi-no-eki.jp/stations/views/18867","mapcode":"343 646 393"}},{"type":"Feature","geometry":{"type":"Point","coordinates":[143.076278,43.870061]},"properties":{"prefId":"10","stationId":"18868","internalId":"80","name":"しらたき","address":"099-0126 北海道紋別郡遠軽町奥白滝","tel":"0158-48-2175","hours":"9:00〜18:00","uri":"https://www.michi-no-eki.jp/stations/views/18868","mapcode":"787 429 108"}},{"type":"Feature","geometry":{"type":"Point","coordinates":[143.546455,43.244332]},"properties":{"prefId":"10","stationId":"18869","internalId":"81","name":"あしょろ銀河ホール21","address":"089-3701 北海道足寄郡足寄町北1条1丁目","tel":"0156-25-6131","hours":"9:00〜17:00","uri":"https://www.michi-no-eki.jp/stations/views/18869","mapcode":"481 561 871"}},{"type":"Feature","geometry":{"type":"Point","coordinates":[141.65933,42.833788]},"properties":{"prefId":"10","stationId":"18870","internalId":"82","name":"サーモンパーク千歳","address":"066-0028 北海道千歳市花園2-4-2","tel":"0123-29-3972","hours":"9:00〜17:00(一部店舗は16:00まで)","uri":"https://www.michi-no-eki.jp/stations/views/18870","mapcode":"113 889 645"}},{"type":"Feature","geometry":{"type":"Point","coordinates":[142.5088143,43.6973051]},"properties":{"prefId":"10","stationId":"18871","internalId":"83","name":"ひがしかわ「道草館」","address":"071-1423 北海道上川郡東川町東町1丁目1番15号","tel":"0166-68-4777","hours":"9:00〜19:00","uri":"https://www.michi-no-eki.jp/stations/views/18871","mapcode":"389 406 315"}},{"type":"Feature","geometry":{"type":"Point","coordinates":[141.5856753,42.8972354]},"properties":{"prefId":"10","stationId":"18872","internalId":"84","name":"花ロードえにわ","address":"061-1375 北海道恵庭市南島松817-18","tel":"0123-37-8787","hours":"9:00〜18:00(施設・時期により異なる)<休:12/31〜1/2>","uri":"https://www.michi-no-eki.jp/stations/views/18872","mapcode":"230 220 351"}},{"type":"Feature","geometry":{"type":"Point","coordinates":[140.370027,42.8801825]},"properties":{"prefId":"10","stationId":"18873","internalId":"85","name":"シェルプラザ・港","address":"048-1341 北海道磯谷郡蘭越町港町1402-2","tel":"0136-56-2700","hours":"9:00〜17:00","uri":"https://www.michi-no-eki.jp/stations/views/18873","mapcode":"730 464 294"}},{"type":"Feature","geometry":{"type":"Point","coordinates":[140.8077046,42.7623215]},"properties":{"prefId":"10","stationId":"18874","internalId":"86","name":"真狩フラワーセンター","address":"048-1611 北海道虻田郡真狩村字光8-3","tel":"0136-48-2007","hours":"9:00〜17:30(4月下旬〜10/31) 9:30〜16:30(11/1〜4月下旬)","uri":"https://www.michi-no-eki.jp/stations/views/18874","mapcode":"385 337 130"}},{"type":"Feature","geometry":{"type":"Point","coordinates":[141.9659629,43.7648305]},"properties":{"prefId":"10","stationId":"18875","internalId":"87","name":"鐘のなるまち・ちっぷべつ","address":"078-2100 北海道雨竜郡秩父別町2085","tel":"0164-33-3902","hours":"9:00〜17:00(4〜10月) 9:00〜16:00(11〜3月)","uri":"https://www.michi-no-eki.jp/stations/views/18875","mapcode":"495 041 431"}},{"type":"Feature","geometry":{"type":"Point","coordinates":[140.7787362,42.5289975]},"properties":{"prefId":"10","stationId":"18876","internalId":"88","name":"あぷた","address":"049-5603 北海道虻田郡洞爺湖町入江84-2","tel":"0142-76-5501","hours":"9::00〜18:00(冬期17:00)","uri":"https://www.michi-no-eki.jp/stations/views/18876","mapcode":"321 393 146"}},{"type":"Feature","geometry":{"type":"Point","coordinates":[143.0250228,43.1697466]},"properties":{"prefId":"10","stationId":"18877","internalId":"89","name":"うりまく","address":"081-0341 北海道河東郡鹿追町瓜幕西3-1外","tel":"0156-67-2626","hours":"9:00〜17:00","uri":"https://www.michi-no-eki.jp/stations/views/18877","mapcode":"702 018 043"}},{"type":"Feature","geometry":{"type":"Point","coordinates":[142.3909798,44.0938311]},"properties":{"prefId":"10","stationId":"18878","internalId":"90","name":"絵本の里けんぶち","address":"098-0341 北海道上川郡剣淵町東町2420","tel":"0165-34-3811","hours":"9:00〜17:00(5〜10月中旬) 9:00〜16:00(10月中旬〜4月)","uri":"https://www.michi-no-eki.jp/stations/views/18878","mapcode":"470 617 851"}},{"type":"Feature","geometry":{"type":"Point","coordinates":[141.6564717,44.3133031]},"properties":{"prefId":"10","stationId":"18879","internalId":"91","name":"風Wとままえ","address":"078-3701 北海道苫前郡苫前町字苫前119-1","tel":"0164-64-2810","hours":"7:00〜21:00","uri":"https://www.michi-no-eki.jp/stations/views/18879","mapcode":"508 514 246"}},{"type":"Feature","geometry":{"type":"Point","coordinates":[143.367911,43.138881]},"properties":{"prefId":"10","stationId":"18880","internalId":"92","name":"しほろ温泉","address":"080-1285 北海道河東郡士幌町字下居辺西2-134","tel":"01564-5-3630","hours":"10:00〜21:00","uri":"https://www.michi-no-eki.jp/stations/views/18880","mapcode":"424 509 317"}},{"type":"Feature","geometry":{"type":"Point","coordinates":[140.8709024,42.8589072]},"properties":{"prefId":"10","stationId":"18881","internalId":"93","name":"名水の郷きょうごく","address":"044-0131 北海道虻田郡京極町字川西45-1","tel":"0136-42-2292","hours":"売店 9:00〜17:00          レストラン 11:00〜16:00       休館日 毎週水曜日及び年末年始(12/31〜1/3)","uri":"https://www.michi-no-eki.jp/stations/views/18881","mapcode":"385 674 688"}},{"type":"Feature","geometry":{"type":"Point","coordinates":[142.4637855,43.5921253]},"properties":{"prefId":"10","stationId":"18882","internalId":"94","name":"びえい「丘のくら」","address":"071-0208 北海道上川郡美瑛町本町1-9-21","tel":"0166-92-0920","hours":"9:00〜18:00(6〜8月) 9:00〜17:00(3〜5月、9〜11月) 10:00〜17:00(12〜2月)","uri":"https://www.michi-no-eki.jp/stations/views/18882","mapcode":"389 011 663"}},{"type":"Feature","geometry":{"type":"Point","coordinates":[141.7768178,44.5635037]},"properties":{"prefId":"10","stationId":"18883","internalId":"95","name":"☆ロマン街道しょさんべつ","address":"078-4431 北海道苫前郡初山別村字豊岬153-1","tel":"0164-67-2525","hours":"10:00〜21:00","uri":"https://www.michi-no-eki.jp/stations/views/18883","mapcode":"692 513 320"}},{"type":"Feature","geometry":{"type":"Point","coordinates":[144.9906685,44.0690729]},"properties":{"prefId":"10","stationId":"18884","internalId":"96","name":"うとろ・シリエトク","address":"099-4354 北海道斜里郡斜里町ウトロ西186-8","tel":"0152-22-5000","hours":"9:00〜17:00(レストラン 10:00〜15:00)","uri":"https://www.michi-no-eki.jp/stations/views/18884","mapcode":"894 824 850"}},{"type":"Feature","geometry":{"type":"Point","coordinates":[144.6642138,43.9117709]},"properties":{"prefId":"10","stationId":"18885","internalId":"97","name":"しゃり","address":"099-4113 北海道斜里郡斜里町本町37","tel":"0152-26-8888","hours":"9:00〜19:00","uri":"https://www.michi-no-eki.jp/stations/views/18885","mapcode":"642 575 095"}},{"type":"Feature","geometry":{"type":"Point","coordinates":[144.5339946,43.7904595]},"properties":{"prefId":"10","stationId":"18886","internalId":"98","name":"パパスランドさっつる","address":"099-4522 北海道斜里郡清里町字神威1071","tel":"0152-26-2288","hours":"9:00〜21:00","uri":"https://www.michi-no-eki.jp/stations/views/18886","mapcode":"444 439 466"}},{"type":"Feature","geometry":{"type":"Point","coordinates":[142.4137718,44.2874188]},"properties":{"prefId":"10","stationId":"18887","internalId":"99","name":"もち米の里☆なよろ","address":"098-0507 北海道名寄市風連町西町334-1","tel":"01655-7-8686","hours":"9:00〜18:00","uri":"https://www.michi-no-eki.jp/stations/views/18887","mapcode":"272 440 153"}},{"type":"Feature","geometry":{"type":"Point","coordinates":[140.2318241,42.7955338]},"properties":{"prefId":"10","stationId":"18888","internalId":"100","name":"みなとま〜れ寿都","address":"048-0404 北海道寿都郡寿都町字大磯町29-1","tel":"0136-62-2550","hours":"9:00〜18:00","uri":"https://www.michi-no-eki.jp/stations/views/18888","mapcode":"797 778 127"}},{"type":"Feature","geometry":{"type":"Point","coordinates":[140.8218199,42.6645114]},"properties":{"prefId":"10","stationId":"18889","internalId":"101","name":"とうや湖","address":"049-5831 北海道虻田郡洞爺湖町香川9-4","tel":"0142-87-2200","hours":"4月〜10月(8:30〜17:00) 11月〜3月(9:00〜16:00)","uri":"https://www.michi-no-eki.jp/stations/views/18889","mapcode":"321 879 391"}},{"type":"Feature","geometry":{"type":"Point","coordinates":[144.273893,44.022034]},"properties":{"prefId":"10","stationId":"18890","internalId":"102","name":"流氷街道網走","address":"093-0003 北海道網走市南3条東4丁目","tel":"0152-67-5007","hours":"9:00〜18:00","uri":"https://www.michi-no-eki.jp/stations/views/18890","mapcode":"305 678 280"}},{"type":"Feature","geometry":{"type":"Point","coordinates":[140.1072323,41.4265145]},"properties":{"prefId":"10","stationId":"18891","internalId":"103","name":"北前船 松前","address":"049-1506 北海道松前郡松前町字唐津379","tel":"0139-46-2211","hours":"9:00〜18:00(4〜9月) 9:00〜17:00(10〜3月) 定休日:毎週火曜日(10〜3月、火曜日が祝日の場合は翌日水曜日)及び年末年始(お問い合わせください)","uri":"https://www.michi-no-eki.jp/stations/views/18891","mapcode":"862 028 757"}},{"type":"Feature","geometry":{"type":"Point","coordinates":[143.6132503,43.1256342]},"properties":{"prefId":"10","stationId":"18892","internalId":"104","name":"ステラ★ほんべつ","address":"089-3334 北海道中川郡本別町北3-1-1","tel":"0156-22-5819","hours":"9:00〜18:00","uri":"https://www.michi-no-eki.jp/stations/views/18892","mapcode":"481 149 660"}},{"type":"Feature","geometry":{"type":"Point","coordinates":[141.6946488,42.6999513]},"properties":{"prefId":"10","stationId":"18893","internalId":"105","name":"ウトナイ湖","address":"059-1365 北海道苫小牧市字植苗156-30","tel":"0144-58-4137","hours":"9:00〜18:00(11月〜2月は9:00〜17:00)","uri":"https://www.michi-no-eki.jp/stations/views/18893","mapcode":"113 413 623"}},{"type":"Feature","geometry":{"type":"Point","coordinates":[143.6636566,42.81399805]},"properties":{"prefId":"10","stationId":"18894","internalId":"106","name":"うらほろ","address":"089-5621 北海道十勝郡浦幌町字北町16-3","tel":"015-576-5678","hours":"9:00〜17:00","uri":"https://www.michi-no-eki.jp/stations/views/18894","mapcode":"511 530 242"}},{"type":"Feature","geometry":{"type":"Point","coordinates":[141.6427006,43.2141162]},"properties":{"prefId":"10","stationId":"18895","internalId":"107","name":"しんしのつ","address":"068-1100  北海道石狩郡新篠津村第45線北2","tel":"0126-58-3166","hours":"7:00〜22:00 ※休館日の翌日は10:00開館  道の駅グッズ販売は21:00まで","uri":"https://www.michi-no-eki.jp/stations/views/18895","mapcode":"139 767 407"}},{"type":"Feature","geometry":{"type":"Point","coordinates":[142.038078,42.93699]},"properties":{"prefId":"10","stationId":"18896","internalId":"108","name":"夕張メロード","address":"068-0755 北海道夕張市紅葉山529","tel":"0123-53-8111","hours":"10:00〜18:30","uri":"https://www.michi-no-eki.jp/stations/views/18896","mapcode":"700 080 120"}},{"type":"Feature","geometry":{"type":"Point","coordinates":[145.2368756,43.533413]},"properties":{"prefId":"10","stationId":"18897","internalId":"109","name":"おだいとう","address":"086-1641 北海道野付郡別海町尾岱沼5-27","tel":"0153-86-2449","hours":"9:00〜17:00(5〜10月) 9:00〜16:00(11〜4月) 火曜日定休(10月〜6月) ※7〜9月無休","uri":"https://www.michi-no-eki.jp/stations/views/18897","mapcode":"448 418 627"}},{"type":"Feature","geometry":{"type":"Point","coordinates":[140.9447498,41.9279214]},"properties":{"prefId":"10","stationId":"18898","internalId":"110","name":"縄文ロマン 南かやべ","address":"041-1613 北海道函館市臼尻町551-1","tel":"0138-25-2030","hours":"9:00〜17:00(4〜10月) 9:00〜16:30(11〜3月)","uri":"https://www.michi-no-eki.jp/stations/views/18898","mapcode":"744 053 054"}},{"type":"Feature","geometry":{"type":"Point","coordinates":[141.677348,45.41725]},"properties":{"prefId":"10","stationId":"18899","internalId":"111","name":"わっかない","address":"097-0023 北海道稚内市開運2丁目","tel":"0162-29-0277","hours":"10:00〜18:00","uri":"https://www.michi-no-eki.jp/stations/views/18899","mapcode":"353 876 712"}},{"type":"Feature","geometry":{"type":"Point","coordinates":[141.1552503,40.7168253]},"properties":{"prefId":"11","stationId":"18900","internalId":"112","name":"しちのへ","address":"039-2501 青森県上北郡七戸町字荒熊内67-94","tel":"0176-62-5777","hours":"9:00〜18:00 <休 3/31>","uri":"https://www.michi-no-eki.jp/stations/views/18900","mapcode":"215 469 571"}},{"type":"Feature","geometry":{"type":"Point","coordinates":[141.6084329,40.4584959]},"properties":{"prefId":"11","stationId":"18901","internalId":"113","name":"はしかみ","address":"039-1201 青森県三戸郡階上町大字道仏字耳ヶ吠3-3","tel":"0178-88-1800","hours":"9:00〜18:00 <休12/31〜1/1>","uri":"https://www.michi-no-eki.jp/stations/views/18901","mapcode":"346 448 583"}},{"type":"Feature","geometry":{"type":"Point","coordinates":[140.6874847216271,40.58083318708148]},"properties":{"prefId":"11","stationId":"18902","internalId":"114","name":"虹の湖","address":"036-0402 青森県黒石市大字沖浦字山神1-5","tel":"0172-54-2348","hours":"9:00〜16:00(営業時間短縮あり)","uri":"https://www.michi-no-eki.jp/stations/views/18902","mapcode":"323 892 357*72"}},{"type":"Feature","geometry":{"type":"Point","coordinates":[140.80477,41.167961]},"properties":{"prefId":"11","stationId":"18903","internalId":"115","name":"わきのさわ","address":"039-5323 青森県むつ市脇野沢七引205-5","tel":"0175-44-3252","hours":"9:00〜17:00","uri":"https://www.michi-no-eki.jp/stations/views/18903","mapcode":"594 891 779"}},{"type":"Feature","geometry":{"type":"Point","coordinates":[140.8882189,41.2703981]},"properties":{"prefId":"11","stationId":"18904","internalId":"116","name":"かわうち湖","address":"039-4701 青森県むつ市川内町福浦山314","tel":"0175-38-5108","hours":"9:00〜17:00<休 木曜日>≪冬期閉鎖あり≫","uri":"https://www.michi-no-eki.jp/stations/views/18904","mapcode":"629 362 060"}},{"type":"Feature","geometry":{"type":"Point","coordinates":[141.0691523355571,40.42962337097706]},"properties":{"prefId":"11","stationId":"18905","internalId":"117","name":"しんごう","address":"039-1801 青森県三戸郡新郷村大字戸来字雨池11-2","tel":"0178-78-3333","hours":"9:00〜17:00 <休 水曜日> ≪冬期閉鎖あり≫","uri":"https://www.michi-no-eki.jp/stations/views/18905","mapcode":"612 353 201*40"}},{"type":"Feature","geometry":{"type":"Point","coordinates":[140.5487947,40.5547521]},"properties":{"prefId":"11","stationId":"18906","internalId":"118","name":"ひろさき","address":"036-8124 青森県弘前市大字石川字泉田62-1","tel":"0172-92-3366","hours":"9:00〜18:30(4月〜10月)、9:00〜18:00(11月〜3月)","uri":"https://www.michi-no-eki.jp/stations/views/18906","mapcode":"323 786 218"}},{"type":"Feature","geometry":{"type":"Point","coordinates":[141.117434,40.586204]},"properties":{"prefId":"11","stationId":"18907","internalId":"119","name":"奥入瀬","address":"034-0301 青森県十和田市大字奥瀬字堰道39-1","tel":"0176-72-3201","hours":"9:00〜18:00 <休 12/31〜1/1>","uri":"https://www.michi-no-eki.jp/stations/views/18907","mapcode":"612 899 885"}},{"type":"Feature","geometry":{"type":"Point","coordinates":[141.2554758,40.387808]},"properties":{"prefId":"11","stationId":"18908","internalId":"120","name":"さんのへ","address":"039-0141 青森県三戸郡三戸町大字川守田字西張渡39-1","tel":"0179-22-0600","hours":"9:00〜18:00〔施設により異なる〕","uri":"https://www.michi-no-eki.jp/stations/views/18908","mapcode":"209 781 122"}},{"type":"Feature","geometry":{"type":"Point","coordinates":[140.579519,40.7179284]},"properties":{"prefId":"11","stationId":"18909","internalId":"121","name":"なみおか","address":"038-1331 青森県青森市浪岡大字女鹿沢字野尻2-3","tel":"0172-62-1170","hours":"9:00〜19:00(3/16〜11/15)、9:00〜18:00(11/16〜3/15)〔施設により異なる〕","uri":"https://www.michi-no-eki.jp/stations/views/18909","mapcode":"71 474 747"}},{"type":"Feature","geometry":{"type":"Point","coordinates":[140.38394985629,41.04569086180915]},"properties":{"prefId":"11","stationId":"18910","internalId":"122","name":"十三湖高原","address":"037-0401 青森県五所川原市相内実取287-1058","tel":"0173-62-3556","hours":"9:00〜18:00(冬期・営業時間短縮あり)<休 12/31〜1/2>","uri":"https://www.michi-no-eki.jp/stations/views/18910","mapcode":"517 166 134*44"}},{"type":"Feature","geometry":{"type":"Point","coordinates":[140.514335,41.145511]},"properties":{"prefId":"11","stationId":"18911","internalId":"123","name":"いまべつ","address":"030-1505 青森県東津軽郡今別町大字大川平字清川87-16","tel":"0174-31-5200","hours":"9:00〜19:00 ≪冬期・営業時間短縮あり≫","uri":"https://www.michi-no-eki.jp/stations/views/18911","mapcode":"828 512 094"}},{"type":"Feature","geometry":{"type":"Point","coordinates":[141.4304303,40.4067846]},"properties":{"prefId":"11","stationId":"18912","internalId":"124","name":"なんごう","address":"031-0114 青森県八戸市南郷大字中野字舘野4-4","tel":"0178-82-2902","hours":"直売所8:00〜18:00(4〜10月)・8:30〜17:00(11〜3月)、レストラン 11:00〜19:00(ラストオーダー18:30)","uri":"https://www.michi-no-eki.jp/stations/views/18912","mapcode":"209 862 392"}},{"type":"Feature","geometry":{"type":"Point","coordinates":[140.322251,40.784406]},"properties":{"prefId":"11","stationId":"18913","internalId":"125","name":"もりた","address":"038-2817 青森県つがる市森田町床舞稚桜4-1","tel":"0173-26-4488","hours":"9:00〜18:00 ≪冬期・営業時間短縮あり≫","uri":"https://www.michi-no-eki.jp/stations/views/18913","mapcode":"316 099 692"}},{"type":"Feature","geometry":{"type":"Point","coordinates":[140.86137,40.891692]},"properties":{"prefId":"11","stationId":"18914","internalId":"126","name":"浅虫温泉","address":"039-3501 青森県青森市大字浅虫字螢谷341-19","tel":"017-737-5151","hours":"7:00〜20:30〔施設により異なる〕","uri":"https://www.michi-no-eki.jp/stations/views/18914","mapcode":"99 808 623"}},{"type":"Feature","geometry":{"type":"Point","coordinates":[140.6231652,40.4815576]},"properties":{"prefId":"11","stationId":"18915","internalId":"127","name":"いかりがせき","address":"038-0101 青森県平川市碇ヶ関碇石13-1","tel":"0172-49-5020","hours":"9:00〜19:00 ≪冬期・営業時間短縮あり≫ <休 年末年始>","uri":"https://www.michi-no-eki.jp/stations/views/18915","mapcode":"323 525 396"}},{"type":"Feature","geometry":{"type":"Point","coordinates":[140.577686,40.6336189]},"properties":{"prefId":"11","stationId":"18916","internalId":"128","name":"いなかだて","address":"038-1111 青森県南津軽郡田舎館村大字高樋字八幡10","tel":"0172-58-4411","hours":"8:30〜18:00 ≪冬期・営業時間短縮あり≫ <休 12/31午後〜1/1>","uri":"https://www.michi-no-eki.jp/stations/views/18916","mapcode":"71 174 652"}},{"type":"Feature","geometry":{"type":"Point","coordinates":[141.256588,41.083731]},"properties":{"prefId":"11","stationId":"18917","internalId":"129","name":"よこはま","address":"039-4134 青森県上北郡横浜町字林ノ脇79-12","tel":"0175-78-6687","hours":"<4月〜10月>8:30〜18:00 <11月〜3月>9:00〜17:30         <定休日 12/31、1/1、1月〜3月の火曜日>","uri":"https://www.michi-no-eki.jp/stations/views/18917","mapcode":"437 886 636"}},{"type":"Feature","geometry":{"type":"Point","coordinates":[140.3467912,41.2538342]},"properties":{"prefId":"11","stationId":"18918","internalId":"130","name":"みんまや","address":"030-1700 青森県東津軽郡外ヶ浜町字三厩龍浜99","tel":"0174-38-2301","hours":"8:40〜17:00 <冬期閉鎖あり>","uri":"https://www.michi-no-eki.jp/stations/views/18918","mapcode":"1045 012 120"}},{"type":"Feature","geometry":{"type":"Point","coordinates":[140.3205958,41.1449049]},"properties":{"prefId":"11","stationId":"18919","internalId":"131","name":"こどまり","address":"037-0300 青森県北津軽郡中泊町大字小泊字折腰内45","tel":"0173-27-9300","hours":"9:00〜17:00(冬季閉鎖11月上旬〜4月下旬)","uri":"https://www.michi-no-eki.jp/stations/views/18919","mapcode":"517 518 056"}},{"type":"Feature","geometry":{"type":"Point","coordinates":[141.3638954,40.7854137]},"properties":{"prefId":"11","stationId":"18920","internalId":"132","name":"みさわ","address":"033-0164 青森県三沢市谷地頭4-298-652","tel":"0176-59-2711","hours":"直売所 (4月〜10月)9:00〜18:00 (11月〜3月)9:00〜17:00 レストラン (4月〜10月)10:30〜16:30 ラストオーダー16:00 (11月〜3月)10:30〜15:30 ラストオーダー15:30 <休 12/31〜1/2>","uri":"https://www.michi-no-eki.jp/stations/views/18920","mapcode":"606 104 842"}},{"type":"Feature","geometry":{"type":"Point","coordinates":[141.2646116,40.574645]},"properties":{"prefId":"11","stationId":"18921","internalId":"133","name":"とわだ","address":"034-0051 青森県十和田市大字伝法寺字平窪37-2","tel":"0176-28-3790","hours":"9:00〜20:00(4月〜10月)、9:00〜19:00(11月〜3月) <休 1/1>","uri":"https://www.michi-no-eki.jp/stations/views/18921","mapcode":"84 242 514"}},{"type":"Feature","geometry":{"type":"Point","coordinates":[140.4427046,40.7371457]},"properties":{"prefId":"11","stationId":"18922","internalId":"134","name":"つるた","address":"038-3524 青森県北津軽郡鶴田町大字境字里見176-1","tel":"0173-22-5656","hours":"9:00〜17:00 <休 1/1>","uri":"https://www.michi-no-eki.jp/stations/views/18922","mapcode":"71 548 106"}},{"type":"Feature","geometry":{"type":"Point","coordinates":[140.0004692,40.7442227]},"properties":{"prefId":"11","stationId":"18923","internalId":"135","name":"ふかうら","address":"038-2411 青森県西津軽郡深浦町大字風合瀬字上砂子川144-1","tel":"0173-76-3660","hours":"9:00〜18:00(1〜3月17:00)","uri":"https://www.michi-no-eki.jp/stations/views/18923","mapcode":"559 855 884"}},{"type":"Feature","geometry":{"type":"Point","coordinates":[141.274961,40.728039]},"properties":{"prefId":"11","stationId":"18924","internalId":"136","name":"おがわら湖","address":"039-2401 青森県上北郡東北町大字上野字南谷地122","tel":"0176-58-1122","hours":"8:30〜18:00(4〜9月)、9:00〜17:30(10〜3月)<休 年末年始>","uri":"https://www.michi-no-eki.jp/stations/views/18924","mapcode":"84 813 042"}},{"type":"Feature","geometry":{"type":"Point","coordinates":[140.6411974,41.1748371]},"properties":{"prefId":"11","stationId":"18925","internalId":"137","name":"たいらだて","address":"030-1402 青森県東津軽郡外ヶ浜町字平舘太郎右ェ門沢1-3","tel":"0174-31-0775","hours":"9:00〜16:00","uri":"https://www.michi-no-eki.jp/stations/views/18925","mapcode":"828 617 550"}},{"type":"Feature","geometry":{"type":"Point","coordinates":[141.3247271,40.6064042]},"properties":{"prefId":"11","stationId":"18926","internalId":"138","name":"ろくのへ","address":"039-2371 青森県上北郡六戸町大字犬落瀬字後田87","tel":"0176-55-4134","hours":"9:00〜18:00 ≪冬期・営業時間短縮あり≫","uri":"https://www.michi-no-eki.jp/stations/views/18926","mapcode":"84 369 400"}},{"type":"Feature","geometry":{"type":"Point","coordinates":[141.1421369,39.4832705]},"properties":{"prefId":"13","stationId":"18927","internalId":"139","name":"石鳥谷","address":"028-3171 岩手県花巻市石鳥谷町中寺林7-17-3","tel":"0198-45-6868","hours":"9:00〜17:30〔施設により異なる〕 <休 12/31〜1/1>","uri":"https://www.michi-no-eki.jp/stations/views/18927","mapcode":"378 812 584"}},{"type":"Feature","geometry":{"type":"Point","coordinates":[141.62668964361393,39.006996257948195]},"properties":{"prefId":"13","stationId":"18928","internalId":"140","name":"高田松原","address":"029-2204 岩手県陸前高田市気仙町字土手影180 高田松原津波復興祈念公園内","tel":"0192-22-8411","hours":"9:00〜18:00(冬期時間短縮あり) 年中無休(施設内一部店舗を除く)","uri":"https://www.michi-no-eki.jp/stations/views/18928","mapcode":"193 615 438*46"}},{"type":"Feature","geometry":{"type":"Point","coordinates":[141.3535295,39.6516145]},"properties":{"prefId":"13","stationId":"18929","internalId":"141","name":"区界高原","address":"028-2631 岩手県宮古市区界2-434-2","tel":"0193-77-2266","hours":"9:00〜17:00 ≪冬期・営業時間短縮あり≫","uri":"https://www.michi-no-eki.jp/stations/views/18929","mapcode":"634 522 745"}},{"type":"Feature","geometry":{"type":"Point","coordinates":[141.66553614551745,40.277839528436125]},"properties":{"prefId":"13","stationId":"18930","internalId":"142","name":"おおの","address":"028-8802 岩手県九戸郡洋野町大野58-12-30","tel":"0194-77-4379","hours":"9:00〜17:00〔施設により異なる〕","uri":"https://www.michi-no-eki.jp/stations/views/18930","mapcode":"296 395 008*74"}},{"type":"Feature","geometry":{"type":"Point","coordinates":[141.3958808,39.1798365]},"properties":{"prefId":"13","stationId":"18931","internalId":"143","name":"種山ヶ原","address":"029-2311 岩手県気仙郡住田町世田米字子飼沢30-39","tel":"0197-38-2215","hours":"9:00〜18:00(冬期17:00まで)","uri":"https://www.michi-no-eki.jp/stations/views/18931","mapcode":"645 047 238"}},{"type":"Feature","geometry":{"type":"Point","coordinates":[141.8626587,39.8423053]},"properties":{"prefId":"13","stationId":"18932","internalId":"144","name":"いわいずみ","address":"027-0502 岩手県下閉伊郡岩泉町乙茂字乙茂90-1","tel":"0194-32-3070","hours":"8:30〜18:00(夏期)、8:30〜17:30(冬期)","uri":"https://www.michi-no-eki.jp/stations/views/18932","mapcode":"432 013 658"}},{"type":"Feature","geometry":{"type":"Point","coordinates":[141.818707,40.116105]},"properties":{"prefId":"13","stationId":"18933","internalId":"145","name":"のだ","address":"028-8201 岩手県九戸郡野田村大字野田31-31-1","tel":"0194-78-4171","hours":"9:00〜18:00 <休 1/1、3/31、9/30>","uri":"https://www.michi-no-eki.jp/stations/views/18933","mapcode":"610 713 530"}},{"type":"Feature","geometry":{"type":"Point","coordinates":[141.971987,39.737554]},"properties":{"prefId":"13","stationId":"18934","internalId":"146","name":"たろう","address":"027-0307 岩手県宮古市田老二丁目5-1","tel":"0193-87-2971","hours":"9:00〜17:00(産直とれたろう)","uri":"https://www.michi-no-eki.jp/stations/views/18934","mapcode":"286 567 152"}},{"type":"Feature","geometry":{"type":"Point","coordinates":[141.9025414984584,39.91427060018029]},"properties":{"prefId":"13","stationId":"18935","internalId":"147","name":"たのはた","address":"028-8407 岩手県下閉伊郡田野畑村菅窪223-85","tel":"0194-34-2006","hours":"9:00〜18:00(10〜3月/17:30)〔施設により異なる〕 <休 12/31〜1/4>","uri":"https://www.michi-no-eki.jp/stations/views/18935","mapcode":"432 288 352*50"}},{"type":"Feature","geometry":{"type":"Point","coordinates":[141.181477,39.094217]},"properties":{"prefId":"13","stationId":"18936","internalId":"148","name":"みずさわ","address":"023-0831 岩手県奥州市水沢姉体町字石川原51-3","tel":"0197-26-3739","hours":"売店9:00〜18:00 <休 1/1> 、レストラン11:00〜18:00(ラストオーダー17:00)","uri":"https://www.michi-no-eki.jp/stations/views/18936","mapcode":"142 622 845"}},{"type":"Feature","geometry":{"type":"Point","coordinates":[141.0993785,39.8799671]},"properties":{"prefId":"13","stationId":"18937","internalId":"149","name":"にしね","address":"028-7111 岩手県八幡平市大更2-154-36","tel":"0195-75-0070","hours":"4月〜10月 8:30〜17:00 11月〜3月 9:00〜17:00 <休 12/31〜1/1>","uri":"https://www.michi-no-eki.jp/stations/views/18937","mapcode":"249 462 220"}},{"type":"Feature","geometry":{"type":"Point","coordinates":[141.5735177,40.1509394]},"properties":{"prefId":"13","stationId":"18938","internalId":"150","name":"白樺の里やまがた","address":"028-8602 岩手郡久慈市山形町川井8-12-1","tel":"0194-72-3131","hours":"9:00〜18:00 <休 12/30〜1/3(売店は無休)>","uri":"https://www.michi-no-eki.jp/stations/views/18938","mapcode":"484 834 667"}},{"type":"Feature","geometry":{"type":"Point","coordinates":[141.3513044,39.3460524]},"properties":{"prefId":"13","stationId":"18939","internalId":"151","name":"みやもり","address":"028-0304 岩手県遠野市宮守町下宮守30-37-1","tel":"0198-67-2929","hours":"9:00〜18:00≪冬期・営業時間短縮あり≫","uri":"https://www.michi-no-eki.jp/stations/views/18939","mapcode":"378 357 137"}},{"type":"Feature","geometry":{"type":"Point","coordinates":[141.2064173,39.5555548]},"properties":{"prefId":"13","stationId":"18940","internalId":"152","name":"紫波","address":"028-3535 岩手県紫波郡紫波町遠山字松原7-8","tel":"019-671-1300","hours":"9:00〜17:00≪冬期・営業時間の変更あり≫ <休 12/31〜1/3>","uri":"https://www.michi-no-eki.jp/stations/views/18940","mapcode":"81 205 245"}},{"type":"Feature","geometry":{"type":"Point","coordinates":[141.3404903,39.5367746]},"properties":{"prefId":"13","stationId":"18941","internalId":"153","name":"はやちね","address":"028-3201 岩手県花巻市大迫町内川目10-30-114","tel":"0198-48-5018 大迫支所へ転送","hours":"売店9:00〜17:30 <休み:火曜日と冬期(11月下旬〜4月中旬)> トイレとスタンプと自販機は24時間年中無休で利用可","uri":"https://www.michi-no-eki.jp/stations/views/18941","mapcode":"634 131 068"}},{"type":"Feature","geometry":{"type":"Point","coordinates":[141.952995,39.478294]},"properties":{"prefId":"13","stationId":"18942","internalId":"154","name":"やまだ おいすた","address":"028-1321 岩手県下閉伊郡山田町山田2-111-2","tel":"0193-65-6631","hours":"9:00〜18:00","uri":"https://www.michi-no-eki.jp/stations/views/18942","mapcode":"259 804 896*26"}},{"type":"Feature","geometry":{"type":"Point","coordinates":[141.501123,39.3309253]},"properties":{"prefId":"13","stationId":"18943","internalId":"155","name":"遠野風の丘","address":"028-0531 岩手県遠野市綾織町新里8-2-1","tel":"0198-62-0888","hours":"9:00〜18:00 ≪冬期・営業時間短縮あり≫ <休 1/1>","uri":"https://www.michi-no-eki.jp/stations/views/18943","mapcode":"373 870 346"}},{"type":"Feature","geometry":{"type":"Point","coordinates":[141.798998,39.121158]},"properties":{"prefId":"13","stationId":"18944","internalId":"156","name":"さんりく","address":"022-0101 岩手県大船渡市三陸町越善来字井戸洞95-27","tel":"0192-44-3241","hours":"9:00〜18:00","uri":"https://www.michi-no-eki.jp/stations/views/18944","mapcode":"562 426 159"}},{"type":"Feature","geometry":{"type":"Point","coordinates":[140.875147,39.3007195]},"properties":{"prefId":"13","stationId":"18945","internalId":"157","name":"錦秋湖","address":"024-0341 岩手県和賀郡西和賀町杉名畑44-264","tel":"0197-84-2990","hours":"9:00〜18:30(12〜3月は9:00〜18:00)","uri":"https://www.michi-no-eki.jp/stations/views/18945","mapcode":"715 750 643"}},{"type":"Feature","geometry":{"type":"Point","coordinates":[141.3399576,39.984567]},"properties":{"prefId":"13","stationId":"18946","internalId":"158","name":"くずまき高原","address":"028-5402 岩手県岩手郡葛巻町葛巻39-159-3","tel":"0195-66-0711","hours":"9:00〜18:00 ≪冬期・営業時間短縮あり≫ <休 1/1〜1/2>","uri":"https://www.michi-no-eki.jp/stations/views/18946","mapcode":"683 821 696"}},{"type":"Feature","geometry":{"type":"Point","coordinates":[141.21381,39.968545]},"properties":{"prefId":"13","stationId":"18947","internalId":"159","name":"石神の丘","address":"028-4307 岩手県岩手郡岩手町大字五日市10-121-20","tel":"0195-61-1600","hours":"産直9:00〜18:00","uri":"https://www.michi-no-eki.jp/stations/views/18947","mapcode":"683 821 696"}},{"type":"Feature","geometry":{"type":"Point","coordinates":[140.874886,39.706412]},"properties":{"prefId":"13","stationId":"18948","internalId":"160","name":"雫石あねっこ","address":"020-0582 岩手県岩手郡雫石町橋場坂本118-10","tel":"019-692-5577","hours":"8:30〜18:00 ≪冬期・営業時間短縮あり≫","uri":"https://www.michi-no-eki.jp/stations/views/18948","mapcode":"435 135 342"}},{"type":"Feature","geometry":{"type":"Point","coordinates":[141.2218949,39.3824368]},"properties":{"prefId":"13","stationId":"18949","internalId":"161","name":"とうわ","address":"028-0115 岩手県花巻市東和町安俵6区147-2","tel":"0198-42-3006","hours":"9:00〜17:00","uri":"https://www.michi-no-eki.jp/stations/views/18949","mapcode":"108 777 512"}},{"type":"Feature","geometry":{"type":"Point","coordinates":[141.0528845,38.9464394]},"properties":{"prefId":"13","stationId":"18950","internalId":"162","name":"厳美渓","address":"021-0101 岩手県一関市厳美町字沖野々220-1","tel":"0191-29-2000","hours":"9:00〜18:00(11〜3月は9:00〜17:00)<休 毎月第3水曜日(3〜10月は無休)>","uri":"https://www.michi-no-eki.jp/stations/views/18950","mapcode":"142 096 172"}},{"type":"Feature","geometry":{"type":"Point","coordinates":[141.4165286,40.248349]},"properties":{"prefId":"13","stationId":"18951","internalId":"163","name":"おりつめ","address":"028-6506 岩手県九戸郡九戸村大字山屋2-28-1","tel":"0195-42-4400","hours":"8:00〜19:00 <休 1/1、1/2>","uri":"https://www.michi-no-eki.jp/stations/views/18951","mapcode":"209 290 431"}},{"type":"Feature","geometry":{"type":"Point","coordinates":[141.2723745,38.8986767]},"properties":{"prefId":"13","stationId":"18952","internalId":"164","name":"かわさき","address":"029-0202 岩手県一関市川崎町薄衣字法道地42-3","tel":"0191-36-5170","hours":"9:00〜19:00(12〜2月は9:00〜18:00)","uri":"https://www.michi-no-eki.jp/stations/views/18952","mapcode":"199 828 421"}},{"type":"Feature","geometry":{"type":"Point","coordinates":[141.5891622,39.6488825]},"properties":{"prefId":"13","stationId":"18953","internalId":"165","name":"やまびこ館","address":"028-2513 岩手県宮古市川内8-2","tel":"0193-85-5011","hours":"8:30〜18:30 ≪冬期・営業時間短縮あり≫","uri":"https://www.michi-no-eki.jp/stations/views/18953","mapcode":"639 821 453"}},{"type":"Feature","geometry":{"type":"Point","coordinates":[141.9698939,39.6390181]},"properties":{"prefId":"13","stationId":"18954","internalId":"166","name":"みやこ","address":"027-0004 岩手県宮古市臨港通1-20","tel":"0193-71-3100","hours":"8:45〜17:00〔施設により異なる〕","uri":"https://www.michi-no-eki.jp/stations/views/18954","mapcode":"286 206 324"}},{"type":"Feature","geometry":{"type":"Point","coordinates":[141.589311,39.871122]},"properties":{"prefId":"13","stationId":"18955","internalId":"167","name":"三田貝分校","address":"028-5641 岩手県下閉伊郡岩泉町門字三田貝47-2","tel":"0194-25-4311","hours":"8:30〜18:00 ≪冬期・営業時間短縮あり≫","uri":"https://www.michi-no-eki.jp/stations/views/18955","mapcode":"693 731 185"}},{"type":"Feature","geometry":{"type":"Point","coordinates":[141.7646387,40.1898882]},"properties":{"prefId":"13","stationId":"18956","internalId":"168","name":"くじ","address":"028-0056 岩手県久慈市中町2-5-6","tel":"0194-66-9200","hours":"9:00〜19:00 ≪冬期・営業時間短縮あり≫ <休 1/1>","uri":"https://www.michi-no-eki.jp/stations/views/18956","mapcode":"296 077 426"}},{"type":"Feature","geometry":{"type":"Point","coordinates":[140.466502,37.982691]},"properties":{"prefId":"14","stationId":"18957","internalId":"169","name":"七ヶ宿","address":"989-0537 宮城県刈田郡七ヶ宿町字上野8-1","tel":"0224-37-2721","hours":"9:00〜17:30 ≪冬期・営業時間短縮あり≫ <休 12/31〜1/3、3/31>","uri":"https://www.michi-no-eki.jp/stations/views/18957","mapcode":"76 821 491"}},{"type":"Feature","geometry":{"type":"Point","coordinates":[141.325525,38.619593]},"properties":{"prefId":"14","stationId":"18958","internalId":"170","name":"津山","address":"986-0402 宮城県登米市津山町横山字細谷26-1","tel":"0225-69-2341","hours":"9:00〜17:00 <休 12/30〜1/1>","uri":"https://www.michi-no-eki.jp/stations/views/18958","mapcode":"105 714 883"}},{"type":"Feature","geometry":{"type":"Point","coordinates":[140.938388,38.521611]},"properties":{"prefId":"14","stationId":"18959","internalId":"171","name":"三本木","address":"989-6321 宮城県大崎市三本木字大豆坂63-13","tel":"0229-52-6232","hours":"9:00〜18:00","uri":"https://www.michi-no-eki.jp/stations/views/18959","mapcode":"141 068 240"}},{"type":"Feature","geometry":{"type":"Point","coordinates":[140.844319,38.794418]},"properties":{"prefId":"14","stationId":"18960","internalId":"172","name":"路田里はなやま","address":"987-2511 宮城県栗原市花山字本沢北ノ前112-1","tel":"0228-56-2265","hours":"8:30〜17:00","uri":"https://www.michi-no-eki.jp/stations/views/18960","mapcode":"573 146 890"}},{"type":"Feature","geometry":{"type":"Point","coordinates":[141.56265465434754,38.814984113813445]},"properties":{"prefId":"14","stationId":"18961","internalId":"173","name":"大谷海岸","address":"988-0273 宮城県気仙沼市本吉町三島94-12","tel":"0226-44-3180","hours":"9:30〜17:30 <休 12/31〜1/2>","uri":"https://www.michi-no-eki.jp/stations/views/18961","mapcode":"399 532 418*87"}},{"type":"Feature","geometry":{"type":"Point","coordinates":[140.992791,38.424053]},"properties":{"prefId":"14","stationId":"18962","internalId":"174","name":"おおさと","address":"981-3521 宮城県黒川郡大郷町中村字北浦 51-6","tel":"022-359-2675","hours":"9:00〜18:00 <休 年末年始>","uri":"https://www.michi-no-eki.jp/stations/views/18962","mapcode":"110 614 466"}},{"type":"Feature","geometry":{"type":"Point","coordinates":[141.1878908,38.6271176]},"properties":{"prefId":"14","stationId":"18963","internalId":"175","name":"米山","address":"987-0321 宮城県登米市米山町西野字新遠田67","tel":"0220-55-2747","hours":"9:00〜18:30(4月〜11月)、9:00〜18:00(12月〜3月) <休 12/31〜1/3>","uri":"https://www.michi-no-eki.jp/stations/views/18963","mapcode":"105 727 808"}},{"type":"Feature","geometry":{"type":"Point","coordinates":[140.833294,38.70744]},"properties":{"prefId":"14","stationId":"18964","internalId":"176","name":"あ・ら・伊達な道の駅","address":"989-6405 宮城県大崎市岩出山池月字下宮道下4-1","tel":"0229-73-2236","hours":"4月〜11月 9:00〜18:00  12月〜3月 9:00〜17:00〔施設により異なる〕","uri":"https://www.michi-no-eki.jp/stations/views/18964","mapcode":"317 745 461"}},{"type":"Feature","geometry":{"type":"Point","coordinates":[141.316076,38.742664]},"properties":{"prefId":"14","stationId":"18965","internalId":"177","name":"林林館","address":"987-0901 宮城県登米市東和町米川字六反33-1","tel":"0220-45-1218","hours":"9:00〜17:00〔施設により異なる〕","uri":"https://www.michi-no-eki.jp/stations/views/18965","mapcode":"199 263 700"}},{"type":"Feature","geometry":{"type":"Point","coordinates":[141.295318,38.501033]},"properties":{"prefId":"14","stationId":"18966","internalId":"178","name":"上品の郷","address":"986-0132 宮城県石巻市小船越字二子北下1-1","tel":"0225-62-3670","hours":"直売所9:00〜19:00 温泉保養施設9:00〜21:00(最終受付20:30 毎月第4火曜定休) フードコート10:00〜20:00(LO19:30)  お郷カフェ10:00〜17:00","uri":"https://www.michi-no-eki.jp/stations/views/18966","mapcode":"105 290 715"}},{"type":"Feature","geometry":{"type":"Point","coordinates":[141.160641,38.66488]},"properties":{"prefId":"14","stationId":"18967","internalId":"179","name":"みなみかた","address":"987-0401 宮城県登米市南方町新高石浦150-1","tel":"0220-58-3111","hours":"9:00〜18:00(施設により異なる) <休 12/31〜1/3>","uri":"https://www.michi-no-eki.jp/stations/views/18967","mapcode":"105 874 380"}},{"type":"Feature","geometry":{"type":"Point","coordinates":[140.717279,38.118639]},"properties":{"prefId":"14","stationId":"18968","internalId":"180","name":"村田","address":"989-1305 宮城県柴田郡村田町大字村田字北塩内41","tel":"0224-83-5505","hours":"9:00〜17:00 <休 年末年始>","uri":"https://www.michi-no-eki.jp/stations/views/18968","mapcode":"156 701 764"}},{"type":"Feature","geometry":{"type":"Point","coordinates":[140.375856,40.251513]},"properties":{"prefId":"12","stationId":"18969","internalId":"181","name":"たかのす","address":"018-3301 秋田県北秋田市綴子字大堤道下62-1","tel":"0186-63-2233","hours":"9:00〜18:00(12〜3月 9:30〜17:00) <休 1/1>","uri":"https://www.michi-no-eki.jp/stations/views/18969","mapcode":"229 570 735"}},{"type":"Feature","geometry":{"type":"Point","coordinates":[140.259823,40.216348]},"properties":{"prefId":"12","stationId":"18970","internalId":"182","name":"ふたつい","address":"018-3102 秋田県能代市二ツ井町小繋字泉51番地","tel":"0185-74-5118","hours":"9:00〜18:00 <休 1/1〜1/2>","uri":"https://www.michi-no-eki.jp/stations/views/18970","mapcode":"395 751 801"}},{"type":"Feature","geometry":{"type":"Point","coordinates":[140.014564,39.36288]},"properties":{"prefId":"12","stationId":"18971","internalId":"183","name":"にしめ","address":"018-0604 秋田県由利本荘市西目町沼田字新道下1112-2","tel":"0184-33-4260","hours":"9:00〜18:00 <休 12/31〜1/1>","uri":"https://www.michi-no-eki.jp/stations/views/18971","mapcode":"231 707 184*66"}},{"type":"Feature","geometry":{"type":"Point","coordinates":[140.624429,40.4210338]},"properties":{"prefId":"12","stationId":"18972","internalId":"184","name":"やたて峠","address":"017-0001 秋田県大館市長走字陣場311","tel":"0186-51-2311","hours":"7:00〜21:00","uri":"https://www.michi-no-eki.jp/stations/views/18972","mapcode":"323 315 162"}},{"type":"Feature","geometry":{"type":"Point","coordinates":[139.948678,40.421583]},"properties":{"prefId":"12","stationId":"18973","internalId":"185","name":"はちもり","address":"018-2601 秋田県山本郡八峰町八森字乙の水72-4","tel":"0185-78-2300","hours":"9:00〜18:00 (冬季9:00〜17:00) <休 12/30〜1/2>","uri":"https://www.michi-no-eki.jp/stations/views/18973","mapcode":"922 324 217"}},{"type":"Feature","geometry":{"type":"Point","coordinates":[140.7852155,40.1818401]},"properties":{"prefId":"12","stationId":"18974","internalId":"186","name":"かづの","address":"018-5201 秋田県鹿角市花輪字新田町11-4","tel":"0186-22-0555","hours":"9:00〜18:00 (冬季9:00〜17:00)","uri":"https://www.michi-no-eki.jp/stations/views/18974","mapcode":"297 349 438"}},{"type":"Feature","geometry":{"type":"Point","coordinates":[140.3767219,39.5221473]},"properties":{"prefId":"12","stationId":"18975","internalId":"187","name":"かみおか","address":"019-1702 秋田県大仙市北楢岡字船戸187","tel":"0187-72-4004","hours":"9:00〜18:00","uri":"https://www.michi-no-eki.jp/stations/views/18975","mapcode":"518 375 288"}},{"type":"Feature","geometry":{"type":"Point","coordinates":[140.08035,40.022308]},"properties":{"prefId":"12","stationId":"18976","internalId":"188","name":"ことおか","address":"018-2104 秋田県山本郡三種町鹿渡字高石野126-1","tel":"0185-87-4311","hours":"9:00〜18:00≪冬期・営業時間短縮あり≫ <休 12/31〜1/3>","uri":"https://www.michi-no-eki.jp/stations/views/18976","mapcode":"223 070 242"}},{"type":"Feature","geometry":{"type":"Point","coordinates":[140.285026,39.3016038]},"properties":{"prefId":"12","stationId":"18977","internalId":"189","name":"東由利","address":"015-0211 秋田県由利本荘市東由利老方字畑田28","tel":"0184-69-2611","hours":"13:00〜20:00〔休館日 毎週月・火曜日〕祭日の時は翌日","uri":"https://www.michi-no-eki.jp/stations/views/18977","mapcode":"408 469 738"}},{"type":"Feature","geometry":{"type":"Point","coordinates":[140.297203,40.063515]},"properties":{"prefId":"12","stationId":"18978","internalId":"190","name":"かみこあに","address":"018-4421 秋田県北秋田郡上小阿仁村小沢田字向川原66-1","tel":"0186-77-3238","hours":"9:00〜17:30 <休 12/31〜1/1>","uri":"https://www.michi-no-eki.jp/stations/views/18978","mapcode":"395 216 211"}},{"type":"Feature","geometry":{"type":"Point","coordinates":[139.9001819,39.220129]},"properties":{"prefId":"12","stationId":"18979","internalId":"191","name":"象潟","address":"018-0121 秋田県にかほ市象潟町字大塩越73-1","tel":"0184-32-5588","hours":"9:00〜21:00<休 12月〜3月の第3月曜日>","uri":"https://www.michi-no-eki.jp/stations/views/18979","mapcode":"231 183 042"}},{"type":"Feature","geometry":{"type":"Point","coordinates":[140.5331821,39.5385396]},"properties":{"prefId":"12","stationId":"18980","internalId":"192","name":"なかせん","address":"014-0207 秋田県大仙市長野字高畑95-1","tel":"0187-56-4515","hours":"9:00〜18:00≪冬期・営業時間短縮あり≫ <休 12/31〜1/1>","uri":"https://www.michi-no-eki.jp/stations/views/18980","mapcode":"280 124 221"}},{"type":"Feature","geometry":{"type":"Point","coordinates":[140.460393,39.0651389]},"properties":{"prefId":"12","stationId":"18981","internalId":"193","name":"おがち","address":"019-0205 秋田県湯沢市小野字橋本90","tel":"0183-52-5500","hours":"9:00〜18:00 ≪冬期・営業時間短縮あり≫","uri":"https://www.michi-no-eki.jp/stations/views/18981","mapcode":"212 220 409"}},{"type":"Feature","geometry":{"type":"Point","coordinates":[140.0095627,39.8568152]},"properties":{"prefId":"12","stationId":"18982","internalId":"194","name":"てんのう","address":"010-0201 秋田県潟上市天王字江川上谷地109-2","tel":"018-878-6588","hours":"9:00〜18:00≪冬期・営業時間短縮あり≫ <休 12/31>","uri":"https://www.michi-no-eki.jp/stations/views/18982","mapcode":"88 676 435"}},{"type":"Feature","geometry":{"type":"Point","coordinates":[140.052933,39.5420844]},"properties":{"prefId":"12","stationId":"18983","internalId":"195","name":"岩城","address":"018-1301 秋田県由利本荘市岩城内道川 字新鶴潟192-43","tel":"0184-73-2700","hours":"9:00〜18:30(4月〜10月)、9:00〜18:00(11月〜3月)〔施設により異なる〕、温泉9:00〜21:00","uri":"https://www.michi-no-eki.jp/stations/views/18983","mapcode":"494 426 682"}},{"type":"Feature","geometry":{"type":"Point","coordinates":[140.077799,39.864734]},"properties":{"prefId":"12","stationId":"18984","internalId":"196","name":"しょうわ","address":"018-1415 秋田県潟上市昭和豊川竜毛字山ノ下1-1","tel":"018-855-5041","hours":"9:00〜18:00 <休 12/31〜1/1>","uri":"https://www.michi-no-eki.jp/stations/views/18984","mapcode":"88 714 382"}},{"type":"Feature","geometry":{"type":"Point","coordinates":[140.02800462680923,40.264578160807396]},"properties":{"prefId":"12","stationId":"18985","internalId":"197","name":"みねはま","address":"018-2509 秋田県山本郡八峰町峰浜沼田字ホンコ谷地147-6","tel":"0185-76-4649","hours":"9:00〜18:00≪冬期・営業時間短縮あり≫ <休 12/31〜1/3>","uri":"https://www.michi-no-eki.jp/stations/views/18985","mapcode":"598 033 383*27"}},{"type":"Feature","geometry":{"type":"Point","coordinates":[140.6258076,39.2893172]},"properties":{"prefId":"12","stationId":"18986","internalId":"198","name":"さんない","address":"019-1108 秋田県横手市山内土渕字小目倉沢34","tel":"0182-56-1600","hours":"9:00〜19:00≪冬期・営業時間短縮あり≫","uri":"https://www.michi-no-eki.jp/stations/views/18986","mapcode":"547 120 314"}},{"type":"Feature","geometry":{"type":"Point","coordinates":[140.0901559,39.4428837]},"properties":{"prefId":"12","stationId":"18987","internalId":"199","name":"おおうち","address":"018-0711 秋田県由利本荘市岩谷町字西越36","tel":"0184-62-1126","hours":"9:00〜21:00〔施設により異なる〕","uri":"https://www.michi-no-eki.jp/stations/views/18987","mapcode":"494 071 726"}},{"type":"Feature","geometry":{"type":"Point","coordinates":[140.456774,39.901824]},"properties":{"prefId":"12","stationId":"18988","internalId":"200","name":"あに","address":"018-4735 秋田県北秋田市阿仁比立内字家ノ後8-1","tel":"0186-69-2575","hours":"9:00〜17:00<年中>、レストラン  11:00〜14:00<年中>、<休 12月〜3月の毎週火曜日、12/31〜1/2>","uri":"https://www.michi-no-eki.jp/stations/views/18988","mapcode":"686 520 786"}},{"type":"Feature","geometry":{"type":"Point","coordinates":[140.585214,40.219348]},"properties":{"prefId":"12","stationId":"18989","internalId":"201","name":"ひない","address":"018-5701 秋田県大館市比内町扇田字新大堤下93-11","tel":"0186-55-1000","hours":"9:00〜20:00〔施設により異なる〕 <休 12/31〜1/2、レストランは毎週月曜日>","uri":"https://www.michi-no-eki.jp/stations/views/18989","mapcode":"229 475 889"}},{"type":"Feature","geometry":{"type":"Point","coordinates":[140.1442137,39.9470864]},"properties":{"prefId":"12","stationId":"18990","internalId":"202","name":"五城目","address":"018-1856 秋田県南秋田郡五城目町富津内下山内字上広ヶ野76-1","tel":"018-879-8411","hours":"◇物産館 9:00〜18:00(12月〜3月 17:00) ◇レストラン 11:00〜15:30 ◇軽食 9:00〜18:00(12月〜3月17:00)","uri":"https://www.michi-no-eki.jp/stations/views/18990","mapcode":"456 707 291"}},{"type":"Feature","geometry":{"type":"Point","coordinates":[140.2915146,39.1095406]},"properties":{"prefId":"12","stationId":"18991","internalId":"203","name":"清水の里・鳥海郷","address":"015-0721 秋田県由利本荘市鳥海町上笹子字堺台100","tel":"0184-59-2022","hours":"8:30〜18:00 <休 12/31〜1/2>","uri":"https://www.michi-no-eki.jp/stations/views/18991","mapcode":"668 680 700"}},{"type":"Feature","geometry":{"type":"Point","coordinates":[140.5675681,39.3789953]},"properties":{"prefId":"12","stationId":"18992","internalId":"204","name":"美郷","address":"019-1302 秋田県仙北郡美郷町金沢字下舘124","tel":"0182-37-3000","hours":"9:00〜19:00 ≪冬期・営業時間短縮あり≫ <休 1/1>","uri":"https://www.michi-no-eki.jp/stations/views/18992","mapcode":"138 473 135"}},{"type":"Feature","geometry":{"type":"Point","coordinates":[140.362517,39.61884]},"properties":{"prefId":"12","stationId":"18993","internalId":"205","name":"協和","address":"019-2412 秋田県大仙市協和荒川字新田表15-2","tel":"018-881-6646","hours":"9:00〜18:00 (冬期9:00〜17:00)※諸般の事情により時間短縮営業を行う場合があります。事前に確認をお願い致します。","uri":"https://www.michi-no-eki.jp/stations/views/18993","mapcode":"303 418 806"}},{"type":"Feature","geometry":{"type":"Point","coordinates":[140.521447,39.226174]},"properties":{"prefId":"12","stationId":"18994","internalId":"206","name":"十文字","address":"019-0529 秋田県横手市十文字町字海道下21-4","tel":"0182-23-9320","hours":"9:00〜18:00≪元日は休業・催事等で時間変更あり≫","uri":"https://www.michi-no-eki.jp/stations/views/18994","mapcode":"212 797 689"}},{"type":"Feature","geometry":{"type":"Point","coordinates":[139.9515185,40.0153495]},"properties":{"prefId":"12","stationId":"18995","internalId":"207","name":"おおがた","address":"010-0445 秋田県南秋田郡大潟村字西5-2","tel":"0185-22-4141","hours":"8:00〜18:00≪冬期・営業時間短縮あり≫ <休 1/1〜1/2>","uri":"https://www.michi-no-eki.jp/stations/views/18995","mapcode":"351 654 437"}},{"type":"Feature","geometry":{"type":"Point","coordinates":[140.061005,39.7527085]},"properties":{"prefId":"12","stationId":"18996","internalId":"208","name":"あきた港","address":"011-0945 秋田県秋田市土崎港西1-9-1","tel":"018-857-3381","hours":"9:00〜21:00〔施設により異なる〕","uri":"https://www.michi-no-eki.jp/stations/views/18996","mapcode":"88 292 861"}},{"type":"Feature","geometry":{"type":"Point","coordinates":[140.781686,40.356598]},"properties":{"prefId":"12","stationId":"18997","internalId":"209","name":"こさか七滝","address":"017-0203 秋田県鹿角郡小坂町上向字藤原35-3","tel":"0186-22-4577","hours":"9:00〜17:00(4/15〜10/31)【冬期間は物産施設等が閉鎖】令和7年11月1日(土) 〜 令和8年4月15日(水)予定  道の駅は年中開放","uri":"https://www.michi-no-eki.jp/stations/views/18997","mapcode":"839 664 396"}},{"type":"Feature","geometry":{"type":"Point","coordinates":[140.3721642298802,40.19552796589076]},"properties":{"prefId":"12","stationId":"18998","internalId":"210","name":"大館能代空港","address":"018-3454 秋田県北秋田市脇神字カラムシ岱21-144","tel":"0186-62-5330","hours":"7:45〜19:00","uri":"https://www.michi-no-eki.jp/stations/views/18998","mapcode":"395 704 029"}},{"type":"Feature","geometry":{"type":"Point","coordinates":[139.874501,38.5869944]},"properties":{"prefId":"15","stationId":"18999","internalId":"211","name":"月山","address":"997-0403 山形県鶴岡市越中山字名平3-1","tel":"0235-53-3411","hours":"9:00〜17:00 <休 12〜3月の第4月曜日>","uri":"https://www.michi-no-eki.jp/stations/views/18999","mapcode":"523 615 070"}},{"type":"Feature","geometry":{"type":"Point","coordinates":[140.328447,38.41304]},"properties":{"prefId":"15","stationId":"19000","internalId":"212","name":"河北","address":"999-3511 山形県西村山郡河北町谷地字真木335-1","tel":"0237-72-2870","hours":"9:00〜17:00","uri":"https://www.michi-no-eki.jp/stations/views/19000","mapcode":"62 579 204"}},{"type":"Feature","geometry":{"type":"Point","coordinates":[140.269891,38.399013]},"properties":{"prefId":"15","stationId":"19001","internalId":"213","name":"寒河江","address":"990-0523 山形県寒河江市大字八鍬字川原919-8","tel":"0237-86-1818","hours":"9:00〜18:00≪冬期・営業時間短縮あり≫","uri":"https://www.michi-no-eki.jp/stations/views/19001","mapcode":"62 512 446"}},{"type":"Feature","geometry":{"type":"Point","coordinates":[139.5581086,38.580422]},"properties":{"prefId":"15","stationId":"19002","internalId":"214","name":"あつみ","address":"999-7121 山形県鶴岡市早田字戸ノ浦606","tel":"0235-44-3211","hours":"8:00〜18:00(冬季は8:30〜17:30) <休 毎月最終水曜日(7・8月を除く)、12/31〜1/1>","uri":"https://www.michi-no-eki.jp/stations/views/19002","mapcode":"449 577 252"}},{"type":"Feature","geometry":{"type":"Point","coordinates":[140.099237,38.436059]},"properties":{"prefId":"15","stationId":"19003","internalId":"215","name":"にしかわ","address":"990-0742 山形県西村山郡西川町大字水沢2304","tel":"0237-74-2100","hours":"9:00〜17:00 <休 年末年始>","uri":"https://www.michi-no-eki.jp/stations/views/19003","mapcode":"837 657 879"}},{"type":"Feature","geometry":{"type":"Point","coordinates":[139.994671,38.026065]},"properties":{"prefId":"15","stationId":"19004","internalId":"216","name":"いいで","address":"999-0606 山形県西置賜郡飯豊町大字松原1898","tel":"0238-86-3939","hours":"9:00〜18:00(12〜3月は10:00〜17:00) <休 12/31〜1/1・12月〜3月の第二水曜・第四水曜(変更の可能性あり)>","uri":"https://www.michi-no-eki.jp/stations/views/19004","mapcode":"515 674 712"}},{"type":"Feature","geometry":{"type":"Point","coordinates":[140.3823105,38.4871462]},"properties":{"prefId":"15","stationId":"19005","internalId":"217","name":"むらやま","address":"995-0025 山形県村山市大字楯岡7635-1","tel":"0237-55-7100","hours":"9:00〜18:00(季節変更あり)","uri":"https://www.michi-no-eki.jp/stations/views/19005","mapcode":"62 856 098"}},{"type":"Feature","geometry":{"type":"Point","coordinates":[140.161431,38.728688]},"properties":{"prefId":"15","stationId":"19006","internalId":"218","name":"とざわ","address":"999-6402 山形県最上郡戸沢村大字蔵岡字黒渕3008-1","tel":"0233-72-3303","hours":"9:00〜17:30〔施設により異なる〕","uri":"https://www.michi-no-eki.jp/stations/views/19006","mapcode":"221 214 083"}},{"type":"Feature","geometry":{"type":"Point","coordinates":[139.875583,39.060163]},"properties":{"prefId":"15","stationId":"19007","internalId":"219","name":"鳥海","address":"999-8531 山形県飽海郡遊佐町大字菅里字菅野308-1","tel":"0234-71-7222","hours":"9:00〜18:00(3月〜10月)、9:00〜17:00(11〜2月) < 休   1/1 >","uri":"https://www.michi-no-eki.jp/stations/views/19007","mapcode":"352 495 794"}},{"type":"Feature","geometry":{"type":"Point","coordinates":[139.9841823,37.8776582]},"properties":{"prefId":"15","stationId":"19008","internalId":"220","name":"田沢","address":"992-1583 山形県米沢市大字入田沢573-19","tel":"0238-31-2753","hours":"9:00〜18:00 ≪冬期・営業時間短縮あり≫ <休 1/1>","uri":"https://www.michi-no-eki.jp/stations/views/19008","mapcode":"515 133 825"}},{"type":"Feature","geometry":{"type":"Point","coordinates":[139.7306094,38.0719561]},"properties":{"prefId":"15","stationId":"19009","internalId":"221","name":"白い森おぐに","address":"999-1363 山形県西置賜郡小国町大字小国小坂町616-1","tel":"0238-62-3719","hours":"売店 白い森のくまさん・ぶな茶屋軽食コーナー9:00〜17:00 お母さん食堂あいあい11:30〜14:00 <休 1/1>(あいあいのみ毎週火曜定休)","uri":"https://www.michi-no-eki.jp/stations/views/19009","mapcode":"555 553 242"}},{"type":"Feature","geometry":{"type":"Point","coordinates":[140.213291,38.367756]},"properties":{"prefId":"15","stationId":"19010","internalId":"222","name":"おおえ","address":"990-1121 山形県西村山郡大江町大字藤田218-6","tel":"0237-62-5845","hours":"9:00〜18:00 <休 12/31〜1/1>","uri":"https://www.michi-no-eki.jp/stations/views/19010","mapcode":"407 716 660"}},{"type":"Feature","geometry":{"type":"Point","coordinates":[139.8463299,38.7828046]},"properties":{"prefId":"15","stationId":"19011","internalId":"223","name":"庄内みかわ","address":"997-1301 山形県東田川郡三川町大字横山字堤172-1","tel":"0235-68-2500","hours":"9:00〜16:00 <休 12/31午後〜1/3>","uri":"https://www.michi-no-eki.jp/stations/views/19011","mapcode":"90 401 478"}},{"type":"Feature","geometry":{"type":"Point","coordinates":[140.217442,38.006775]},"properties":{"prefId":"15","stationId":"19012","internalId":"224","name":"たかはた","address":"992-0302 山形県東置賜郡高畠町大字安久津2072-1","tel":"0238-52-5433","hours":"9:00〜17:30≪冬期・営業時間短縮あり≫","uri":"https://www.michi-no-eki.jp/stations/views/19012","mapcode":"127 326 374"}},{"type":"Feature","geometry":{"type":"Point","coordinates":[140.387127,38.354481]},"properties":{"prefId":"15","stationId":"19013","internalId":"225","name":"天童温泉","address":"994-0028 山形県天童市鍬ノ町二丁目3番41号","tel":"023-651-2002","hours":"9:00〜18:00","uri":"https://www.michi-no-eki.jp/stations/views/19013","mapcode":"62 376 145"}},{"type":"Feature","geometry":{"type":"Point","coordinates":[140.3636879,38.6569024]},"properties":{"prefId":"15","stationId":"19014","internalId":"226","name":"尾花沢","address":"999-4554 山形県尾花沢市芦沢1195-1","tel":"0237-24-3535","hours":"9:00〜18:00 <休 1/1>","uri":"https://www.michi-no-eki.jp/stations/views/19014","mapcode":"522 869 421"}},{"type":"Feature","geometry":{"type":"Point","coordinates":[140.0973224,38.2181108]},"properties":{"prefId":"15","stationId":"19015","internalId":"227","name":"白鷹ヤナ公園","address":"992-0862 山形県西置賜郡白鷹町大字下山661-1","tel":"0238-85-5577","hours":"10:00〜18:00≪冬期・営業時間短縮あり≫ <休 毎週水曜日>","uri":"https://www.michi-no-eki.jp/stations/views/19015","mapcode":"407 162 692"}},{"type":"Feature","geometry":{"type":"Point","coordinates":[140.334294,37.65512]},"properties":{"prefId":"16","stationId":"19016","internalId":"228","name":"つちゆ","address":"960-1243 福島県福島市松川町水原字南沢41-2","tel":"0243-24-2148","hours":"9:00〜18:00≪冬期・営業時間短縮あり≫","uri":"https://www.michi-no-eki.jp/stations/views/19016","mapcode":"377 865 195"}},{"type":"Feature","geometry":{"type":"Point","coordinates":[140.5766931,37.6678183]},"properties":{"prefId":"16","stationId":"19017","internalId":"229","name":"川俣","address":"960-1406 福島県伊達郡川俣町大字鶴沢字東13-1","tel":"024-566-5253","hours":"9:00〜17:00 <休 12/31〜1/1>","uri":"https://www.michi-no-eki.jp/stations/views/19017","mapcode":"129 894 678"}},{"type":"Feature","geometry":{"type":"Point","coordinates":[139.7275995,37.0865496]},"properties":{"prefId":"16","stationId":"19018","internalId":"230","name":"たじま","address":"967-0014 福島県南会津郡南会津町糸沢 字男鹿沼原3242-8","tel":"0241-66-3333","hours":"7:00〜19:00(12月〜3月は7:00〜18:00まで)","uri":"https://www.michi-no-eki.jp/stations/views/19018","mapcode":"510 027 021"}},{"type":"Feature","geometry":{"type":"Point","coordinates":[140.483688,37.635666]},"properties":{"prefId":"16","stationId":"19019","internalId":"231","name":"道の駅「安達」智恵子の里 上り線","address":"9691511 福島県二本松市下川崎字上平33-1","tel":"0243613100","hours":"9:00〜18:00 〔店舗により異なる〕","uri":"https://www.michi-no-eki.jp/stations/views/19019","mapcode":"129 763 823"}},{"type":"Feature","geometry":{"type":"Point","coordinates":[139.8782643,37.7019379]},"properties":{"prefId":"16","stationId":"19020","internalId":"232","name":"喜多の郷","address":"966-0901 福島県喜多方市松山町鳥見山字三町歩5598-1","tel":"0241-21-1139","hours":"売店9:30〜18:00(最終入館17:45) レストラン11:00〜18:00(Lo17:30)≪夏期・営業時間延長あり≫<休 年末年始>","uri":"https://www.michi-no-eki.jp/stations/views/19020","mapcode":"413 690 713"}},{"type":"Feature","geometry":{"type":"Point","coordinates":[140.0437534,37.6650583]},"properties":{"prefId":"16","stationId":"19021","internalId":"233","name":"裏磐梯","address":"966-0401 福島県耶麻郡北塩原村大字桧原字南黄連沢山1157","tel":"0241-33-2241","hours":"8:30〜17:30≪冬期・営業時間短縮あり≫<休 11月〜4月の毎週水曜日>","uri":"https://www.michi-no-eki.jp/stations/views/19021","mapcode":"413 590 379"}},{"type":"Feature","geometry":{"type":"Point","coordinates":[140.9976258,37.2500062]},"properties":{"prefId":"16","stationId":"19022","internalId":"234","name":"ならは","address":"979-0513 福島県双葉郡楢葉町大字山田岡字大堤入22-1","tel":"0240-26-1126","hours":"売店施設9:00〜18:00        温泉施設10:00〜21:00        フードコート11:00〜20:00","uri":"https://www.michi-no-eki.jp/stations/views/19022","mapcode":"863 570 513"}},{"type":"Feature","geometry":{"type":"Point","coordinates":[140.9479524,37.7611089]},"properties":{"prefId":"16","stationId":"19023","internalId":"235","name":"そうま","address":"979-2522 福島県相馬市日下石字金谷74-1","tel":"0244-37-3938","hours":"9:30〜18:00","uri":"https://www.michi-no-eki.jp/stations/views/19023","mapcode":"208 624 844"}},{"type":"Feature","geometry":{"type":"Point","coordinates":[140.4145197,36.9506187]},"properties":{"prefId":"16","stationId":"19024","internalId":"236","name":"はなわ","address":"963-5405 福島県東白川郡塙町大字塙字桜木町388-1","tel":"0247-44-0123","hours":"9:00〜18:00 <休 1/1、1/2>","uri":"https://www.michi-no-eki.jp/stations/views/19024","mapcode":"225 110 604"}},{"type":"Feature","geometry":{"type":"Point","coordinates":[139.7221754,37.527693]},"properties":{"prefId":"16","stationId":"19025","internalId":"237","name":"会津柳津","address":"969-7201 福島県河沼郡柳津町字下平乙181-1","tel":"0241-42-2324","hours":"9:00〜18:00 ≪冬期・営業時間短縮あり≫","uri":"https://www.michi-no-eki.jp/stations/views/19025","mapcode":"397 387 841"}},{"type":"Feature","geometry":{"type":"Point","coordinates":[140.5773494,37.5699562]},"properties":{"prefId":"16","stationId":"19026","internalId":"238","name":"ふくしま東和","address":"964-0111 福島県二本松市太田字下田2-3","tel":"0243-46-2113","hours":"9:00〜17:00 <休 12/31・1/1・1/2>","uri":"https://www.michi-no-eki.jp/stations/views/19026","mapcode":"129 534 890"}},{"type":"Feature","geometry":{"type":"Point","coordinates":[139.6425952,37.5858675]},"properties":{"prefId":"16","stationId":"19027","internalId":"239","name":"にしあいづ","address":"969-4406 福島県耶麻郡西会津町野沢字下條乙1969-26","tel":"0241-48-1512","hours":"9:00〜19:00 <休 1/1>                                     9:00〜18:00(12/1〜3/15)","uri":"https://www.michi-no-eki.jp/stations/views/19027","mapcode":"397 587 855"}},{"type":"Feature","geometry":{"type":"Point","coordinates":[139.670802,37.4777576]},"properties":{"prefId":"16","stationId":"19028","internalId":"240","name":"尾瀬街道みしま宿","address":"969-7515 福島県大沼郡三島町大字川井字天屋原610","tel":"0241-48-5677","hours":"8:00〜18:00 <休 1/1〜1/3>","uri":"https://www.michi-no-eki.jp/stations/views/19028","mapcode":"397 200 866"}},{"type":"Feature","geometry":{"type":"Point","coordinates":[140.4181372,37.2228324]},"properties":{"prefId":"16","stationId":"19029","internalId":"241","name":"たまかわ","address":"963-7800 福島県石川郡玉川村大字岩法寺字宮ノ前140-2","tel":"0247-57-3800","hours":"8:30〜18:00","uri":"https://www.michi-no-eki.jp/stations/views/19029","mapcode":"61 200 317"}},{"type":"Feature","geometry":{"type":"Point","coordinates":[140.0633922,37.2399765]},"properties":{"prefId":"16","stationId":"19030","internalId":"242","name":"羽鳥湖高原","address":"962-0622 福島県岩瀬郡天栄村大字田良尾字芝草1-3552","tel":"0248-85-2547","hours":"9:00〜18:00","uri":"https://www.michi-no-eki.jp/stations/views/19030","mapcode":"203 848 360"}},{"type":"Feature","geometry":{"type":"Point","coordinates":[140.983582,37.635707]},"properties":{"prefId":"16","stationId":"19031","internalId":"243","name":"南相馬","address":"975-0033 福島県南相馬市原町区高見町2-30-1","tel":"0244-26-5100","hours":"9:00〜18:00〔施設により異なる〕","uri":"https://www.michi-no-eki.jp/stations/views/19031","mapcode":"208 178 823"}},{"type":"Feature","geometry":{"type":"Point","coordinates":[139.9163428,37.2035393]},"properties":{"prefId":"16","stationId":"19032","internalId":"244","name":"しもごう","address":"969-5335 福島県南会津郡下郷町大字南倉沢 字木賊844-188","tel":"0241-67-3802","hours":"8:00〜18:00(4月〜11月)、8:00〜17:00(12月〜3月)<休 12/31〜1/1>","uri":"https://www.michi-no-eki.jp/stations/views/19032","mapcode":"433 140 073"}},{"type":"Feature","geometry":{"type":"Point","coordinates":[140.5600321,37.2505454]},"properties":{"prefId":"16","stationId":"19033","internalId":"245","name":"ひらた","address":"963-8202 福島県石川郡平田村大字上蓬田字横森後160","tel":"0247-55-3501","hours":"9:30〜18:00 <休 1/1>","uri":"https://www.michi-no-eki.jp/stations/views/19033","mapcode":"300 277 588"}},{"type":"Feature","geometry":{"type":"Point","coordinates":[140.992995,37.107429]},"properties":{"prefId":"16","stationId":"19034","internalId":"246","name":"よつくら港","address":"979-0201 福島県いわき市四倉町5-218-1","tel":"0246-32-8075","hours":"9:00〜18:00〔施設により異なる〕*『11月〜2月 閉店17:00』 <休 1/1、毎週火曜日(但し 祝日、GW・お盆期間、1/2・3は営業いたします。)>","uri":"https://www.michi-no-eki.jp/stations/views/19034","mapcode":"82 689 467"}},{"type":"Feature","geometry":{"type":"Point","coordinates":[139.9866329,37.5628041]},"properties":{"prefId":"16","stationId":"19035","internalId":"247","name":"ばんだい","address":"969-3301 福島県耶麻郡磐梯町大字磐梯字十王堂38","tel":"0242-74-1091","hours":"9:00〜18:00(2021.12.1〜) 〔コーナーにより異なる〕","uri":"https://www.michi-no-eki.jp/stations/views/19035","mapcode":"97 538 143"}},{"type":"Feature","geometry":{"type":"Point","coordinates":[140.5297735,37.0931301]},"properties":{"prefId":"16","stationId":"19036","internalId":"248","name":"ふるどの","address":"963-8306 福島県石川郡古殿町大字田口字平舘25","tel":"0247-53-4070","hours":"9:00〜18:00 <休 年末年始>","uri":"https://www.michi-no-eki.jp/stations/views/19036","mapcode":"425 603 749"}},{"type":"Feature","geometry":{"type":"Point","coordinates":[139.6154861,37.0688217]},"properties":{"prefId":"16","stationId":"19037","internalId":"249","name":"番屋","address":"967-0324 福島県南会津郡南会津町番屋4","tel":"0241-78-2785","hours":"8:00〜17:00<休 毎週火曜日、木曜日(冬期のみ)、12/29〜1/1>","uri":"https://www.michi-no-eki.jp/stations/views/19037","mapcode":"716 524 787"}},{"type":"Feature","geometry":{"type":"Point","coordinates":[140.2447857,37.2436603]},"properties":{"prefId":"16","stationId":"19038","internalId":"250","name":"季の里天栄","address":"962-0504 福島県岩瀬郡天栄村大字大里字天房41-2","tel":"0248-81-1455","hours":"9:00〜17:30<休 第1水曜日12/31〜1/3>","uri":"https://www.michi-no-eki.jp/stations/views/19038","mapcode":"203 869 773"}},{"type":"Feature","geometry":{"type":"Point","coordinates":[139.5426599,37.2219817]},"properties":{"prefId":"16","stationId":"19039","internalId":"251","name":"きらら289","address":"967-0611 福島県南会津郡南会津町山口字橋尻1","tel":"0241-71-1289","hours":"10:00〜20:00(火曜日は10:00〜14:00)","uri":"https://www.michi-no-eki.jp/stations/views/19039","mapcode":"510 485 255"}},{"type":"Feature","geometry":{"type":"Point","coordinates":[139.5305827,37.4719243]},"properties":{"prefId":"16","stationId":"19040","internalId":"252","name":"奥会津かねやま","address":"968-0006 福島県大沼郡金山町大字中川字上居平949-8","tel":"0241-55-3334","hours":"9:00〜18:30<休 12/30〜1/2>","uri":"https://www.michi-no-eki.jp/stations/views/19040","mapcode":"397 184 211"}},{"type":"Feature","geometry":{"type":"Point","coordinates":[140.5902479,37.53478]},"properties":{"prefId":"16","stationId":"19041","internalId":"253","name":"さくらの郷","address":"964-0301 福島県二本松市東新殿字平石田12-2","tel":"0243-68-4770","hours":"9:00〜17:00 <休 年始>","uri":"https://www.michi-no-eki.jp/stations/views/19041","mapcode":"129 416 697"}},{"type":"Feature","geometry":{"type":"Point","coordinates":[139.8631361,37.5569993]},"properties":{"prefId":"16","stationId":"19042","internalId":"254","name":"あいづ 湯川・会津坂下","address":"969-3555  福島県河沼郡湯川村大字佐野目字五丁ノ目78-1","tel":"0241-27-8853","hours":"9:00〜18:00〔施設により異なる〕<休 1月1日 2月第3水曜日>※臨時休業あり","uri":"https://www.michi-no-eki.jp/stations/views/19042","mapcode":"97 493 417"}},{"type":"Feature","geometry":{"type":"Point","coordinates":[139.630139,37.325463]},"properties":{"prefId":"16","stationId":"19043","internalId":"255","name":"からむし織の里しょうわ","address":"968-0215 福島県大沼郡昭和村大字佐倉字上ノ原1","tel":"0241-58-1655","hours":"9:00〜17:00 <休 12/29〜1/3>","uri":"https://www.michi-no-eki.jp/stations/views/19043","mapcode":"510 855 629"}},{"type":"Feature","geometry":{"type":"Point","coordinates":[140.3330587,36.5449685]},"properties":{"prefId":"17","stationId":"19044","internalId":"256","name":"かつら","address":"311-4341 茨城県東茨城郡城里町大字御前山37","tel":"029-289-2334","hours":"9:00〜18:00(4〜9月) 9:00〜17:00(10〜3月)","uri":"https://www.michi-no-eki.jp/stations/views/19044","mapcode":"188 745 880"}},{"type":"Feature","geometry":{"type":"Point","coordinates":[140.5096817,36.7057462]},"properties":{"prefId":"17","stationId":"19045","internalId":"257","name":"さとみ","address":"311-0507 茨城県常陸太田市小菅694-3","tel":"0294-82-2100","hours":"9:00〜16:30","uri":"https://www.michi-no-eki.jp/stations/views/19045","mapcode":"379 436 286"}},{"type":"Feature","geometry":{"type":"Point","coordinates":[139.795303,36.102676]},"properties":{"prefId":"17","stationId":"19046","internalId":"258","name":"さかい","address":"306-0433 茨城県猿島郡境町1341-1","tel":"0280-87-5011","hours":"9:00〜18:00<休 12/30〜1/1、2月・9月第2月曜日(祝日の場合はその翌日)>","uri":"https://www.michi-no-eki.jp/stations/views/19046","mapcode":"45 350 864"}},{"type":"Feature","geometry":{"type":"Point","coordinates":[140.3592347,36.7685851]},"properties":{"prefId":"17","stationId":"19047","internalId":"259","name":"奥久慈だいご","address":"319-3551 茨城県久慈郡大子町大字池田2830-1","tel":"0295-72-6111","hours":"9:00〜18:00 <休 毎月第1・第3水曜日(祝日の場合は翌日)、12/31・1/1>","uri":"https://www.michi-no-eki.jp/stations/views/19047","mapcode":"222 658 765"}},{"type":"Feature","geometry":{"type":"Point","coordinates":[139.9865962,36.2158407]},"properties":{"prefId":"17","stationId":"19048","internalId":"260","name":"しもつま","address":"304-0016 茨城県下妻市数須140","tel":"0296-30-5294","hours":"8:00〜20:00〔施設により異なる〕","uri":"https://www.michi-no-eki.jp/stations/views/19048","mapcode":"123 463 682*26"}},{"type":"Feature","geometry":{"type":"Point","coordinates":[140.4037633,36.0963942]},"properties":{"prefId":"17","stationId":"19049","internalId":"261","name":"たまつくり","address":"311-3512 茨城県行方市玉造甲1963-5","tel":"0299-36-2781","hours":"9:00〜18:00","uri":"https://www.michi-no-eki.jp/stations/views/19049","mapcode":"162 633 144"}},{"type":"Feature","geometry":{"type":"Point","coordinates":[140.5892448,35.9461322]},"properties":{"prefId":"17","stationId":"19050","internalId":"262","name":"いたこ","address":"311-2416 茨城県潮来市前川1326-1","tel":"0299-67-1161","hours":"9:00〜19:00","uri":"https://www.michi-no-eki.jp/stations/views/19050","mapcode":"162 116 093"}},{"type":"Feature","geometry":{"type":"Point","coordinates":[139.7583317,36.0952767]},"properties":{"prefId":"17","stationId":"19051","internalId":"263","name":"ごか","address":"306-0308 茨城県猿島郡五霞町ごかみらい13-3","tel":"0280-84-1000","hours":"9:00〜18:00(店舗により異なる)、【休】第1・第3月曜日(祝日の場合は翌日休み)","uri":"https://www.michi-no-eki.jp/stations/views/19051","mapcode":"45 346 041"}},{"type":"Feature","geometry":{"type":"Point","coordinates":[139.789732,36.191431]},"properties":{"prefId":"17","stationId":"19052","internalId":"264","name":"まくらがの里 こが","address":"306-0111  茨城県古河市大和田2623","tel":"0280-23-2661","hours":"9:00〜20:00〔施設により異なる〕","uri":"https://www.michi-no-eki.jp/stations/views/19052","mapcode":"45 680 514"}},{"type":"Feature","geometry":{"type":"Point","coordinates":[140.6151942,36.4923537]},"properties":{"prefId":"17","stationId":"19053","internalId":"265","name":"日立おさかなセンター","address":"319-1223 茨城県日立市みなと町5779-24","tel":"0294-54-0833","hours":"9:00〜18:00(1月〜3月 9:00〜17:00)                    ※店舗により営業時間、定休日が異なります。","uri":"https://www.michi-no-eki.jp/stations/views/19053","mapcode":"47 569 637"}},{"type":"Feature","geometry":{"type":"Point","coordinates":[140.1728576,36.5278259]},"properties":{"prefId":"18","stationId":"19054","internalId":"266","name":"もてぎ","address":"321-3531 栃木県芳賀郡茂木町大字茂木1090-1","tel":"0285-63-5671","hours":"9:00〜19:00(施設により異なる)〔10月〜3月は18:00まで〕","uri":"https://www.michi-no-eki.jp/stations/views/19054","mapcode":"188 666 844"}},{"type":"Feature","geometry":{"type":"Point","coordinates":[139.964996,36.3673361]},"properties":{"prefId":"18","stationId":"19055","internalId":"267","name":"にのみや","address":"321-4521 栃木県真岡市久下田2204-1","tel":"0285-73-1110","hours":"9:00〜17:00(季節により変更あり)","uri":"https://www.michi-no-eki.jp/stations/views/19055","mapcode":"74 416 635"}},{"type":"Feature","geometry":{"type":"Point","coordinates":[139.8993301,36.9557969]},"properties":{"prefId":"18","stationId":"19056","internalId":"268","name":"湯の香しおばら","address":"329-2801 栃木県那須塩原市関谷442","tel":"0287-35-3420","hours":"9:00〜17:00 (12〜2月 は9:00〜16:00)","uri":"https://www.michi-no-eki.jp/stations/views/19056","mapcode":"121 723 249"}},{"type":"Feature","geometry":{"type":"Point","coordinates":[140.0137036,37.0415321]},"properties":{"prefId":"18","stationId":"19057","internalId":"269","name":"那須高原友愛の森","address":"325-0303 栃木県那須郡那須町大字高久乙593-8","tel":"0287-78-0233","hours":"8:00〜17:30(10月〜3月は9:00〜17:00)〔各施設季節により異なる〕","uri":"https://www.michi-no-eki.jp/stations/views/19057","mapcode":"203 122 540"}},{"type":"Feature","geometry":{"type":"Point","coordinates":[139.984479,37.000375]},"properties":{"prefId":"18","stationId":"19058","internalId":"270","name":"明治の森・黒磯","address":"325-0103 栃木県那須塩原市青木27","tel":"0287-63-0399","hours":"8:30〜17:00(12〜2月は8:30〜16:30)","uri":"https://www.michi-no-eki.jp/stations/views/19058","mapcode":"121 883 588"}},{"type":"Feature","geometry":{"type":"Point","coordinates":[140.1498715,36.7476018]},"properties":{"prefId":"18","stationId":"19059","internalId":"271","name":"ばとう","address":"324-0617 栃木県那須郡那珂川町北向田181-2","tel":"0287-92-5711","hours":"●直売所 8:00〜17:00  ●レストラン[平日]▶11:00〜17:30(ラストオーダー:17:00)土日祝▶11:00〜19:30(ラストオーダー:19:00)","uri":"https://www.michi-no-eki.jp/stations/views/19059","mapcode":"222 573 312"}},{"type":"Feature","geometry":{"type":"Point","coordinates":[140.157412,36.9540486]},"properties":{"prefId":"18","stationId":"19060","internalId":"272","name":"東山道伊王野","address":"329-3436 栃木県那須郡那須町大字伊王野459","tel":"0287-75-0653","hours":"8:30〜17:00(施設により異なる)","uri":"https://www.michi-no-eki.jp/stations/views/19060","mapcode":"779 124 068"}},{"type":"Feature","geometry":{"type":"Point","coordinates":[140.0326363,36.7154994]},"properties":{"prefId":"18","stationId":"19061","internalId":"273","name":"きつれがわ","address":"329-1412 栃木県さくら市喜連川4145-10","tel":"028-686-8180","hours":"9:00〜18:00","uri":"https://www.michi-no-eki.jp/stations/views/19061","mapcode":"529 154 399"}},{"type":"Feature","geometry":{"type":"Point","coordinates":[139.5720735,36.3438044]},"properties":{"prefId":"18","stationId":"19062","internalId":"274","name":"どまんなか たぬま","address":"327-0313 栃木県佐野市吉水町366-2","tel":"0283-61-0077","hours":"9:30〜19:00(施設により異なる)現在1時間時短営業中に18:00まで","uri":"https://www.michi-no-eki.jp/stations/views/19062","mapcode":"64 609 750"}},{"type":"Feature","geometry":{"type":"Point","coordinates":[140.0581962,36.5523813]},"properties":{"prefId":"18","stationId":"19063","internalId":"275","name":"はが","address":"321-3304 栃木県芳賀郡芳賀町大字祖母井842-1","tel":"028-677-6000","hours":"9:00〜17:00","uri":"https://www.michi-no-eki.jp/stations/views/19063","mapcode":"39 472 790"}},{"type":"Feature","geometry":{"type":"Point","coordinates":[140.0873784,36.8630177]},"properties":{"prefId":"18","stationId":"19064","internalId":"276","name":"那須与一の郷","address":"324-0012 栃木県大田原市南金丸1584-6","tel":"0287-23-8641","hours":"9:00〜18:00                                 休み:12月〜3月第2週の毎月曜日(月曜祝日の場合は翌日)1月1・2・3日","uri":"https://www.michi-no-eki.jp/stations/views/19064","mapcode":"121 415 117"}},{"type":"Feature","geometry":{"type":"Point","coordinates":[139.969139,36.899706]},"properties":{"prefId":"18","stationId":"19065","internalId":"277","name":"那須野が原博物館","address":"329-2752 栃木県那須塩原市三島5-1","tel":"0287-36-0949","hours":"9:00〜17:00(展示室への入場は16:30まで)<休み 月曜日(休日は開館)、年末年始、くん蒸期間中>","uri":"https://www.michi-no-eki.jp/stations/views/19065","mapcode":"121 521 530"}},{"type":"Feature","geometry":{"type":"Point","coordinates":[139.625248,36.296714]},"properties":{"prefId":"18","stationId":"19066","internalId":"278","name":"みかも","address":"323-1107 栃木県栃木市藤岡町大和田678","tel":"0282-62-0990","hours":"8:30〜20:00(施設により異なる)","uri":"https://www.michi-no-eki.jp/stations/views/19066","mapcode":"64 465 192"}},{"type":"Feature","geometry":{"type":"Point","coordinates":[139.7607461,36.3081818]},"properties":{"prefId":"18","stationId":"19067","internalId":"279","name":"思川","address":"323-0065 栃木県小山市大字下国府塚25-1","tel":"0285-38-0201","hours":"9:00〜18:00<店舗・季節により異なる>","uri":"https://www.michi-no-eki.jp/stations/views/19067","mapcode":"74 181 528"}},{"type":"Feature","geometry":{"type":"Point","coordinates":[139.686957,36.930014]},"properties":{"prefId":"18","stationId":"19068","internalId":"280","name":"湯西川","address":"321-2603 栃木県日光市西川478-1","tel":"0288-78-1222","hours":"9:00〜17:00(施設により異なる)","uri":"https://www.michi-no-eki.jp/stations/views/19068","mapcode":"716 052 204"}},{"type":"Feature","geometry":{"type":"Point","coordinates":[139.8069587,36.4552686]},"properties":{"prefId":"18","stationId":"19069","internalId":"281","name":"みぶ","address":"321-0211  栃木県下都賀郡壬生町大字国谷1870-2","tel":"0282-82-3591","hours":"9:00〜19:00(施設により異なる)","uri":"https://www.michi-no-eki.jp/stations/views/19069","mapcode":"74 727 216"}},{"type":"Feature","geometry":{"type":"Point","coordinates":[139.7431798,36.4666875]},"properties":{"prefId":"18","stationId":"19070","internalId":"282","name":"にしかた","address":"322-0604 栃木県栃木市西方町元369-1","tel":"0282-92-0990","hours":"9:00〜17:00<施設により異なる>","uri":"https://www.michi-no-eki.jp/stations/views/19070","mapcode":"722 164 527"}},{"type":"Feature","geometry":{"type":"Point","coordinates":[139.8837638,36.3972222]},