{"type": "FeatureCollection", "features": [{"geometry": {"type": "Point", "coordinates": [141.8045499, 43.2466006]}, "type": "Feature", "properties": {"name": "三笠", "address": "北海道三笠市岡山1056番地1", "station_id": "mikasa", "pref_id": "hokkaido", "uri": "http://www.michi-no-eki.jp/michinoeki/hokkaido/mikasa/"}}, {"geometry": {"type": "Point", "coordinates": [142.1888941, 43.5255178]}, "type": "Feature", "properties": {"name": "スタープラザ 芦別", "address": "北海道芦別市北4条東1丁目1番地", "station_id": "suta%ef%bd%b0puraza-ashibetsu", "pref_id": "hokkaido", "uri": "http://www.michi-no-eki.jp/michinoeki/hokkaido/suta%ef%bd%b0puraza-ashibetsu/"}}, {"geometry": {"type": "Point", "coordinates": [142.5727983, 43.1697013]}, "type": "Feature", "properties": {"name": "南ふらの", "address": "北海道空知郡南富良野町字幾寅687", "station_id": "minamifurano", "pref_id": "hokkaido", "uri": "http://www.michi-no-eki.jp/michinoeki/hokkaido/minamifurano/"}}, {"geometry": {"type": "Point", "coordinates": [144.1981267, 42.9927351]}, "type": "Feature", "properties": {"name": "しらぬか恋問", "address": "北海道白糠郡白糠町コイトイ40番地3", "station_id": "shiranuka-koitoi", "pref_id": "hokkaido", "uri": "http://www.michi-no-eki.jp/michinoeki/hokkaido/shiranuka-koitoi/"}}, {"geometry": {"type": "Point", "coordinates": [142.3200331, 44.5588576]}, "type": "Feature", "properties": {"name": "びふか", "address": "北海道中川郡美深町字大手307番地1", "station_id": "bifuka", "pref_id": "hokkaido", "uri": "http://www.michi-no-eki.jp/michinoeki/hokkaido/bifuka/"}}, {"geometry": {"type": "Point", "coordinates": [140.1392974, 41.8943396]}, "type": "Feature", "properties": {"name": "江差", "address": "北海道檜山郡江差町字尾山町1番地", "station_id": "esashi", "pref_id": "hokkaido", "uri": "http://www.michi-no-eki.jp/michinoeki/hokkaido/esashi/"}}, {"geometry": {"type": "Point", "coordinates": [141.0966168, 42.8551796]}, "type": "Feature", "properties": {"name": "望羊中山", "address": "北海道虻田郡喜茂別町字川上345番地", "station_id": "boyo-nakayama", "pref_id": "hokkaido", "uri": "http://www.michi-no-eki.jp/michinoeki/hokkaido/boyo-nakayama/"}}, {"geometry": {"type": "Point", "coordinates": [141.7935889, 44.7141176]}, "type": "Feature", "properties": {"name": "富士見", "address": "北海道天塩郡遠別町字富士見46番地1", "station_id": "fujimi", "pref_id": "hokkaido", "uri": "http://www.michi-no-eki.jp/michinoeki/hokkaido/fujimi/"}}, {"geometry": {"type": "Point", "coordinates": [143.2991945, 42.5588618]}, "type": "Feature", "properties": {"name": "忠類", "address": "北海道中川郡幕別町忠類白銀町384番地12", "station_id": "chuurui", "pref_id": "hokkaido", "uri": "http://www.michi-no-eki.jp/michinoeki/hokkaido/chuurui/"}}, {"geometry": {"type": "Point", "coordinates": [143.4806105, 43.2522652]}, "type": "Feature", "properties": {"name": "足寄湖", "address": "北海道足寄郡足寄町中矢673番地4", "station_id": "ashoroko", "pref_id": "hokkaido", "uri": "http://www.michi-no-eki.jp/michinoeki/hokkaido/ashoroko/"}}, {"geometry": {"type": "Point", "coordinates": [144.4477354, 43.4923275]}, "type": "Feature", "properties": {"name": "摩周温泉", "address": "北海道川上郡弟子屈町湯の島3丁目5番5", "station_id": "mashuuonsen", "pref_id": "hokkaido", "uri": "http://www.michi-no-eki.jp/michinoeki/hokkaido/mashuuonsen/"}}, {"geometry": {"type": "Point", "coordinates": [142.2578444, 44.7290586]}, "type": "Feature", "properties": {"name": "おといねっぷ", "address": "北海道中川郡音威子府村字音威子府155番地", "station_id": "otoineppu", "pref_id": "hokkaido", "uri": "http://www.michi-no-eki.jp/michinoeki/hokkaido/otoineppu/"}}, {"geometry": {"type": "Point", "coordinates": [143.5956986, 44.1851816]}, "type": "Feature", "properties": {"name": "かみゆうべつ温泉チューリップの湯", "address": "北海道紋別郡湧別町中湧別中町3020番地の1", "station_id": "kamiyuubetsuonsen-chu%ef%bd%b0rippunoyu", "pref_id": "hokkaido", "uri": "http://www.michi-no-eki.jp/michinoeki/hokkaido/kamiyuubetsuonsen-chu%ef%bd%b0rippunoyu/"}}, {"geometry": {"type": "Point", "coordinates": [140.5167801, 42.9834347]}, "type": "Feature", "properties": {"name": "いわない", "address": "北海道岩内郡岩内町字万代47番地4", "station_id": "iwanai", "pref_id": "hokkaido", "uri": "http://www.michi-no-eki.jp/michinoeki/hokkaido/iwanai/"}}, {"geometry": {"type": "Point", "coordinates": [143.3287235, 43.9959412]}, "type": "Feature", "properties": {"name": "まるせっぷ", "address": "北海道紋別郡遠軽町丸瀬布元町42-2", "station_id": "maruseppu", "pref_id": "hokkaido", "uri": "http://www.michi-no-eki.jp/michinoeki/hokkaido/maruseppu/"}}, {"geometry": {"type": "Point", "coordinates": [144.8462316, 43.0567402]}, "type": "Feature", "properties": {"name": "厚岸グルメパーク", "address": "北海道厚岸郡厚岸町住の江町2丁目2番地", "station_id": "akkeshi-gurumepa%ef%bd%b0ku", "pref_id": "hokkaido", "uri": "http://www.michi-no-eki.jp/michinoeki/hokkaido/akkeshi-gurumepa%ef%bd%b0ku/"}}, {"geometry": {"type": "Point", "coordinates": [141.875302, 43.7510483]}, "type": "Feature", "properties": {"name": "サンフラワー北竜", "address": "北海道雨竜郡北竜町字板谷163番地2", "station_id": "sanfurawa%ef%bd%b0hokuryuu", "pref_id": "hokkaido", "uri": "http://www.michi-no-eki.jp/michinoeki/hokkaido/sanfurawa%ef%bd%b0hokuryuu/"}}, {"geometry": {"type": "Point", "coordinates": [142.6342261, 42.2208744]}, "type": "Feature", "properties": {"name": "みついし", "address": "北海道日高郡新ひだか町三石鳧舞161番地2", "station_id": "mitsuishi", "pref_id": "hokkaido", "uri": "http://www.michi-no-eki.jp/michinoeki/hokkaido/mitsuishi/"}}, {"geometry": {"type": "Point", "coordinates": [140.2161538, 41.9165731]}, "type": "Feature", "properties": {"name": "あっさぶ", "address": "北海道檜山郡厚沢部町緑町72-1", "station_id": "assabu", "pref_id": "hokkaido", "uri": "http://www.michi-no-eki.jp/michinoeki/hokkaido/assabu/"}}, {"geometry": {"type": "Point", "coordinates": [140.0134173, 42.6867269]}, "type": "Feature", "properties": {"name": "よってけ!島牧", "address": "北海道島牧郡島牧村字千走11番地の1", "station_id": "yottekeshimamaki", "pref_id": "hokkaido", "uri": "http://www.michi-no-eki.jp/michinoeki/hokkaido/yottekeshimamaki/"}}, {"geometry": {"type": "Point", "coordinates": [139.8814335, 42.2074831]}, "type": "Feature", "properties": {"name": "てっくいランド大成", "address": "北海道久遠郡せたな町大成区平浜378番地", "station_id": "tekkuirando-taisei", "pref_id": "hokkaido", "uri": "http://www.michi-no-eki.jp/michinoeki/hokkaido/tekkuirando-taisei/"}}, {"geometry": {"type": "Point", "coordinates": [143.3750043, 44.3283409]}, "type": "Feature", "properties": {"name": "オホーツク紋別", "address": "北海道紋別市元紋別11番地6号", "station_id": "oho%ef%bd%b0tsuku-mombetsu", "pref_id": "hokkaido", "uri": "http://www.michi-no-eki.jp/michinoeki/hokkaido/oho%ef%bd%b0tsuku-mombetsu/"}}, {"geometry": {"type": "Point", "coordinates": [140.5681829, 42.1022506]}, "type": "Feature", "properties": {"name": "YOU･遊･もり", "address": "北海道茅部郡森町字上台町326-18", "station_id": "yuu-yuu-mori", "pref_id": "hokkaido", "uri": "http://www.michi-no-eki.jp/michinoeki/hokkaido/yuu-yuu-mori/"}}, {"geometry": {"type": "Point", "coordinates": [143.5005308, 43.7546445]}, "type": "Feature", "properties": {"name": "おんねゆ温泉", "address": "北海道北見市留辺蘂町松山1-4", "station_id": "onneyuonsen", "pref_id": "hokkaido", "uri": "http://www.michi-no-eki.jp/michinoeki/hokkaido/onneyuonsen/"}}, {"geometry": {"type": "Point", "coordinates": [140.1062194, 42.0113971]}, "type": "Feature", "properties": {"name": "ルート229元和台", "address": "北海道爾志郡乙部町字元和169番地", "station_id": "ru%ef%bd%b0to229-gennadai", "pref_id": "hokkaido", "uri": "http://www.michi-no-eki.jp/michinoeki/hokkaido/ru%ef%bd%b0to229-gennadai/"}}, {"geometry": {"type": "Point", "coordinates": [141.8888016, 43.4332722]}, "type": "Feature", "properties": {"name": "ハウスヤルビ奈井江", "address": "北海道空知郡奈井江町字奈井江28番地1", "station_id": "hausuyarubi-naie", "pref_id": "hokkaido", "uri": "http://www.michi-no-eki.jp/michinoeki/hokkaido/hausuyarubi-naie/"}}, {"geometry": {"type": "Point", "coordinates": [141.6545521, 44.1499867]}, "type": "Feature", "properties": {"name": "おびら鰊番屋", "address": "北海道留萌郡小平町字鬼鹿広富", "station_id": "obiranishimbanya", "pref_id": "hokkaido", "uri": "http://www.michi-no-eki.jp/michinoeki/hokkaido/obiranishimbanya/"}}, {"geometry": {"type": "Point", "coordinates": [142.631813, 44.8783757]}, "type": "Feature", "properties": {"name": "マリーンアイランド岡島", "address": "北海道枝幸郡枝幸町字岡島1978番地13", "station_id": "mari%ef%bd%b0nairandookashima", "pref_id": "hokkaido", "uri": "http://www.michi-no-eki.jp/michinoeki/hokkaido/mari%ef%bd%b0nairandookashima/"}}, {"geometry": {"type": "Point", "coordinates": [143.108823, 44.4665614]}, "type": "Feature", "properties": {"name": "おこっぺ", "address": "北海道紋別郡興部町字興部(幸町)", "station_id": "okoppe", "pref_id": "hokkaido", "uri": "http://www.michi-no-eki.jp/michinoeki/hokkaido/okoppe/"}}, {"geometry": {"type": "Point", "coordinates": [144.1469574, 43.1440197]}, "type": "Feature", "properties": {"name": "阿寒丹頂の里", "address": "北海道釧路市阿寒町上阿寒23線38番地", "station_id": "akan-tanchonosato", "pref_id": "hokkaido", "uri": "http://www.michi-no-eki.jp/michinoeki/hokkaido/akan-tanchonosato/"}}, {"geometry": {"type": "Point", "coordinates": [143.2074571, 42.9765515]}, "type": "Feature", "properties": {"name": "おとふけ", "address": "北海道河東郡音更町木野大通西19丁目5番地", "station_id": "otofuke", "pref_id": "hokkaido", "uri": "http://www.michi-no-eki.jp/michinoeki/hokkaido/otofuke/"}}, {"geometry": {"type": "Point", "coordinates": [142.2134021, 44.8774622]}, "type": "Feature", "properties": {"name": "ピンネシリ", "address": "北海道枝幸郡中頓別町字敏音知72番7", "station_id": "pinneshiri", "pref_id": "hokkaido", "uri": "http://www.michi-no-eki.jp/michinoeki/hokkaido/pinneshiri/"}}, {"geometry": {"type": "Point", "coordinates": [141.1303562, 42.69805]}, "type": "Feature", "properties": {"name": "フォーレスト276大滝", "address": "北海道伊達市大滝区三階滝町637-5", "station_id": "fo%ef%bd%b0resuto276otaki", "pref_id": "hokkaido", "uri": "http://www.michi-no-eki.jp/michinoeki/hokkaido/fo%ef%bd%b0resuto276otaki/"}}, {"geometry": {"type": "Point", "coordinates": [140.0949691, 41.8084993]}, "type": "Feature", "properties": {"name": "上ノ国もんじゅ", "address": "北海道檜山郡上ノ国町字原歌3番地", "station_id": "kaminokunimonju", "pref_id": "hokkaido", "uri": "http://www.michi-no-eki.jp/michinoeki/hokkaido/kaminokunimonju/"}}, {"geometry": {"type": "Point", "coordinates": [140.3855694, 43.1653589]}, "type": "Feature", "properties": {"name": "オスコイ!かもえない", "address": "北海道古宇郡神恵内村大字赤石村字大森292番地1", "station_id": "osukoikamoenai", "pref_id": "hokkaido", "uri": "http://www.michi-no-eki.jp/michinoeki/hokkaido/osukoikamoenai/"}}, {"geometry": {"type": "Point", "coordinates": [143.1267878, 42.6922166]}, "type": "Feature", "properties": {"name": "なかさつない", "address": "北海道河西郡中札内村大通南7丁目", "station_id": "nakasatsunai", "pref_id": "hokkaido", "uri": "http://www.michi-no-eki.jp/michinoeki/hokkaido/nakasatsunai/"}}, {"geometry": {"type": "Point", "coordinates": [141.7164386, 42.9457427]}, "type": "Feature", "properties": {"name": "マオイの丘公園", "address": "北海道夕張郡長沼町東10線南7番地", "station_id": "maoinokakoen", "pref_id": "hokkaido", "uri": "http://www.michi-no-eki.jp/michinoeki/hokkaido/maoinokakoen/"}}, {"geometry": {"type": "Point", "coordinates": [142.4420074, 42.8767898]}, "type": "Feature", "properties": {"name": "樹海ロード日高", "address": "北海道沙流郡日高町本町東1丁目298-1", "station_id": "jukairo%ef%bd%b0dohidaka", "pref_id": "hokkaido", "uri": "http://www.michi-no-eki.jp/michinoeki/hokkaido/jukairo%ef%bd%b0dohidaka/"}}, {"geometry": {"type": "Point", "coordinates": [140.899004, 42.5591385]}, "type": "Feature", "properties": {"name": "そうべつ情報館i(アイ)", "address": "北海道有珠郡壮瞥町字滝之町384-1", "station_id": "sobetsujohokanai", "pref_id": "hokkaido", "uri": "http://www.michi-no-eki.jp/michinoeki/hokkaido/sobetsujohokanai/"}}, {"geometry": {"type": "Point", "coordinates": [140.7023947, 42.7994921]}, "type": "Feature", "properties": {"name": "ニセコビュープラザ", "address": "北海道虻田郡ニセコ町字元町77番地10", "station_id": "nisekobyu%ef%bd%b0puraza", "pref_id": "hokkaido", "uri": "http://www.michi-no-eki.jp/michinoeki/hokkaido/nisekobyu%ef%bd%b0puraza/"}}, {"geometry": {"type": "Point", "coordinates": [140.3358339, 41.6012589]}, "type": "Feature", "properties": {"name": "しりうち", "address": "北海道上磯郡知内町字湯の里48番地13", "station_id": "shiriuchi", "pref_id": "hokkaido", "uri": "http://www.michi-no-eki.jp/michinoeki/hokkaido/shiriuchi/"}}, {"geometry": {"type": "Point", "coordinates": [140.251326, 41.4838023]}, "type": "Feature", "properties": {"name": "横綱の里ふくしま", "address": "北海道松前郡福島町字福島143番地の1ほか", "station_id": "yokozunanosato-fukushima", "pref_id": "hokkaido", "uri": "http://www.michi-no-eki.jp/michinoeki/hokkaido/yokozunanosato-fukushima/"}}, {"geometry": {"type": "Point", "coordinates": [142.3122909, 42.3643579]}, "type": "Feature", "properties": {"name": "サラブレッドロード新冠", "address": "北海道新冠郡新冠町字中央町1番地の20", "station_id": "sarabureddoro%ef%bd%b0do-niikappu", "pref_id": "hokkaido", "uri": "http://www.michi-no-eki.jp/michinoeki/hokkaido/sarabureddoro%ef%bd%b0do-niikappu/"}}, {"geometry": {"type": "Point", "coordinates": [143.2425854, 43.1538708]}, "type": "Feature", "properties": {"name": "ピア21しほろ", "address": "北海道河東郡士幌町字士幌西2線147番地", "station_id": "pia21-shihoro", "pref_id": "hokkaido", "uri": "http://www.michi-no-eki.jp/michinoeki/hokkaido/pia21-shihoro/"}}, {"geometry": {"type": "Point", "coordinates": [143.0815044, 44.1943416]}, "type": "Feature", "properties": {"name": "香りの里たきのうえ", "address": "北海道紋別郡滝上町旭町", "station_id": "kaorinosato-takinoe", "pref_id": "hokkaido", "uri": "http://www.michi-no-eki.jp/michinoeki/hokkaido/kaorinosato-takinoe/"}}, {"geometry": {"type": "Point", "coordinates": [141.8940224, 43.6625089]}, "type": "Feature", "properties": {"name": "田園の里うりゅう", "address": "北海道雨竜郡雨竜町字満寿28番地の3", "station_id": "denennosato-uryuu", "pref_id": "hokkaido", "uri": "http://www.michi-no-eki.jp/michinoeki/hokkaido/denennosato-uryuu/"}}, {"geometry": {"type": "Point", "coordinates": [140.9435886, 42.3419735]}, "type": "Feature", "properties": {"name": "みたら室蘭", "address": "北海道室蘭市祝津町4丁目16番地15", "station_id": "mitaramuroran", "pref_id": "hokkaido", "uri": "http://www.michi-no-eki.jp/michinoeki/hokkaido/mitaramuroran/"}}, {"geometry": {"type": "Point", "coordinates": [142.475721, 43.8370939]}, "type": "Feature", "properties": {"name": "とうま", "address": "北海道上川郡当麻町字園別2区", "station_id": "toma", "pref_id": "hokkaido", "uri": "http://www.michi-no-eki.jp/michinoeki/hokkaido/toma/"}}, {"geometry": {"type": "Point", "coordinates": [140.7887813, 43.1885383]}, "type": "Feature", "properties": {"name": "スペース・アップルよいち", "address": "北海道余市郡余市町黒川町6丁目4番地", "station_id": "supe%ef%bd%b0su-appuru-yoichi", "pref_id": "hokkaido", "uri": "http://www.michi-no-eki.jp/michinoeki/hokkaido/supe%ef%bd%b0su-appuru-yoichi/"}}, {"geometry": {"type": "Point", "coordinates": [141.7065768, 44.3673322]}, "type": "Feature", "properties": {"name": "ほっと♡はぼろ", "address": "北海道苫前郡羽幌町北3条1丁目29番地", "station_id": "hotto-haboro", "pref_id": "hokkaido", "uri": "http://www.michi-no-eki.jp/michinoeki/hokkaido/hotto-haboro/"}}, {"geometry": {"type": "Point", "coordinates": [143.8241425, 44.0999179]}, "type": "Feature", "properties": {"name": "サロマ湖", "address": "北海道常呂郡佐呂間町字浪速121番地3", "station_id": "saromako", "pref_id": "hokkaido", "uri": "http://www.michi-no-eki.jp/michinoeki/hokkaido/saromako/"}}, {"geometry": {"type": "Point", "coordinates": [143.7192064, 44.1308204]}, "type": "Feature", "properties": {"name": "愛ランド湧別", "address": "北海道紋別郡湧別町志撫子6-2", "station_id": "airando-yuubetsu", "pref_id": "hokkaido", "uri": "http://www.michi-no-eki.jp/michinoeki/hokkaido/airando-yuubetsu/"}}, {"geometry": {"type": "Point", "coordinates": [142.9597327, 44.5830367]}, "type": "Feature", "properties": {"name": "おうむ", "address": "北海道紋別郡雄武町字雄武1885番地14", "station_id": "omu", "pref_id": "hokkaido", "uri": "http://www.michi-no-eki.jp/michinoeki/hokkaido/omu/"}}, {"geometry": {"type": "Point", "coordinates": [142.1603076, 45.342711]}, "type": "Feature", "properties": {"name": "さるふつ公園", "address": "北海道宗谷郡猿払村字浜鬼志別241番地7", "station_id": "sarufutsukoen", "pref_id": "hokkaido", "uri": "http://www.michi-no-eki.jp/michinoeki/hokkaido/sarufutsukoen/"}}, {"geometry": {"type": "Point", "coordinates": [142.1443851, 44.1275711]}, "type": "Feature", "properties": {"name": "森と湖の里ほろかない", "address": "北海道雨竜郡幌加内町字政和第一", "station_id": "moritomizuuminosato-horokanai", "pref_id": "hokkaido", "uri": "http://www.michi-no-eki.jp/michinoeki/hokkaido/moritomizuuminosato-horokanai/"}}, {"geometry": {"type": "Point", "coordinates": [142.0058361, 43.5032309]}, "type": "Feature", "properties": {"name": "うたしないチロルの湯", "address": "北海道歌志内市字中村72番地1", "station_id": "utashinaichirorunoyu", "pref_id": "hokkaido", "uri": "http://www.michi-no-eki.jp/michinoeki/hokkaido/utashinaichirorunoyu/"}}, {"geometry": {"type": "Point", "coordinates": [140.3799948, 42.6727205]}, "type": "Feature", "properties": {"name": "くろまつない", "address": "北海道寿都郡黒松内町字白井川8番10", "station_id": "kuromatsunai", "pref_id": "hokkaido", "uri": "http://www.michi-no-eki.jp/michinoeki/hokkaido/kuromatsunai/"}}, {"geometry": {"type": "Point", "coordinates": [141.941478, 43.6234396]}, "type": "Feature", "properties": {"name": "たきかわ", "address": "北海道滝川市江部乙町東11丁目13番3", "station_id": "takikawa", "pref_id": "hokkaido", "uri": "http://www.michi-no-eki.jp/michinoeki/hokkaido/takikawa/"}}, {"geometry": {"type": "Point", "coordinates": [145.4384065, 43.2617463]}, "type": "Feature", "properties": {"name": "スワン44ねむろ", "address": "北海道根室市酪陽1番地", "station_id": "suwan44nemuro", "pref_id": "hokkaido", "uri": "http://www.michi-no-eki.jp/michinoeki/hokkaido/suwan44nemuro/"}}, {"geometry": {"type": "Point", "coordinates": [141.8357178, 43.4516011]}, "type": "Feature", "properties": {"name": "つるぬま", "address": "北海道樺戸郡浦臼町字ｷﾅｳｽﾅｲ186番地214", "station_id": "tsurunuma", "pref_id": "hokkaido", "uri": "http://www.michi-no-eki.jp/michinoeki/hokkaido/tsurunuma/"}}, {"geometry": {"type": "Point", "coordinates": [141.1016303, 41.7794873]}, "type": "Feature", "properties": {"name": "なとわ・えさん", "address": "北海道函館市日ノ浜町31番2", "station_id": "natowa-esan", "pref_id": "hokkaido", "uri": "http://www.michi-no-eki.jp/michinoeki/hokkaido/natowa-esan/"}}, {"geometry": {"type": "Point", "coordinates": [140.6673361, 42.1253109]}, "type": "Feature", "properties": {"name": "つど～る・プラザ・さわら", "address": "北海道茅部郡森町砂原2丁目358ー1", "station_id": "tsudo-ru-puraza-sawara", "pref_id": "hokkaido", "uri": "http://www.michi-no-eki.jp/michinoeki/hokkaido/tsudo-ru-puraza-sawara/"}}, {"geometry": {"type": "Point", "coordinates": [145.1920893, 44.0174537]}, "type": "Feature", "properties": {"name": "知床・らうす", "address": "北海道目梨郡羅臼町本町361-1", "station_id": "shiretoko-rausu", "pref_id": "hokkaido", "uri": "http://www.michi-no-eki.jp/michinoeki/hokkaido/shiretoko-rausu/"}}, {"geometry": {"type": "Point", "coordinates": [143.2718483, 42.6333115]}, "type": "Feature", "properties": {"name": "さらべつ", "address": "北海道河西郡更別村字弘和464番地1", "station_id": "sarabetsu", "pref_id": "hokkaido", "uri": "http://www.michi-no-eki.jp/michinoeki/hokkaido/sarabetsu/"}}, {"geometry": {"type": "Point", "coordinates": [140.8771001, 42.4717206]}, "type": "Feature", "properties": {"name": "だて歴史の杜", "address": "北海道伊達市松ヶ枝町34番地1", "station_id": "daterekishinomori", "pref_id": "hokkaido", "uri": "http://www.michi-no-eki.jp/michinoeki/hokkaido/daterekishinomori/"}}, {"geometry": {"type": "Point", "coordinates": [142.3484295, 43.7600112]}, "type": "Feature", "properties": {"name": "あさひかわ", "address": "北海道旭川市神楽4条6丁目1番12号", "station_id": "asahikawa", "pref_id": "hokkaido", "uri": "http://www.michi-no-eki.jp/michinoeki/hokkaido/asahikawa/"}}, {"geometry": {"type": "Point", "coordinates": [142.3977464, 42.979587]}, "type": "Feature", "properties": {"name": "自然体感しむかっぷ", "address": "北海道勇払郡占冠村字中央", "station_id": "shizentaikan-shimukappu", "pref_id": "hokkaido", "uri": "http://www.michi-no-eki.jp/michinoeki/hokkaido/shizentaikan-shimukappu/"}}, {"geometry": {"type": "Point", "coordinates": [142.8680679, 44.3359883]}, "type": "Feature", "properties": {"name": "にしおこっぺ花夢", "address": "北海道紋別郡西興部村字上興部37番地", "station_id": "nishiokoppe-kamu", "pref_id": "hokkaido", "uri": "http://www.michi-no-eki.jp/michinoeki/hokkaido/nishiokoppe-kamu/"}}, {"geometry": {"type": "Point", "coordinates": [143.747243, 43.4689808]}, "type": "Feature", "properties": {"name": "オーロラタウン93りくべつ", "address": "北海道足寄郡陸別町大通", "station_id": "o%ef%bd%b0rorataun93rikubetsu", "pref_id": "hokkaido", "uri": "http://www.michi-no-eki.jp/michinoeki/hokkaido/o%ef%bd%b0rorataun93rikubetsu/"}}, {"geometry": {"type": "Point", "coordinates": [144.453268, 43.9339211]}, "type": "Feature", "properties": {"name": "はなやか(葉菜野花)小清水", "address": "北海道斜里郡小清水町字浜小清水474番地の7", "station_id": "hanayaka-koshimizu", "pref_id": "hokkaido", "uri": "http://www.michi-no-eki.jp/michinoeki/hokkaido/hanayaka-koshimizu/"}}, {"geometry": {"type": "Point", "coordinates": [142.070593, 43.6994831]}, "type": "Feature", "properties": {"name": "ライスランドふかがわ", "address": "北海道深川市音江町字広里59番地7", "station_id": "raisurando-fukagawa", "pref_id": "hokkaido", "uri": "http://www.michi-no-eki.jp/michinoeki/hokkaido/raisurando-fukagawa/"}}, {"geometry": {"type": "Point", "coordinates": [142.0673479, 44.8016913]}, "type": "Feature", "properties": {"name": "なかがわ", "address": "北海道中川郡中川町字誉498番1", "station_id": "nakagawa", "pref_id": "hokkaido", "uri": "http://www.michi-no-eki.jp/michinoeki/hokkaido/nakagawa/"}}, {"geometry": {"type": "Point", "coordinates": [140.8861263, 42.7409709]}, "type": "Feature", "properties": {"name": "230ルスツ", "address": "北海道虻田郡留寿都村字留寿都127番地", "station_id": "niisammaru-rusutsu", "pref_id": "hokkaido", "uri": "http://www.michi-no-eki.jp/michinoeki/hokkaido/niisammaru-rusutsu/"}}, {"geometry": {"type": "Point", "coordinates": [141.7477551, 44.8845723]}, "type": "Feature", "properties": {"name": "てしお", "address": "北海道天塩郡天塩町新開通4丁目7227番2", "station_id": "teshio", "pref_id": "hokkaido", "uri": "http://www.michi-no-eki.jp/michinoeki/hokkaido/teshio/"}}, {"geometry": {"type": "Point", "coordinates": [143.2732731, 42.489788]}, "type": "Feature", "properties": {"name": "コスモール大樹", "address": "北海道広尾郡大樹町西本通98番地", "station_id": "kosumo%ef%bd%b0ru-taiki", "pref_id": "hokkaido", "uri": "http://www.michi-no-eki.jp/michinoeki/hokkaido/kosumo%ef%bd%b0ru-taiki/"}}, {"geometry": {"type": "Point", "coordinates": [144.1838562, 43.7224857]}, "type": "Feature", "properties": {"name": "ぐるっとパノラマ美幌峠", "address": "北海道網走郡美幌町字古梅", "station_id": "guruttopanoramabihorotoge", "pref_id": "hokkaido", "uri": "http://www.michi-no-eki.jp/michinoeki/hokkaido/guruttopanoramabihorotoge/"}}, {"geometry": {"type": "Point", "coordinates": [140.4789853, 42.7620988]}, "type": "Feature", "properties": {"name": "らんこし・ふるさとの丘", "address": "北海道磯谷郡蘭越町字相生969番地", "station_id": "rankoshi-furusatonoka", "pref_id": "hokkaido", "uri": "http://www.michi-no-eki.jp/michinoeki/hokkaido/rankoshi-furusatonoka/"}}, {"geometry": {"type": "Point", "coordinates": [140.7216955, 42.5782067]}, "type": "Feature", "properties": {"name": "とようら", "address": "北海道虻田郡豊浦町字旭町65番地8", "station_id": "toyora", "pref_id": "hokkaido", "uri": "http://www.michi-no-eki.jp/michinoeki/hokkaido/toyora/"}}, {"geometry": {"type": "Point", "coordinates": [144.1885992, 43.9173746]}, "type": "Feature", "properties": {"name": "メルヘンの丘めまんべつ", "address": "北海道網走郡大空町女満別昭和96番地", "station_id": "meruhennoka-memambetsu", "pref_id": "hokkaido", "uri": "http://www.michi-no-eki.jp/michinoeki/hokkaido/meruhennoka-memambetsu/"}}, {"geometry": {"type": "Point", "coordinates": [141.9254643, 42.5739733]}, "type": "Feature", "properties": {"name": "むかわ四季の館", "address": "北海道勇払郡むかわ町美幸3丁目3番地1", "station_id": "mukawashikinoyakata", "pref_id": "hokkaido", "uri": "http://www.michi-no-eki.jp/michinoeki/hokkaido/mukawashikinoyakata/"}}, {"geometry": {"type": "Point", "coordinates": [143.9822417, 43.5452499]}, "type": "Feature", "properties": {"name": "あいおい", "address": "北海道網走郡津別町字相生", "station_id": "aioi", "pref_id": "hokkaido", "uri": "http://www.michi-no-eki.jp/michinoeki/hokkaido/aioi/"}}, {"geometry": {"type": "Point", "coordinates": [142.9902764, 43.0977132]}, "type": "Feature", "properties": {"name": "しかおい", "address": "北海道河東郡鹿追町東町3丁目2番地", "station_id": "shikaoi", "pref_id": "hokkaido", "uri": "http://www.michi-no-eki.jp/michinoeki/hokkaido/shikaoi/"}}, {"geometry": {"type": "Point", "coordinates": [143.0762301, 43.869861]}, "type": "Feature", "properties": {"name": "しらたき", "address": "北海道紋別郡遠軽町奥白滝", "station_id": "shirataki", "pref_id": "hokkaido", "uri": "http://www.michi-no-eki.jp/michinoeki/hokkaido/shirataki/"}}, {"geometry": {"type": "Point", "coordinates": [143.5472862, 43.2445035]}, "type": "Feature", "properties": {"name": "あしょろ銀河ホール21", "address": "北海道足寄郡足寄町北1条1丁目", "station_id": "ashoro-gingaho%ef%bd%b0ru21", "pref_id": "hokkaido", "uri": "http://www.michi-no-eki.jp/michinoeki/hokkaido/ashoro-gingaho%ef%bd%b0ru21/"}}, {"geometry": {"type": "Point", "coordinates": [141.6583218, 42.8329064]}, "type": "Feature", "properties": {"name": "サーモンパーク千歳", "address": "北海道千歳市花園2丁目", "station_id": "sa%ef%bd%b0mompa%ef%bd%b0ku-chitose", "pref_id": "hokkaido", "uri": "http://www.michi-no-eki.jp/michinoeki/hokkaido/sa%ef%bd%b0mompa%ef%bd%b0ku-chitose/"}}, {"geometry": {"type": "Point", "coordinates": [142.5088143, 43.6973051]}, "type": "Feature", "properties": {"name": "ひがしかわ「道草館」", "address": "北海道上川郡東川町東町1丁目1番15号", "station_id": "higashikawa-michikusakan", "pref_id": "hokkaido", "uri": "http://www.michi-no-eki.jp/michinoeki/hokkaido/higashikawa-michikusakan/"}}, {"geometry": {"type": "Point", "coordinates": [141.5856753, 42.8972354]}, "type": "Feature", "properties": {"name": "花ロードえにわ", "address": "北海道恵庭市南島松817番地18", "station_id": "hanaro%ef%bd%b0do-eniwa", "pref_id": "hokkaido", "uri": "http://www.michi-no-eki.jp/michinoeki/hokkaido/hanaro%ef%bd%b0do-eniwa/"}}, {"geometry": {"type": "Point", "coordinates": [140.370027, 42.8801825]}, "type": "Feature", "properties": {"name": "シェルプラザ・港", "address": "北海道磯谷郡蘭越町港町1402番2", "station_id": "sherupurazaminato", "pref_id": "hokkaido", "uri": "http://www.michi-no-eki.jp/michinoeki/hokkaido/sherupurazaminato/"}}, {"geometry": {"type": "Point", "coordinates": [140.8077046, 42.7623215]}, "type": "Feature", "properties": {"name": "真狩フラワーセンター", "address": "北海道虻田郡真狩村字光8番地3", "station_id": "makkari-furawa%ef%bd%b0senta", "pref_id": "hokkaido", "uri": "http://www.michi-no-eki.jp/michinoeki/hokkaido/makkari-furawa%ef%bd%b0senta/"}}, {"geometry": {"type": "Point", "coordinates": [141.9638879, 43.7668024]}, "type": "Feature", "properties": {"name": "鐘のなるまち・ちっぷべつ", "address": "北海道雨竜郡秩父別町2085番地", "station_id": "kanenonarumachichippubetsu", "pref_id": "hokkaido", "uri": "http://www.michi-no-eki.jp/michinoeki/hokkaido/kanenonarumachichippubetsu/"}}, {"geometry": {"type": "Point", "coordinates": [140.7787362, 42.5289975]}, "type": "Feature", "properties": {"name": "あぷた", "address": "北海道虻田郡洞爺湖町入江84番地2", "station_id": "aputa", "pref_id": "hokkaido", "uri": "http://www.michi-no-eki.jp/michinoeki/hokkaido/aputa/"}}, {"geometry": {"type": "Point", "coordinates": [143.0250228, 43.1697466]}, "type": "Feature", "properties": {"name": "うりまく", "address": "北海道河東郡鹿追町瓜幕西3丁目1番地外", "station_id": "urimaku", "pref_id": "hokkaido", "uri": "http://www.michi-no-eki.jp/michinoeki/hokkaido/urimaku/"}}, {"geometry": {"type": "Point", "coordinates": [142.3909798, 44.0938311]}, "type": "Feature", "properties": {"name": "絵本の里けんぶち", "address": "北海道上川郡剣淵町東町2420番地", "station_id": "ehonnosatokembuchi", "pref_id": "hokkaido", "uri": "http://www.michi-no-eki.jp/michinoeki/hokkaido/ehonnosatokembuchi/"}}, {"geometry": {"type": "Point", "coordinates": [141.6564717, 44.3133031]}, "type": "Feature", "properties": {"name": "風Wとままえ", "address": "北海道苫前郡苫前町字苫前119番地1", "station_id": "fuwattotomamae", "pref_id": "hokkaido", "uri": "http://www.michi-no-eki.jp/michinoeki/hokkaido/fuwattotomamae/"}}, {"geometry": {"type": "Point", "coordinates": [143.3685496, 43.1392319]}, "type": "Feature", "properties": {"name": "しほろ温泉", "address": "北海道河東郡士幌町字下居辺西2線134番地", "station_id": "shihoronsen", "pref_id": "hokkaido", "uri": "http://www.michi-no-eki.jp/michinoeki/hokkaido/shihoronsen/"}}, {"geometry": {"type": "Point", "coordinates": [140.8709024, 42.8589072]}, "type": "Feature", "properties": {"name": "名水の郷きょうごく", "address": "北海道虻田郡京極町字川西45番地1", "station_id": "meisuinosato-kyogoku", "pref_id": "hokkaido", "uri": "http://www.michi-no-eki.jp/michinoeki/hokkaido/meisuinosato-kyogoku/"}}, {"geometry": {"type": "Point", "coordinates": [142.4637855, 43.5921253]}, "type": "Feature", "properties": {"name": "びえい「丘のくら」", "address": "北海道上川郡美瑛町本町1丁目9番地21号", "station_id": "biei-okanokura", "pref_id": "hokkaido", "uri": "http://www.michi-no-eki.jp/michinoeki/hokkaido/biei-okanokura/"}}, {"geometry": {"type": "Point", "coordinates": [141.7768178, 44.5635037]}, "type": "Feature", "properties": {"name": "☆ロマン街道しょさんべつ", "address": "北海道苫前郡初山別村字豊岬153番地1", "station_id": "romankaido-shosambetsu", "pref_id": "hokkaido", "uri": "http://www.michi-no-eki.jp/michinoeki/hokkaido/romankaido-shosambetsu/"}}, {"geometry": {"type": "Point", "coordinates": [144.9906685, 44.0690729]}, "type": "Feature", "properties": {"name": "うとろ・シリエトク", "address": "北海道斜里郡斜里町ウトロ西186番地8", "station_id": "utoro-shirietoku", "pref_id": "hokkaido", "uri": "http://www.michi-no-eki.jp/michinoeki/hokkaido/utoro-shirietoku/"}}, {"geometry": {"type": "Point", "coordinates": [144.6642138, 43.9117709]}, "type": "Feature", "properties": {"name": "しゃり", "address": "北海道斜里郡斜里町本町37番地", "station_id": "shari", "pref_id": "hokkaido", "uri": "http://www.michi-no-eki.jp/michinoeki/hokkaido/shari/"}}, {"geometry": {"type": "Point", "coordinates": [144.5339946, 43.7904595]}, "type": "Feature", "properties": {"name": "パパスランドさっつる", "address": "北海道斜里郡清里町字神威1071番地", "station_id": "papasurando-sattsuru", "pref_id": "hokkaido", "uri": "http://www.michi-no-eki.jp/michinoeki/hokkaido/papasurando-sattsuru/"}}, {"geometry": {"type": "Point", "coordinates": [142.4137718, 44.2874188]}, "type": "Feature", "properties": {"name": "もち米の里☆なよろ", "address": "北海道名寄市風連町西町334番地1", "station_id": "mochigomenosato-nayoro", "pref_id": "hokkaido", "uri": "http://www.michi-no-eki.jp/michinoeki/hokkaido/mochigomenosato-nayoro/"}}, {"geometry": {"type": "Point", "coordinates": [140.2318241, 42.7955338]}, "type": "Feature", "properties": {"name": "みなとま～れ寿都", "address": "北海道寿都郡寿都町字大磯町29番地1", "station_id": "minatoma-re-suttsu", "pref_id": "hokkaido", "uri": "http://www.michi-no-eki.jp/michinoeki/hokkaido/minatoma-re-suttsu/"}}, {"geometry": {"type": "Point", "coordinates": [140.8218199, 42.6645114]}, "type": "Feature", "properties": {"name": "とうや湖", "address": "北海道虻田郡洞爺湖町香川9番地4", "station_id": "toyako", "pref_id": "hokkaido", "uri": "http://www.michi-no-eki.jp/michinoeki/hokkaido/toyako/"}}, {"geometry": {"type": "Point", "coordinates": [144.2738176, 44.0220429]}, "type": "Feature", "properties": {"name": "流氷街道網走", "address": "北海道網走市南3条東4丁目", "station_id": "ryuuhyokaidoabashiri", "pref_id": "hokkaido", "uri": "http://www.michi-no-eki.jp/michinoeki/hokkaido/ryuuhyokaidoabashiri/"}}, {"geometry": {"type": "Point", "coordinates": [140.1072323, 41.4265145]}, "type": "Feature", "properties": {"name": "北前船 松前", "address": "北海道松前郡松前町字唐津379番地", "station_id": "kitamaebune-matsumae", "pref_id": "hokkaido", "uri": "http://www.michi-no-eki.jp/michinoeki/hokkaido/kitamaebune-matsumae/"}}, {"geometry": {"type": "Point", "coordinates": [143.6133059, 43.1259453]}, "type": "Feature", "properties": {"name": "ステラ★ほんべつ", "address": "北海道中川郡本別町北3丁目1番地1", "station_id": "sutera-hombetsu", "pref_id": "hokkaido", "uri": "http://www.michi-no-eki.jp/michinoeki/hokkaido/sutera-hombetsu/"}}, {"geometry": {"type": "Point", "coordinates": [141.6946488, 42.6999513]}, "type": "Feature", "properties": {"name": "ウトナイ湖", "address": "北海道苫小牧市字植苗156番地の30", "station_id": "utonaiko", "pref_id": "hokkaido", "uri": "http://www.michi-no-eki.jp/michinoeki/hokkaido/utonaiko/"}}, {"geometry": {"type": "Point", "coordinates": [143.6629753, 42.8148018]}, "type": "Feature", "properties": {"name": "うらほろ", "address": "北海道十勝郡浦幌町字北町16番地3", "station_id": "urahoro", "pref_id": "hokkaido", "uri": "http://www.michi-no-eki.jp/michinoeki/hokkaido/urahoro/"}}, {"geometry": {"type": "Point", "coordinates": [141.6427006, 43.2141162]}, "type": "Feature", "properties": {"name": "しんしのつ", "address": "北海道石狩郡新篠津村第45線北2番地", "station_id": "shinshinotsu", "pref_id": "hokkaido", "uri": "http://www.michi-no-eki.jp/michinoeki/hokkaido/shinshinotsu/"}}, {"geometry": {"type": "Point", "coordinates": [142.0387367, 42.9366332]}, "type": "Feature", "properties": {"name": "夕張メロード", "address": "北海道夕張市紅葉山529", "station_id": "yuubari-mero%ef%bd%b0do", "pref_id": "hokkaido", "uri": "http://www.michi-no-eki.jp/michinoeki/hokkaido/yuubari-mero%ef%bd%b0do/"}}, {"geometry": {"type": "Point", "coordinates": [145.2368756, 43.533413]}, "type": "Feature", "properties": {"name": "おだいとう", "address": "北海道野付郡別海町尾岱沼5番地27", "station_id": "odaito", "pref_id": "hokkaido", "uri": "http://www.michi-no-eki.jp/michinoeki/hokkaido/odaito/"}}, {"geometry": {"type": "Point", "coordinates": [140.9447498, 41.9279214]}, "type": "Feature", "properties": {"name": "縄文ロマン 南かやべ", "address": "北海道函館市臼尻町551番地1", "station_id": "jomonroman-minamikayabe", "pref_id": "hokkaido", "uri": "http://www.michi-no-eki.jp/michinoeki/hokkaido/jomonroman-minamikayabe/"}}, {"geometry": {"type": "Point", "coordinates": [141.6788235, 45.4158671]}, "type": "Feature", "properties": {"name": "わっかない", "address": "北海道稚内市開運2丁目", "station_id": "wakkanai", "pref_id": "hokkaido", "uri": "http://www.michi-no-eki.jp/michinoeki/hokkaido/wakkanai/"}}, {"geometry": {"type": "Point", "coordinates": [140.8444473, 43.051414]}, "type": "Feature", "properties": {"name": "あかいがわ", "address": "北海道余市郡赤井川村字都190番地16", "station_id": "akaigawa", "pref_id": "hokkaido", "uri": "http://www.michi-no-eki.jp/michinoeki/hokkaido/akaigawa/"}}, {"geometry": {"type": "Point", "coordinates": [140.4354293, 41.6778749]}, "type": "Feature", "properties": {"name": "みそぎの郷 きこない", "address": "北海道上磯郡木古内町字本町338番地14", "station_id": "misogi-no-sato-kikonai", "pref_id": "hokkaido", "uri": "http://www.michi-no-eki.jp/michinoeki/hokkaido/misogi-no-sato-kikonai/"}}, {"geometry": {"type": "Point", "coordinates": [140.8305528, 42.0285219]}, "type": "Feature", "properties": {"name": "しかべ間歇泉公園", "address": "北海道茅部郡鹿部町字鹿部18番地1", "station_id": "shikabe-kanketsusen-koen", "pref_id": "hokkaido", "uri": "http://www.michi-no-eki.jp/michinoeki/hokkaido/shikabe-kanketsusen-koen/"}}, {"geometry": {"type": "Point", "coordinates": [141.1552503, 40.7168253]}, "type": "Feature", "properties": {"name": "しちのへ", "address": "青森県上北郡七戸町字荒熊内67-94", "station_id": "shichinohe", "pref_id": "aomori", "uri": "http://www.michi-no-eki.jp/michinoeki/aomori/shichinohe/"}}, {"geometry": {"type": "Point", "coordinates": [141.6084329, 40.4584959]}, "type": "Feature", "properties": {"name": "はしかみ", "address": "青森県三戸郡階上町大字道仏字耳ヶ吠3-3", "station_id": "hashikami", "pref_id": "aomori", "uri": "http://www.michi-no-eki.jp/michinoeki/aomori/hashikami/"}}, {"geometry": {"type": "Point", "coordinates": [140.6876135, 40.5810837]}, "type": "Feature", "properties": {"name": "虹の湖", "address": "青森県黒石市大字沖浦字山神1-5", "station_id": "nijinoko", "pref_id": "aomori", "uri": "http://www.michi-no-eki.jp/michinoeki/aomori/nijinoko/"}}, {"geometry": {"type": "Point", "coordinates": [140.8051462, 41.1678884]}, "type": "Feature", "properties": {"name": "わきのさわ", "address": "青森県むつ市脇野沢七引201-5", "station_id": "wakinosawa", "pref_id": "aomori", "uri": "http://www.michi-no-eki.jp/michinoeki/aomori/wakinosawa/"}}, {"geometry": {"type": "Point", "coordinates": [140.8883745, 41.2704065]}, "type": "Feature", "properties": {"name": "かわうち湖", "address": "青森県むつ市川内町福浦山314", "station_id": "kawauchiko", "pref_id": "aomori", "uri": "http://www.michi-no-eki.jp/michinoeki/aomori/kawauchiko/"}}, {"geometry": {"type": "Point", "coordinates": [141.0744483, 40.4317501]}, "type": "Feature", "properties": {"name": "しんごう", "address": "青森県三戸郡新郷村大字戸来字雨池11-2", "station_id": "shingo", "pref_id": "aomori", "uri": "http://www.michi-no-eki.jp/michinoeki/aomori/shingo/"}}, {"geometry": {"type": "Point", "coordinates": [140.5487947, 40.5547521]}, "type": "Feature", "properties": {"name": "ひろさき", "address": "青森県弘前市大字石川字泉田62-1", "station_id": "hirosaki", "pref_id": "aomori", "uri": "http://www.michi-no-eki.jp/michinoeki/aomori/hirosaki/"}}, {"geometry": {"type": "Point", "coordinates": [141.117367, 40.5851607]}, "type": "Feature", "properties": {"name": "奥入瀬", "address": "青森県十和田市大字奥瀬字堰道39-1", "station_id": "oirase", "pref_id": "aomori", "uri": "http://www.michi-no-eki.jp/michinoeki/aomori/oirase/"}}, {"geometry": {"type": "Point", "coordinates": [141.2552369, 40.3877691]}, "type": "Feature", "properties": {"name": "さんのへ", "address": "青森県三戸郡三戸町大字川守田字西張渡39-1", "station_id": "sannohe", "pref_id": "aomori", "uri": "http://www.michi-no-eki.jp/michinoeki/aomori/sannohe/"}}, {"geometry": {"type": "Point", "coordinates": [140.579519, 40.7179284]}, "type": "Feature", "properties": {"name": "なみおか", "address": "青森県青森市浪岡大字女鹿沢字野尻2番地3", "station_id": "namioka", "pref_id": "aomori", "uri": "http://www.michi-no-eki.jp/michinoeki/aomori/namioka/"}}, {"geometry": {"type": "Point", "coordinates": [140.3839883, 41.0457185]}, "type": "Feature", "properties": {"name": "十三湖高原", "address": "青森県五所川原市相内実取287-1058", "station_id": "juusanko-kogen", "pref_id": "aomori", "uri": "http://www.michi-no-eki.jp/michinoeki/aomori/juusanko-kogen/"}}, {"geometry": {"type": "Point", "coordinates": [140.5143116, 41.1455455]}, "type": "Feature", "properties": {"name": "いまべつ", "address": "青森県東津軽郡今別町大字大川平字清川87-16", "station_id": "imabetsu", "pref_id": "aomori", "uri": "http://www.michi-no-eki.jp/michinoeki/aomori/imabetsu/"}}, {"geometry": {"type": "Point", "coordinates": [141.4883986, 40.5122839]}, "type": "Feature", "properties": {"name": "なんごう", "address": "青森県八戸市南郷区大字中野字舘野4-4", "station_id": "nango", "pref_id": "aomori", "uri": "http://www.michi-no-eki.jp/michinoeki/aomori/nango/"}}, {"geometry": {"type": "Point", "coordinates": [140.3221841, 40.7844457]}, "type": "Feature", "properties": {"name": "もりた", "address": "青森県つがる市森田町床舞稚桜4-1", "station_id": "morita", "pref_id": "aomori", "uri": "http://www.michi-no-eki.jp/michinoeki/aomori/morita/"}}, {"geometry": {"type": "Point", "coordinates": [140.8613989, 40.8916894]}, "type": "Feature", "properties": {"name": "浅虫温泉", "address": "青森県青森市大字浅虫字螢谷341-19", "station_id": "asamushionsen", "pref_id": "aomori", "uri": "http://www.michi-no-eki.jp/michinoeki/aomori/asamushionsen/"}}, {"geometry": {"type": "Point", "coordinates": [140.6231068, 40.4815243]}, "type": "Feature", "properties": {"name": "いかりがせき", "address": "青森県平川市碇ヶ関碇石13-1", "station_id": "ikarigaseki", "pref_id": "aomori", "uri": "http://www.michi-no-eki.jp/michinoeki/aomori/ikarigaseki/"}}, {"geometry": {"type": "Point", "coordinates": [140.577686, 40.6336189]}, "type": "Feature", "properties": {"name": "いなかだて", "address": "青森県南津軽郡田舎館村大字高樋字八幡10", "station_id": "inakadate", "pref_id": "aomori", "uri": "http://www.michi-no-eki.jp/michinoeki/aomori/inakadate/"}}, {"geometry": {"type": "Point", "coordinates": [141.2567596, 41.0837357]}, "type": "Feature", "properties": {"name": "よこはま", "address": "青森県上北郡横浜町字林ノ脇79-12", "station_id": "yokohama", "pref_id": "aomori", "uri": "http://www.michi-no-eki.jp/michinoeki/aomori/yokohama/"}}, {"geometry": {"type": "Point", "coordinates": [140.3467912, 41.2538342]}, "type": "Feature", "properties": {"name": "みんまや", "address": "青森県東津軽郡外ヶ浜町字三厩龍浜99", "station_id": "mimmaya", "pref_id": "aomori", "uri": "http://www.michi-no-eki.jp/michinoeki/aomori/mimmaya/"}}, {"geometry": {"type": "Point", "coordinates": [140.3205958, 41.1449049]}, "type": "Feature", "properties": {"name": "こどまり", "address": "青森県北津軽郡中泊町大字小泊字折腰内45", "station_id": "kodomari", "pref_id": "aomori", "uri": "http://www.michi-no-eki.jp/michinoeki/aomori/kodomari/"}}, {"geometry": {"type": "Point", "coordinates": [141.3640675, 40.7856637]}, "type": "Feature", "properties": {"name": "みさわ", "address": "青森県三沢市谷地頭4丁目298-652", "station_id": "misawa", "pref_id": "aomori", "uri": "http://www.michi-no-eki.jp/michinoeki/aomori/misawa/"}}, {"geometry": {"type": "Point", "coordinates": [141.2646116, 40.574645]}, "type": "Feature", "properties": {"name": "とわだ", "address": "青森県十和田市大字伝法寺字平窪37-2", "station_id": "towada", "pref_id": "aomori", "uri": "http://www.michi-no-eki.jp/michinoeki/aomori/towada/"}}, {"geometry": {"type": "Point", "coordinates": [140.4427046, 40.7371457]}, "type": "Feature", "properties": {"name": "つるた", "address": "青森県北津軽郡鶴田町大字境字里見176-1", "station_id": "tsuruta", "pref_id": "aomori", "uri": "http://www.michi-no-eki.jp/michinoeki/aomori/tsuruta/"}}, {"geometry": {"type": "Point", "coordinates": [140.0004692, 40.7442227]}, "type": "Feature", "properties": {"name": "ふかうら", "address": "青森県西津軽郡深浦町大字風合瀬字上砂子川144-1", "station_id": "fukaura", "pref_id": "aomori", "uri": "http://www.michi-no-eki.jp/michinoeki/aomori/fukaura/"}}, {"geometry": {"type": "Point", "coordinates": [141.2747031, 40.7282907]}, "type": "Feature", "properties": {"name": "おがわら湖", "address": "青森県上北郡東北町大字上野字南谷地122", "station_id": "ogawarako", "pref_id": "aomori", "uri": "http://www.michi-no-eki.jp/michinoeki/aomori/ogawarako/"}}, {"geometry": {"type": "Point", "coordinates": [140.6411974, 41.1748371]}, "type": "Feature", "properties": {"name": "たいらだて", "address": "青森県東津軽郡外ヶ浜町字平舘太郎右ェ門沢1-3", "station_id": "tairadate", "pref_id": "aomori", "uri": "http://www.michi-no-eki.jp/michinoeki/aomori/tairadate/"}}, {"geometry": {"type": "Point", "coordinates": [141.3247271, 40.6064042]}, "type": "Feature", "properties": {"name": "ろくのへ", "address": "青森県上北郡六戸町大字犬落瀬字後田87", "station_id": "rokunohe", "pref_id": "aomori", "uri": "http://www.michi-no-eki.jp/michinoeki/aomori/rokunohe/"}}, {"geometry": {"type": "Point", "coordinates": [140.3756092, 40.2517099]}, "type": "Feature", "properties": {"name": "たかのす", "address": "秋田県北秋田市綴子字大堤道下62-1", "station_id": "takanosu", "pref_id": "akita", "uri": "http://www.michi-no-eki.jp/michinoeki/akita/takanosu/"}}, {"geometry": {"type": "Point", "coordinates": [140.2600651, 40.2186916]}, "type": "Feature", "properties": {"name": "ふたつい", "address": "秋田県能代市二ツ井町小繁字中島109-10", "station_id": "futatsui", "pref_id": "akita", "uri": "http://www.michi-no-eki.jp/michinoeki/akita/futatsui/"}}, {"geometry": {"type": "Point", "coordinates": [140.0145207, 39.3628883]}, "type": "Feature", "properties": {"name": "にしめ", "address": "秋田県由利本荘市西目町沼田字新道下1112-2", "station_id": "nishime", "pref_id": "akita", "uri": "http://www.michi-no-eki.jp/michinoeki/akita/nishime/"}}, {"geometry": {"type": "Point", "coordinates": [140.6253234, 40.4208672]}, "type": "Feature", "properties": {"name": "やたて峠", "address": "秋田県大館市長走字陣場311", "station_id": "yatatetoge", "pref_id": "akita", "uri": "http://www.michi-no-eki.jp/michinoeki/akita/yatatetoge/"}}, {"geometry": {"type": "Point", "coordinates": [139.948678, 40.4215825]}, "type": "Feature", "properties": {"name": "はちもり", "address": "秋田県山本郡八峰町八森字乙の水72-4", "station_id": "hachimori", "pref_id": "akita", "uri": "http://www.michi-no-eki.jp/michinoeki/akita/hachimori/"}}, {"geometry": {"type": "Point", "coordinates": [140.7852155, 40.1818401]}, "type": "Feature", "properties": {"name": "かづの", "address": "秋田県鹿角市花輪字新田町11番地4", "station_id": "kazuno", "pref_id": "akita", "uri": "http://www.michi-no-eki.jp/michinoeki/akita/kazuno/"}}, {"geometry": {"type": "Point", "coordinates": [140.3767219, 39.5221473]}, "type": "Feature", "properties": {"name": "かみおか", "address": "秋田県大仙市北楢岡字船戸187", "station_id": "kamioka", "pref_id": "akita", "uri": "http://www.michi-no-eki.jp/michinoeki/akita/kamioka/"}}, {"geometry": {"type": "Point", "coordinates": [140.0804783, 40.0211494]}, "type": "Feature", "properties": {"name": "ことおか", "address": "秋田県山本郡三種町鹿渡字高石野126-1", "station_id": "kotoka", "pref_id": "akita", "uri": "http://www.michi-no-eki.jp/michinoeki/akita/kotoka/"}}, {"geometry": {"type": "Point", "coordinates": [140.285026, 39.3016038]}, "type": "Feature", "properties": {"name": "東由利", "address": "秋田県由利本荘市東由利老方字畑田28", "station_id": "higashiyuri", "pref_id": "akita", "uri": "http://www.michi-no-eki.jp/michinoeki/akita/higashiyuri/"}}, {"geometry": {"type": "Point", "coordinates": [140.2970636, 40.0638357]}, "type": "Feature", "properties": {"name": "かみこあに", "address": "秋田県北秋田郡上小阿仁村小沢田字向川原66-1", "station_id": "kamikoani", "pref_id": "akita", "uri": "http://www.michi-no-eki.jp/michinoeki/akita/kamikoani/"}}, {"geometry": {"type": "Point", "coordinates": [139.9001819, 39.220129]}, "type": "Feature", "properties": {"name": "象潟", "address": "秋田県にかほ市象潟町字大塩越73-1", "station_id": "kisakata", "pref_id": "akita", "uri": "http://www.michi-no-eki.jp/michinoeki/akita/kisakata/"}}, {"geometry": {"type": "Point", "coordinates": [140.5331821, 39.5385396]}, "type": "Feature", "properties": {"name": "なかせん", "address": "秋田県大仙市長野字高畑95-1", "station_id": "nakasen", "pref_id": "akita", "uri": "http://www.michi-no-eki.jp/michinoeki/akita/nakasen/"}}, {"geometry": {"type": "Point", "coordinates": [140.4603263, 39.0651056]}, "type": "Feature", "properties": {"name": "おがち", "address": "秋田県湯沢市小野字橋本90", "station_id": "ogachi", "pref_id": "akita", "uri": "http://www.michi-no-eki.jp/michinoeki/akita/ogachi/"}}, {"geometry": {"type": "Point", "coordinates": [140.0095627, 39.8568152]}, "type": "Feature", "properties": {"name": "てんのう", "address": "秋田県潟上市天王字江川上谷地109-2", "station_id": "tenno", "pref_id": "akita", "uri": "http://www.michi-no-eki.jp/michinoeki/akita/tenno/"}}, {"geometry": {"type": "Point", "coordinates": [140.052933, 39.5420844]}, "type": "Feature", "properties": {"name": "岩城", "address": "秋田県由利本荘市岩城内道川字新鶴潟192-43", "station_id": "iwaki", "pref_id": "akita", "uri": "http://www.michi-no-eki.jp/michinoeki/akita/iwaki/"}}, {"geometry": {"type": "Point", "coordinates": [140.0777019, 39.8646826]}, "type": "Feature", "properties": {"name": "しょうわ", "address": "秋田県潟上市昭和豊川竜毛字山ノ下1-1", "station_id": "showa", "pref_id": "akita", "uri": "http://www.michi-no-eki.jp/michinoeki/akita/showa/"}}, {"geometry": {"type": "Point", "coordinates": [140.0299626, 40.2668499]}, "type": "Feature", "properties": {"name": "みねはま", "address": "秋田県山本郡八峰町峰浜沼田字ホンコ谷地147", "station_id": "minehama", "pref_id": "akita", "uri": "http://www.michi-no-eki.jp/michinoeki/akita/minehama/"}}, {"geometry": {"type": "Point", "coordinates": [140.6258076, 39.2893172]}, "type": "Feature", "properties": {"name": "さんない", "address": "秋田県横手市山内土渕字小目倉沢34", "station_id": "sannai", "pref_id": "akita", "uri": "http://www.michi-no-eki.jp/michinoeki/akita/sannai/"}}, {"geometry": {"type": "Point", "coordinates": [140.0901559, 39.4428837]}, "type": "Feature", "properties": {"name": "おおうち", "address": "秋田県由利本荘市岩谷町字西越36", "station_id": "ochi", "pref_id": "akita", "uri": "http://www.michi-no-eki.jp/michinoeki/akita/ochi/"}}, {"geometry": {"type": "Point", "coordinates": [140.4558876, 39.8992981]}, "type": "Feature", "properties": {"name": "あに", "address": "秋田県北秋田市阿仁比立内字家ノ後8-1外", "station_id": "ani", "pref_id": "akita", "uri": "http://www.michi-no-eki.jp/michinoeki/akita/ani/"}}, {"geometry": {"type": "Point", "coordinates": [140.5854606, 40.2196674]}, "type": "Feature", "properties": {"name": "ひない", "address": "秋田県大館市比内町扇田字新大堤下93-11", "station_id": "hinai", "pref_id": "akita", "uri": "http://www.michi-no-eki.jp/michinoeki/akita/hinai/"}}, {"geometry": {"type": "Point", "coordinates": [140.1442137, 39.9470864]}, "type": "Feature", "properties": {"name": "五城目", "address": "秋田県南秋田郡五城目町富津内下山内字上広ヶ野76-1", "station_id": "gojome", "pref_id": "akita", "uri": "http://www.michi-no-eki.jp/michinoeki/akita/gojome/"}}, {"geometry": {"type": "Point", "coordinates": [140.2914923, 39.1095378]}, "type": "Feature", "properties": {"name": "清水の里・鳥海郷", "address": "秋田県由利本荘市鳥海町上笹子字堺台100", "station_id": "shimizunosatochokaigo", "pref_id": "akita", "uri": "http://www.michi-no-eki.jp/michinoeki/akita/shimizunosatochokaigo/"}}, {"geometry": {"type": "Point", "coordinates": [140.5675681, 39.3789953]}, "type": "Feature", "properties": {"name": "雁の里せんなん", "address": "秋田県仙北郡美郷町金沢字下舘124", "station_id": "karinosatosennan", "pref_id": "akita", "uri": "http://www.michi-no-eki.jp/michinoeki/akita/karinosatosennan/"}}, {"geometry": {"type": "Point", "coordinates": [140.3624414, 39.6187833]}, "type": "Feature", "properties": {"name": "協和", "address": "秋田県大仙市協和荒川字新田表15-2", "station_id": "kyowa", "pref_id": "akita", "uri": "http://www.michi-no-eki.jp/michinoeki/akita/kyowa/"}}, {"geometry": {"type": "Point", "coordinates": [140.5214896, 39.2261241]}, "type": "Feature", "properties": {"name": "まめでらが～ 道の駅十文字", "address": "秋田県横手市十文字町字海道下21-4", "station_id": "mamederaga-michinoekijuumonji", "pref_id": "akita", "uri": "http://www.michi-no-eki.jp/michinoeki/akita/mamederaga-michinoekijuumonji/"}}, {"geometry": {"type": "Point", "coordinates": [139.9515185, 40.0153495]}, "type": "Feature", "properties": {"name": "おおがた", "address": "秋田県南秋田郡大潟村字西5-2", "station_id": "ogata", "pref_id": "akita", "uri": "http://www.michi-no-eki.jp/michinoeki/akita/ogata/"}}, {"geometry": {"type": "Point", "coordinates": [140.061005, 39.7527085]}, "type": "Feature", "properties": {"name": "あきた港", "address": "秋田県秋田市土崎港西1丁目9-1", "station_id": "akitako", "pref_id": "akita", "uri": "http://www.michi-no-eki.jp/michinoeki/akita/akitako/"}}, {"geometry": {"type": "Point", "coordinates": [140.7632516, 40.3087704]}, "type": "Feature", "properties": {"name": "こさか七滝", "address": "秋田県鹿角郡小坂町上向字藤原35-3外", "station_id": "kosakananataki", "pref_id": "akita", "uri": "http://www.michi-no-eki.jp/michinoeki/akita/kosakananataki/"}}, {"geometry": {"type": "Point", "coordinates": [140.3727785, 40.1949727]}, "type": "Feature", "properties": {"name": "大館能代空港", "address": "秋田県北秋田市脇神字カラムシ岱21-144外", "station_id": "odate-noshirokuuko", "pref_id": "akita", "uri": "http://www.michi-no-eki.jp/michinoeki/akita/odate-noshirokuuko/"}}, {"geometry": {"type": "Point", "coordinates": [140.4089347, 39.1975954]}, "type": "Feature", "properties": {"name": "うご", "address": "秋田県雄勝郡羽後町西馬音内字中野200番地", "station_id": "ugo", "pref_id": "akita", "uri": "http://www.michi-no-eki.jp/michinoeki/akita/ugo/"}}, {"geometry": {"type": "Point", "coordinates": [141.1421369, 39.4832705]}, "type": "Feature", "properties": {"name": "石鳥谷", "address": "岩手県花巻市石鳥谷町中寺林第7地割17-3", "station_id": "ishidoriya", "pref_id": "iwate", "uri": "http://www.michi-no-eki.jp/michinoeki/iwate/ishidoriya/"}}, {"geometry": {"type": "Point", "coordinates": [141.6291675, 39.008402]}, "type": "Feature", "properties": {"name": "高田松原", "address": "岩手県陸前高田市高田町字古川28-5", "station_id": "takatamatsubara", "pref_id": "iwate", "uri": "http://www.michi-no-eki.jp/michinoeki/iwate/takatamatsubara/"}}, {"geometry": {"type": "Point", "coordinates": [141.3535295, 39.6516145]}, "type": "Feature", "properties": {"name": "区界高原", "address": "岩手県宮古市区界2-434-2", "station_id": "kuzakaikogen", "pref_id": "iwate", "uri": "http://www.michi-no-eki.jp/michinoeki/iwate/kuzakaikogen/"}}, {"geometry": {"type": "Point", "coordinates": [141.6634076, 40.2792091]}, "type": "Feature", "properties": {"name": "おおの", "address": "岩手県九戸郡洋野町大野58-12-30", "station_id": "ono", "pref_id": "iwate", "uri": "http://www.michi-no-eki.jp/michinoeki/iwate/ono/"}}, {"geometry": {"type": "Point", "coordinates": [141.3958808, 39.1798365]}, "type": "Feature", "properties": {"name": "種山ヶ原", "address": "岩手県気仙郡住田町世田米字子飼沢30-39", "station_id": "taneyamagahara", "pref_id": "iwate", "uri": "http://www.michi-no-eki.jp/michinoeki/iwate/taneyamagahara/"}}, {"geometry": {"type": "Point", "coordinates": [141.8626587, 39.8423053]}, "type": "Feature", "properties": {"name": "いわいずみ", "address": "岩手県下閉伊郡岩泉町乙茂字乙茂90-1", "station_id": "iwaizumi", "pref_id": "iwate", "uri": "http://www.michi-no-eki.jp/michinoeki/iwate/iwaizumi/"}}, {"geometry": {"type": "Point", "coordinates": [141.8190261, 40.1158959]}, "type": "Feature", "properties": {"name": "のだ", "address": "岩手県九戸郡野田村大字野田31-31-1", "station_id": "noda", "pref_id": "iwate", "uri": "http://www.michi-no-eki.jp/michinoeki/iwate/noda/"}}, {"geometry": {"type": "Point", "coordinates": [141.965689, 39.7634891]}, "type": "Feature", "properties": {"name": "たろう", "address": "岩手県宮古市田老字重津部34-2", "station_id": "taro", "pref_id": "iwate", "uri": "http://www.michi-no-eki.jp/michinoeki/iwate/taro/"}}, {"geometry": {"type": "Point", "coordinates": [141.9023197, 39.9096169]}, "type": "Feature", "properties": {"name": "たのはた", "address": "岩手県下閉伊郡田野畑村菅窪223-85", "station_id": "tanohata", "pref_id": "iwate", "uri": "http://www.michi-no-eki.jp/michinoeki/iwate/tanohata/"}}, {"geometry": {"type": "Point", "coordinates": [141.1571153, 39.1162935]}, "type": "Feature", "properties": {"name": "みずさわ", "address": "岩手県奥州市水沢区姉体町字石川原51-3", "station_id": "mizusawa", "pref_id": "iwate", "uri": "http://www.michi-no-eki.jp/michinoeki/iwate/mizusawa/"}}, {"geometry": {"type": "Point", "coordinates": [141.0993785, 39.8799671]}, "type": "Feature", "properties": {"name": "にしね", "address": "岩手県八幡平市大更2-154-36", "station_id": "nishine", "pref_id": "iwate", "uri": "http://www.michi-no-eki.jp/michinoeki/iwate/nishine/"}}, {"geometry": {"type": "Point", "coordinates": [141.5735177, 40.1509394]}, "type": "Feature", "properties": {"name": "白樺の里やまがた", "address": "岩手県久慈市山形町川井8-12-1", "station_id": "shirakabanosato-yamagata", "pref_id": "iwate", "uri": "http://www.michi-no-eki.jp/michinoeki/iwate/shirakabanosato-yamagata/"}}, {"geometry": {"type": "Point", "coordinates": [141.3513044, 39.3460524]}, "type": "Feature", "properties": {"name": "みやもり", "address": "岩手県遠野市宮守町下宮守30-37-1", "station_id": "miyamori", "pref_id": "iwate", "uri": "http://www.michi-no-eki.jp/michinoeki/iwate/miyamori/"}}, {"geometry": {"type": "Point", "coordinates": [141.2064173, 39.5555548]}, "type": "Feature", "properties": {"name": "紫波", "address": "岩手県紫波郡紫波町遠山字松原7-8", "station_id": "shiwa", "pref_id": "iwate", "uri": "http://www.michi-no-eki.jp/michinoeki/iwate/shiwa/"}}, {"geometry": {"type": "Point", "coordinates": [141.3238952, 39.4994461]}, "type": "Feature", "properties": {"name": "はやちね", "address": "岩手県花巻市大迫町内川目10-30-114", "station_id": "hayachine", "pref_id": "iwate", "uri": "http://www.michi-no-eki.jp/michinoeki/iwate/hayachine/"}}, {"geometry": {"type": "Point", "coordinates": [141.973205, 39.4369048]}, "type": "Feature", "properties": {"name": "やまだ", "address": "岩手県下閉伊郡山田町船越6-141", "station_id": "yamada", "pref_id": "iwate", "uri": "http://www.michi-no-eki.jp/michinoeki/iwate/yamada/"}}, {"geometry": {"type": "Point", "coordinates": [141.5008119, 39.3308864]}, "type": "Feature", "properties": {"name": "遠野風の丘", "address": "岩手県遠野市綾織町新里8-2-1", "station_id": "tonokazenoka", "pref_id": "iwate", "uri": "http://www.michi-no-eki.jp/michinoeki/iwate/tonokazenoka/"}}, {"geometry": {"type": "Point", "coordinates": [141.7991147, 39.121088]}, "type": "Feature", "properties": {"name": "さんりく", "address": "岩手県大船渡市三陸町越善来字井戸洞95-27", "station_id": "sanriku", "pref_id": "iwate", "uri": "http://www.michi-no-eki.jp/michinoeki/iwate/sanriku/"}}, {"geometry": {"type": "Point", "coordinates": [140.875147, 39.3007195]}, "type": "Feature", "properties": {"name": "錦秋湖", "address": "岩手県和賀郡西和賀町杉名畑44-264", "station_id": "kinshuuko", "pref_id": "iwate", "uri": "http://www.michi-no-eki.jp/michinoeki/iwate/kinshuuko/"}}, {"geometry": {"type": "Point", "coordinates": [141.3399576, 39.984567]}, "type": "Feature", "properties": {"name": "くずまき高原", "address": "岩手県岩手郡葛巻町葛巻39-159-3", "station_id": "kuzumakikogen", "pref_id": "iwate", "uri": "http://www.michi-no-eki.jp/michinoeki/iwate/kuzumakikogen/"}}, {"geometry": {"type": "Point", "coordinates": [141.2137995, 39.9686599]}, "type": "Feature", "properties": {"name": "石神の丘", "address": "岩手県岩手郡岩手町大字五日市第10地割121-20", "station_id": "ishigaminoka", "pref_id": "iwate", "uri": "http://www.michi-no-eki.jp/michinoeki/iwate/ishigaminoka/"}}, {"geometry": {"type": "Point", "coordinates": [140.8748864, 39.7064117]}, "type": "Feature", "properties": {"name": "雫石あねっこ", "address": "岩手県岩手郡雫石町橋場坂本118-10", "station_id": "shizukuishianekko", "pref_id": "iwate", "uri": "http://www.michi-no-eki.jp/michinoeki/iwate/shizukuishianekko/"}}, {"geometry": {"type": "Point", "coordinates": [141.2218949, 39.3824368]}, "type": "Feature", "properties": {"name": "とうわ", "address": "岩手県花巻市東和町安俵6区147-2", "station_id": "towa", "pref_id": "iwate", "uri": "http://www.michi-no-eki.jp/michinoeki/iwate/towa/"}}, {"geometry": {"type": "Point", "coordinates": [141.0528845, 38.9464394]}, "type": "Feature", "properties": {"name": "厳美渓", "address": "岩手県一関市厳美町字沖野々220-1", "station_id": "gembikei", "pref_id": "iwate", "uri": "http://www.michi-no-eki.jp/michinoeki/iwate/gembikei/"}}, {"geometry": {"type": "Point", "coordinates": [141.4165286, 40.248349]}, "type": "Feature", "properties": {"name": "おりつめ", "address": "岩手県九戸郡九戸村大字山屋2-28-1", "station_id": "oritsume", "pref_id": "iwate", "uri": "http://www.michi-no-eki.jp/michinoeki/iwate/oritsume/"}}, {"geometry": {"type": "Point", "coordinates": [141.2723745, 38.8986767]}, "type": "Feature", "properties": {"name": "かわさき", "address": "岩手県一関市川崎町薄衣字法道地42-3", "station_id": "kawasaki", "pref_id": "iwate", "uri": "http://www.michi-no-eki.jp/michinoeki/iwate/kawasaki/"}}, {"geometry": {"type": "Point", "coordinates": [141.5891622, 39.6488825]}, "type": "Feature", "properties": {"name": "やまびこ館", "address": "岩手県宮古市川内8-2", "station_id": "yamabikokan", "pref_id": "iwate", "uri": "http://www.michi-no-eki.jp/michinoeki/iwate/yamabikokan/"}}, {"geometry": {"type": "Point", "coordinates": [141.9700633, 39.6389792]}, "type": "Feature", "properties": {"name": "みやこ", "address": "岩手県宮古市臨港通1-20", "station_id": "miyako", "pref_id": "iwate", "uri": "http://www.michi-no-eki.jp/michinoeki/iwate/miyako/"}}, {"geometry": {"type": "Point", "coordinates": [141.5898044, 39.8712707]}, "type": "Feature", "properties": {"name": "三田貝分校", "address": "岩手県下閉伊郡岩泉町門字三田貝47番地2", "station_id": "mitagaibunko", "pref_id": "iwate", "uri": "http://www.michi-no-eki.jp/michinoeki/iwate/mitagaibunko/"}}, {"geometry": {"type": "Point", "coordinates": [141.7646387, 40.1898882]}, "type": "Feature", "properties": {"name": "くじ", "address": "岩手県久慈市中町2-5-6", "station_id": "kuji", "pref_id": "iwate", "uri": "http://www.michi-no-eki.jp/michinoeki/iwate/kuji/"}}, {"geometry": {"type": "Point", "coordinates": [141.7824749, 39.2534105]}, "type": "Feature", "properties": {"name": "釜石仙人峠", "address": "岩手県釜石市甲子町第7地割155番4", "station_id": "kamaishisennintouge", "pref_id": "iwate", "uri": "http://www.michi-no-eki.jp/michinoeki/iwate/kamaishisennintouge/"}}, {"geometry": {"type": "Point", "coordinates": [141.1182933, 38.991423]}, "type": "Feature", "properties": {"name": "平泉(平成29年度開業予定)", "address": "岩手県西磐井郡平泉町平泉字伽羅楽112-2", "station_id": "hiraizumi", "pref_id": "iwate", "uri": "http://www.michi-no-eki.jp/michinoeki/iwate/hiraizumi/"}}, {"geometry": {"type": "Point", "coordinates": [139.874426, 38.5870194]}, "type": "Feature", "properties": {"name": "月山", "address": "山形県鶴岡市越中山字名平3-1", "station_id": "gassan", "pref_id": "yamagata", "uri": "http://www.michi-no-eki.jp/michinoeki/yamagata/gassan/"}}, {"geometry": {"type": "Point", "coordinates": [140.3284634, 38.4130448]}, "type": "Feature", "properties": {"name": "河北", "address": "山形県西村山郡河北町谷地字真木335-1", "station_id": "kahoku", "pref_id": "yamagata", "uri": "http://www.michi-no-eki.jp/michinoeki/yamagata/kahoku/"}}, {"geometry": {"type": "Point", "coordinates": [140.2710722, 38.3988001]}, "type": "Feature", "properties": {"name": "寒河江 チェリーランド", "address": "山形県寒河江市大字八鍬字川原919-8", "station_id": "sagae", "pref_id": "yamagata", "uri": "http://www.michi-no-eki.jp/michinoeki/yamagata/sagae/"}}, {"geometry": {"type": "Point", "coordinates": [139.5580697, 38.580422]}, "type": "Feature", "properties": {"name": "あつみ", "address": "山形県鶴岡市早田字戸ノ浦606", "station_id": "atsumi", "pref_id": "yamagata", "uri": "http://www.michi-no-eki.jp/michinoeki/yamagata/atsumi/"}}, {"geometry": {"type": "Point", "coordinates": [140.1000454, 38.4358627]}, "type": "Feature", "properties": {"name": "にしかわ", "address": "山形県西村山郡西川町大字水沢2304", "station_id": "nishikawa", "pref_id": "yamagata", "uri": "http://www.michi-no-eki.jp/michinoeki/yamagata/nishikawa/"}}, {"geometry": {"type": "Point", "coordinates": [139.9946712, 38.0260649]}, "type": "Feature", "properties": {"name": "いいで", "address": "山形県西置賜郡飯豊町大字松原1898", "station_id": "iide", "pref_id": "yamagata", "uri": "http://www.michi-no-eki.jp/michinoeki/yamagata/iide/"}}, {"geometry": {"type": "Point", "coordinates": [140.3823105, 38.4871462]}, "type": "Feature", "properties": {"name": "むらやま", "address": "山形県村山市大字楯岡7635-1", "station_id": "murayama", "pref_id": "yamagata", "uri": "http://www.michi-no-eki.jp/michinoeki/yamagata/murayama/"}}, {"geometry": {"type": "Point", "coordinates": [140.1623858, 38.7276748]}, "type": "Feature", "properties": {"name": "とざわ", "address": "山形県最上郡戸沢村大字蔵岡3704-12", "station_id": "tozawa", "pref_id": "yamagata", "uri": "http://www.michi-no-eki.jp/michinoeki/yamagata/tozawa/"}}, {"geometry": {"type": "Point", "coordinates": [139.8756261, 39.0603295]}, "type": "Feature", "properties": {"name": "鳥海", "address": "山形県飽海郡遊佐町大字菅里字菅野308-1", "station_id": "chokai", "pref_id": "yamagata", "uri": "http://www.michi-no-eki.jp/michinoeki/yamagata/chokai/"}}, {"geometry": {"type": "Point", "coordinates": [139.9841823, 37.8776582]}, "type": "Feature", "properties": {"name": "田沢", "address": "山形県米沢市大字入田沢573-19", "station_id": "tazawa", "pref_id": "yamagata", "uri": "http://www.michi-no-eki.jp/michinoeki/yamagata/tazawa/"}}, {"geometry": {"type": "Point", "coordinates": [139.7306094, 38.0719561]}, "type": "Feature", "properties": {"name": "白い森おぐに", "address": "山形県西置賜郡小国町大字小国小坂町616-1", "station_id": "shiroimorioguni", "pref_id": "yamagata", "uri": "http://www.michi-no-eki.jp/michinoeki/yamagata/shiroimorioguni/"}}, {"geometry": {"type": "Point", "coordinates": [140.2132908, 38.3677556]}, "type": "Feature", "properties": {"name": "おおえ", "address": "山形県西村山郡大江町大字藤田218-1", "station_id": "oe", "pref_id": "yamagata", "uri": "http://www.michi-no-eki.jp/michinoeki/yamagata/oe/"}}, {"geometry": {"type": "Point", "coordinates": [139.8463299, 38.7828046]}, "type": "Feature", "properties": {"name": "庄内みかわ", "address": "山形県東田川郡三川町大字横山字堤172-1", "station_id": "shonaimikawa", "pref_id": "yamagata", "uri": "http://www.michi-no-eki.jp/michinoeki/yamagata/shonaimikawa/"}}, {"geometry": {"type": "Point", "coordinates": [140.2172464, 38.0067776]}, "type": "Feature", "properties": {"name": "たかはた", "address": "山形県東置賜郡高畠町大字安久津2072-1", "station_id": "takahata", "pref_id": "yamagata", "uri": "http://www.michi-no-eki.jp/michinoeki/yamagata/takahata/"}}, {"geometry": {"type": "Point", "coordinates": [140.3892296, 38.3542797]}, "type": "Feature", "properties": {"name": "天童温泉", "address": "山形県天童市大字貫津字鍬ノ町2551", "station_id": "tendonsen", "pref_id": "yamagata", "uri": "http://www.michi-no-eki.jp/michinoeki/yamagata/tendonsen/"}}, {"geometry": {"type": "Point", "coordinates": [140.3637045, 38.6569302]}, "type": "Feature", "properties": {"name": "尾花沢", "address": "山形県尾花沢市芦沢1195-1", "station_id": "obanazawa", "pref_id": "yamagata", "uri": "http://www.michi-no-eki.jp/michinoeki/yamagata/obanazawa/"}}, {"geometry": {"type": "Point", "coordinates": [140.0973224, 38.2181108]}, "type": "Feature", "properties": {"name": "白鷹ヤナ公園", "address": "山形県西置賜郡白鷹町大字下山661", "station_id": "shiratakayanakoen", "pref_id": "yamagata", "uri": "http://www.michi-no-eki.jp/michinoeki/yamagata/shiratakayanakoen/"}}, {"geometry": {"type": "Point", "coordinates": [137.5557708, 36.9520072]}, "type": "Feature", "properties": {"name": "あさひまち", "address": "山形県西村山郡朝日町大字和合字北又2724", "station_id": "asahimachi", "pref_id": "yamagata", "uri": "http://www.michi-no-eki.jp/michinoeki/yamagata/asahimachi/"}}, {"geometry": {"type": "Point", "coordinates": [139.9849376, 38.7944561]}, "type": "Feature", "properties": {"name": "しょうない(2016年度開業予定)", "address": "山形県東田川郡庄内町狩川字外北割97番地1", "station_id": "shonai", "pref_id": "yamagata", "uri": "http://www.michi-no-eki.jp/michinoeki/yamagata/shonai/"}}, {"geometry": {"type": "Point", "coordinates": [140.0439401, 38.107827]}, "type": "Feature", "properties": {"name": "川のみなと長井(平成29年4月開業予定)", "address": "山形県長井市東町2番50号", "station_id": "kawanominatonagai", "pref_id": "yamagata", "uri": "http://www.michi-no-eki.jp/michinoeki/yamagata/kawanominatonagai/"}}, {"geometry": {"type": "Point", "coordinates": [140.5053545, 37.9711643]}, "type": "Feature", "properties": {"name": "七ヶ宿", "address": "宮城県刈田郡七ヶ宿町字野沢倉山2-119", "station_id": "shichigashuku", "pref_id": "miyagi", "uri": "http://www.michi-no-eki.jp/michinoeki/miyagi/shichigashuku/"}}, {"geometry": {"type": "Point", "coordinates": [141.3489206, 38.62794]}, "type": "Feature", "properties": {"name": "津山", "address": "宮城県登米市津山町横山字細谷26-1", "station_id": "tsuyama", "pref_id": "miyagi", "uri": "http://www.michi-no-eki.jp/michinoeki/miyagi/tsuyama/"}}, {"geometry": {"type": "Point", "coordinates": [140.9383773, 38.5216224]}, "type": "Feature", "properties": {"name": "三本木", "address": "宮城県大崎市三本木字大豆坂63-13", "station_id": "sambongi", "pref_id": "miyagi", "uri": "http://www.michi-no-eki.jp/michinoeki/miyagi/sambongi/"}}, {"geometry": {"type": "Point", "coordinates": [140.844399, 38.7944349]}, "type": "Feature", "properties": {"name": "路田里はなやま", "address": "宮城県栗原市花山字本沢北ノ前112-1", "station_id": "rotarihanayama", "pref_id": "miyagi", "uri": "http://www.michi-no-eki.jp/michinoeki/miyagi/rotarihanayama/"}}, {"geometry": {"type": "Point", "coordinates": [141.5664266, 38.8140565]}, "type": "Feature", "properties": {"name": "大谷海岸", "address": "宮城県気仙沼市本吉町三島94-12", "station_id": "oyakaigan", "pref_id": "miyagi", "uri": "http://www.michi-no-eki.jp/michinoeki/miyagi/oyakaigan/"}}, {"geometry": {"type": "Point", "coordinates": [140.9992715, 38.4196101]}, "type": "Feature", "properties": {"name": "おおさと", "address": "宮城県黒川郡大郷町中村字北浦51-6", "station_id": "osato", "pref_id": "miyagi", "uri": "http://www.michi-no-eki.jp/michinoeki/miyagi/osato/"}}, {"geometry": {"type": "Point", "coordinates": [141.1878908, 38.6271176]}, "type": "Feature", "properties": {"name": "米山", "address": "宮城県登米市米山町西野字遠田67", "station_id": "yoneyama", "pref_id": "miyagi", "uri": "http://www.michi-no-eki.jp/michinoeki/miyagi/yoneyama/"}}, {"geometry": {"type": "Point", "coordinates": [140.8336267, 38.7068042]}, "type": "Feature", "properties": {"name": "あ・ら・伊達な道の駅", "address": "宮城県大崎市岩出山池月字下宮道下4-1", "station_id": "a-ra-datenamichinoeki", "pref_id": "miyagi", "uri": "http://www.michi-no-eki.jp/michinoeki/miyagi/a-ra-datenamichinoeki/"}}, {"geometry": {"type": "Point", "coordinates": [141.3156265, 38.741396]}, "type": "Feature", "properties": {"name": "林林館", "address": "宮城県登米市東和町米川字六反33-1", "station_id": "rinrinkan", "pref_id": "miyagi", "uri": "http://www.michi-no-eki.jp/michinoeki/miyagi/rinrinkan/"}}, {"geometry": {"type": "Point", "coordinates": [141.2953175, 38.5010332]}, "type": "Feature", "properties": {"name": "上品の郷", "address": "宮城県石巻市小船越字二子北下1番地1", "station_id": "jobonnosato", "pref_id": "miyagi", "uri": "http://www.michi-no-eki.jp/michinoeki/miyagi/jobonnosato/"}}, {"geometry": {"type": "Point", "coordinates": [141.1606326, 38.6648826]}, "type": "Feature", "properties": {"name": "みなみかた", "address": "宮城県登米市南方町新高石浦150-1", "station_id": "minamikata", "pref_id": "miyagi", "uri": "http://www.michi-no-eki.jp/michinoeki/miyagi/minamikata/"}}, {"geometry": {"type": "Point", "coordinates": [140.7242784, 38.1212671]}, "type": "Feature", "properties": {"name": "村田", "address": "宮城県柴田郡村田町大字村田字北塩田41", "station_id": "murata", "pref_id": "miyagi", "uri": "http://www.michi-no-eki.jp/michinoeki/miyagi/murata/"}}, {"geometry": {"type": "Point", "coordinates": [141.3223942, 38.7091166]}, "type": "Feature", "properties": {"name": "三滝堂(2017.3.31開業予定)", "address": "宮城県登米市東和町米谷字福平191-1", "station_id": "mitakido", "pref_id": "miyagi", "uri": "http://www.michi-no-eki.jp/michinoeki/miyagi/mitakido/"}}, {"geometry": {"type": "Point", "coordinates": [140.3342938, 37.6551202]}, "type": "Feature", "properties": {"name": "つちゆ", "address": "福島県福島市松川町水原字南沢41-2", "station_id": "tsuchiyu", "pref_id": "fukushima", "uri": "http://www.michi-no-eki.jp/michinoeki/fukushima/tsuchiyu/"}}, {"geometry": {"type": "Point", "coordinates": [140.5766931, 37.6678183]}, "type": "Feature", "properties": {"name": "川俣", "address": "福島県伊達郡川俣町大字鶴沢字東13-1", "station_id": "kawamata", "pref_id": "fukushima", "uri": "http://www.michi-no-eki.jp/michinoeki/fukushima/kawamata/"}}, {"geometry": {"type": "Point", "coordinates": [139.7275995, 37.0865496]}, "type": "Feature", "properties": {"name": "たじま", "address": "福島県南会津郡南会津町糸沢字男鹿沼原3242-8", "station_id": "tajima", "pref_id": "fukushima", "uri": "http://www.michi-no-eki.jp/michinoeki/fukushima/tajima/"}}, {"geometry": {"type": "Point", "coordinates": [140.5109969, 37.628596]}, "type": "Feature", "properties": {"name": "安達", "address": "福島県二本松市下川崎字上平33-1(上り線)福島県二本松市米沢字下川原田105-2(下り線)", "station_id": "adachi", "pref_id": "fukushima", "uri": "http://www.michi-no-eki.jp/michinoeki/fukushima/adachi/"}}, {"geometry": {"type": "Point", "coordinates": [139.8782643, 37.7019379]}, "type": "Feature", "properties": {"name": "喜多の郷", "address": "福島県喜多方市松山町鳥見山字三町歩5598-1", "station_id": "kitanosato", "pref_id": "fukushima", "uri": "http://www.michi-no-eki.jp/michinoeki/fukushima/kitanosato/"}}, {"geometry": {"type": "Point", "coordinates": [140.0433895, 37.6649638]}, "type": "Feature", "properties": {"name": "裏磐梯", "address": "福島県耶麻郡北塩原村大字桧原字南黄連沢山1157", "station_id": "urabandai", "pref_id": "fukushima", "uri": "http://www.michi-no-eki.jp/michinoeki/fukushima/urabandai/"}}, {"geometry": {"type": "Point", "coordinates": [140.9976258, 37.2500062]}, "type": "Feature", "properties": {"name": "ならは", "address": "福島県双葉郡楢葉町大字山田岡字大堤入22-1", "station_id": "naraha", "pref_id": "fukushima", "uri": "http://www.michi-no-eki.jp/michinoeki/fukushima/naraha/"}}, {"geometry": {"type": "Point", "coordinates": [140.9479413, 37.7611061]}, "type": "Feature", "properties": {"name": "そうま", "address": "福島県相馬市日下石字金谷77-1", "station_id": "soma", "pref_id": "fukushima", "uri": "http://www.michi-no-eki.jp/michinoeki/fukushima/soma/"}}, {"geometry": {"type": "Point", "coordinates": [140.414492, 36.9506326]}, "type": "Feature", "properties": {"name": "はなわ", "address": "福島県東白川郡塙町大字塙字桜木町388-1", "station_id": "hanawa", "pref_id": "fukushima", "uri": "http://www.michi-no-eki.jp/michinoeki/fukushima/hanawa/"}}, {"geometry": {"type": "Point", "coordinates": [139.7221754, 37.527693]}, "type": "Feature", "properties": {"name": "会津柳津", "address": "福島県河沼郡柳津町字下平乙181-1", "station_id": "aizuyanaizu", "pref_id": "fukushima", "uri": "http://www.michi-no-eki.jp/michinoeki/fukushima/aizuyanaizu/"}}, {"geometry": {"type": "Point", "coordinates": [140.5773494, 37.5699562]}, "type": "Feature", "properties": {"name": "ふくしま東和", "address": "福島県二本松市太田字下田2-3", "station_id": "fukushimatowa", "pref_id": "fukushima", "uri": "http://www.michi-no-eki.jp/michinoeki/fukushima/fukushimatowa/"}}, {"geometry": {"type": "Point", "coordinates": [139.6425952, 37.5858675]}, "type": "Feature", "properties": {"name": "にしあいづ", "address": "福島県耶麻郡西会津町野沢字下條乙1969-26", "station_id": "nishiaizu", "pref_id": "fukushima", "uri": "http://www.michi-no-eki.jp/michinoeki/fukushima/nishiaizu/"}}, {"geometry": {"type": "Point", "coordinates": [139.670802, 37.4777576]}, "type": "Feature", "properties": {"name": "尾瀬街道みしま宿", "address": "福島県大沼郡三島町大字川井字天屋原610", "station_id": "ozekaido-mishimajuku", "pref_id": "fukushima", "uri": "http://www.michi-no-eki.jp/michinoeki/fukushima/ozekaido-mishimajuku/"}}, {"geometry": {"type": "Point", "coordinates": [140.4181372, 37.2228324]}, "type": "Feature", "properties": {"name": "たまかわ", "address": "福島県石川郡玉川村大字岩法寺字宮ノ前140-2", "station_id": "tamakawa", "pref_id": "fukushima", "uri": "http://www.michi-no-eki.jp/michinoeki/fukushima/tamakawa/"}}, {"geometry": {"type": "Point", "coordinates": [140.0633922, 37.2399765]}, "type": "Feature", "properties": {"name": "羽鳥湖高原", "address": "福島県岩瀬郡天栄村大字田良尾字芝草1-3552", "station_id": "hatorikokogen", "pref_id": "fukushima", "uri": "http://www.michi-no-eki.jp/michinoeki/fukushima/hatorikokogen/"}}, {"geometry": {"type": "Point", "coordinates": [140.983643, 37.6353066]}, "type": "Feature", "properties": {"name": "南相馬", "address": "福島県南相馬市原町区高見町2丁目30-1", "station_id": "minamisoma", "pref_id": "fukushima", "uri": "http://www.michi-no-eki.jp/michinoeki/fukushima/minamisoma/"}}, {"geometry": {"type": "Point", "coordinates": [139.9163428, 37.2035393]}, "type": "Feature", "properties": {"name": "しもごう", "address": "福島県南会津郡下郷町大字南倉沢字木賊844-188", "station_id": "shimogo", "pref_id": "fukushima", "uri": "http://www.michi-no-eki.jp/michinoeki/fukushima/shimogo/"}}, {"geometry": {"type": "Point", "coordinates": [140.5600321, 37.2505454]}, "type": "Feature", "properties": {"name": "ひらた", "address": "福島県石川郡平田村大字上蓬田字横森後160", "station_id": "hirata", "pref_id": "fukushima", "uri": "http://www.michi-no-eki.jp/michinoeki/fukushima/hirata/"}}, {"geometry": {"type": "Point", "coordinates": [140.9936059, 37.1072569]}, "type": "Feature", "properties": {"name": "よつくら港", "address": "福島県いわき市四倉町字五丁目218-1", "station_id": "yotsukurako", "pref_id": "fukushima", "uri": "http://www.michi-no-eki.jp/michinoeki/fukushima/yotsukurako/"}}, {"geometry": {"type": "Point", "coordinates": [139.9866523, 37.5627514]}, "type": "Feature", "properties": {"name": "ばんだい", "address": "福島県耶麻郡磐梯町大字磐梯字十王堂38", "station_id": "bandai", "pref_id": "fukushima", "uri": "http://www.michi-no-eki.jp/michinoeki/fukushima/bandai/"}}, {"geometry": {"type": "Point", "coordinates": [140.5297735, 37.0931301]}, "type": "Feature", "properties": {"name": "ふるどの", "address": "福島県石川郡古殿町大字田口字平舘25", "station_id": "furudono", "pref_id": "fukushima", "uri": "http://www.michi-no-eki.jp/michinoeki/fukushima/furudono/"}}, {"geometry": {"type": "Point", "coordinates": [139.6154861, 37.0688217]}, "type": "Feature", "properties": {"name": "番屋", "address": "福島県南会津郡南会津町番屋4番地", "station_id": "banya", "pref_id": "fukushima", "uri": "http://www.michi-no-eki.jp/michinoeki/fukushima/banya/"}}, {"geometry": {"type": "Point", "coordinates": [140.2447857, 37.2436603]}, "type": "Feature", "properties": {"name": "季の里天栄", "address": "福島県岩瀬郡天栄村大字大里字天房50-1", "station_id": "kinosatotenei", "pref_id": "fukushima", "uri": "http://www.michi-no-eki.jp/michinoeki/fukushima/kinosatotenei/"}}, {"geometry": {"type": "Point", "coordinates": [139.5426599, 37.2219817]}, "type": "Feature", "properties": {"name": "きらら289", "address": "福島県南会津郡南会津町山口字橋尻1番地", "station_id": "kirara-289", "pref_id": "fukushima", "uri": "http://www.michi-no-eki.jp/michinoeki/fukushima/kirara-289/"}}, {"geometry": {"type": "Point", "coordinates": [139.5305383, 37.4719298]}, "type": "Feature", "properties": {"name": "奥会津かねやま", "address": "福島県大沼郡金山町大字中川字上居平949番地8", "station_id": "okuaizukaneyama", "pref_id": "fukushima", "uri": "http://www.michi-no-eki.jp/michinoeki/fukushima/okuaizukaneyama/"}}, {"geometry": {"type": "Point", "coordinates": [140.5902479, 37.53478]}, "type": "Feature", "properties": {"name": "さくらの郷", "address": "福島県二本松市東新殿字平石田12番地2", "station_id": "sakuranosato", "pref_id": "fukushima", "uri": "http://www.michi-no-eki.jp/michinoeki/fukushima/sakuranosato/"}}, {"geometry": {"type": "Point", "coordinates": [139.8622973, 37.5572992]}, "type": "Feature", "properties": {"name": "あいづ 湯川・会津坂下", "address": "", "station_id": "aizu-yugawa-aizubange", "pref_id": "fukushima", "uri": "http://www.michi-no-eki.jp/michinoeki/fukushima/aizu-yugawa-aizubange/"}}, {"geometry": {"type": "Point", "coordinates": [139.6298557, 37.3259046]}, "type": "Feature", "properties": {"name": "からむし織の里しょうわ", "address": "福島県大沼郡昭和村大字佐倉字上ノ原1番地", "station_id": "karamushiorinosato-showa", "pref_id": "fukushima", "uri": "http://www.michi-no-eki.jp/michinoeki/fukushima/karamushiorinosato-showa/"}}, {"geometry": {"type": "Point", "coordinates": [140.1039922, 37.5350877]}, "type": "Feature", "properties": {"name": "猪苗代(2016年度開業予定)", "address": "福島県耶麻郡猪苗代町大字堅田字五百苅1", "station_id": "inawashiro", "pref_id": "fukushima", "uri": "http://www.michi-no-eki.jp/michinoeki/fukushima/inawashiro/"}}, {"geometry": {"type": "Point", "coordinates": [140.5454405, 37.8725041]}, "type": "Feature", "properties": {"name": "国見 あつかしの郷(平成28年度開業予定)", "address": "福島県伊達郡国見町大字藤田字日渡二18番1", "station_id": "kunimiatsukashinosato", "pref_id": "fukushima", "uri": "http://www.michi-no-eki.jp/michinoeki/fukushima/kunimiatsukashinosato/"}}, {"geometry": {"type": "Point", "coordinates": [138.7853833, 36.0848874]}, "type": "Feature", "properties": {"name": "上野", "address": "群馬県多野郡上野村大字勝山127番地", "station_id": "ueno", "pref_id": "gunma", "uri": "http://www.michi-no-eki.jp/michinoeki/gunma/ueno/"}}, {"geometry": {"type": "Point", "coordinates": [139.136429, 36.4590603]}, "type": "Feature", "properties": {"name": "ぐりーんふらわー牧場・大胡", "address": "群馬県前橋市滝窪町1369番地1", "station_id": "guri%ef%bd%b0nfurawa%ef%bd%b0bokujo-ogo", "pref_id": "gunma", "uri": "http://www.michi-no-eki.jp/michinoeki/gunma/guri%ef%bd%b0nfurawa%ef%bd%b0bokujo-ogo/"}}, {"geometry": {"type": "Point", "coordinates": [138.6276317, 36.595804]}, "type": "Feature", "properties": {"name": "六合", "address": "群馬県吾妻郡中之条町大字小雨22", "station_id": "kuni", "pref_id": "gunma", "uri": "http://www.michi-no-eki.jp/michinoeki/gunma/kuni/"}}, {"geometry": {"type": "Point", "coordinates": [138.9528062, 36.5481138]}, "type": "Feature", "properties": {"name": "おのこ", "address": "群馬県渋川市小野子1980", "station_id": "onoko", "pref_id": "gunma", "uri": "http://www.michi-no-eki.jp/michinoeki/gunma/onoko/"}}, {"geometry": {"type": "Point", "coordinates": [139.0403486, 36.1430927]}, "type": "Feature", "properties": {"name": "上州おにし", "address": "群馬県藤岡市譲原1089-2", "station_id": "joshuuonishi", "pref_id": "gunma", "uri": "http://www.michi-no-eki.jp/michinoeki/gunma/joshuuonishi/"}}, {"geometry": {"type": "Point", "coordinates": [139.10714, 36.687081]}, "type": "Feature", "properties": {"name": "川場田園プラザ", "address": "群馬県利根郡川場村大字萩室385番地", "station_id": "kawabadenempuraza", "pref_id": "gunma", "uri": "http://www.michi-no-eki.jp/michinoeki/gunma/kawabadenempuraza/"}}, {"geometry": {"type": "Point", "coordinates": [138.96767, 36.7645152]}, "type": "Feature", "properties": {"name": "みなかみ水紀行館", "address": "群馬県利根郡みなかみ町湯原1681-1", "station_id": "minakamimizukikokan", "pref_id": "gunma", "uri": "http://www.michi-no-eki.jp/michinoeki/gunma/minakamimizukikokan/"}}, {"geometry": {"type": "Point", "coordinates": [139.1200313, 36.6616976]}, "type": "Feature", "properties": {"name": "白沢", "address": "群馬県沼田市白沢町平出1297", "station_id": "shirasawa", "pref_id": "gunma", "uri": "http://www.michi-no-eki.jp/michinoeki/gunma/shirasawa/"}}, {"geometry": {"type": "Point", "coordinates": [138.5919117, 36.6157315]}, "type": "Feature", "properties": {"name": "草津運動茶屋公園", "address": "群馬県吾妻郡草津町大字草津2-1", "station_id": "kusatsuundojayakoen", "pref_id": "gunma", "uri": "http://www.michi-no-eki.jp/michinoeki/gunma/kusatsuundojayakoen/"}}, {"geometry": {"type": "Point", "coordinates": [139.2719912, 36.491184]}, "type": "Feature", "properties": {"name": "くろほね・やまびこ", "address": "群馬県桐生市黒保根町下田沢91番地4", "station_id": "kurohoneyamabiko", "pref_id": "gunma", "uri": "http://www.michi-no-eki.jp/michinoeki/gunma/kurohoneyamabiko/"}}, {"geometry": {"type": "Point", "coordinates": [139.0702194, 36.2786744]}, "type": "Feature", "properties": {"name": "ららん藤岡", "address": "群馬県藤岡市中1060-5", "station_id": "raranfujioka", "pref_id": "gunma", "uri": "http://www.michi-no-eki.jp/michinoeki/gunma/raranfujioka/"}}, {"geometry": {"type": "Point", "coordinates": [139.0163627, 36.5151403]}, "type": "Feature", "properties": {"name": "こもち", "address": "群馬県渋川市白井2318-1", "station_id": "komochi", "pref_id": "gunma", "uri": "http://www.michi-no-eki.jp/michinoeki/gunma/komochi/"}}, {"geometry": {"type": "Point", "coordinates": [138.9812566, 36.6976003]}, "type": "Feature", "properties": {"name": "月夜野矢瀬親水公園", "address": "群馬県利根郡みなかみ町月夜野2936", "station_id": "tsukiyonoyazeshinsuikoen", "pref_id": "gunma", "uri": "http://www.michi-no-eki.jp/michinoeki/gunma/tsukiyonoyazeshinsuikoen/"}}, {"geometry": {"type": "Point", "coordinates": [138.7660059, 36.2996188]}, "type": "Feature", "properties": {"name": "みょうぎ", "address": "群馬県富岡市妙義町岳322-7", "station_id": "myogi", "pref_id": "gunma", "uri": "http://www.michi-no-eki.jp/michinoeki/gunma/myogi/"}}, {"geometry": {"type": "Point", "coordinates": [138.8978301, 36.1092423]}, "type": "Feature", "properties": {"name": "万葉の里", "address": "群馬県多野郡神流町大字黒田742-1", "station_id": "mambanosato", "pref_id": "gunma", "uri": "http://www.michi-no-eki.jp/michinoeki/gunma/mambanosato/"}}, {"geometry": {"type": "Point", "coordinates": [138.8020231, 36.2240525]}, "type": "Feature", "properties": {"name": "しもにた", "address": "群馬県甘楽郡下仁田町大字馬山3766-11", "station_id": "shimonita", "pref_id": "gunma", "uri": "http://www.michi-no-eki.jp/michinoeki/gunma/shimonita/"}}, {"geometry": {"type": "Point", "coordinates": [139.3728487, 36.5525594]}, "type": "Feature", "properties": {"name": "富弘美術館", "address": "群馬県みどり市東町草木86番地", "station_id": "tomihirobijutsukan", "pref_id": "gunma", "uri": "http://www.michi-no-eki.jp/michinoeki/gunma/tomihirobijutsukan/"}}, {"geometry": {"type": "Point", "coordinates": [138.9082915, 36.6960522]}, "type": "Feature", "properties": {"name": "たくみの里", "address": "群馬県利根郡みなかみ町須川847", "station_id": "takuminosato", "pref_id": "gunma", "uri": "http://www.michi-no-eki.jp/michinoeki/gunma/takuminosato/"}}, {"geometry": {"type": "Point", "coordinates": [138.8297562, 36.6089289]}, "type": "Feature", "properties": {"name": "霊山たけやま", "address": "群馬県吾妻郡中之条町大字五反田222-1", "station_id": "reizantakeyama", "pref_id": "gunma", "uri": "http://www.michi-no-eki.jp/michinoeki/gunma/reizantakeyama/"}}, {"geometry": {"type": "Point", "coordinates": [139.0351612, 36.4416071]}, "type": "Feature", "properties": {"name": "よしおか温泉", "address": "群馬県北群馬郡吉岡町大字漆原2004番地", "station_id": "yoshiokaonsen", "pref_id": "gunma", "uri": "http://www.michi-no-eki.jp/michinoeki/gunma/yoshiokaonsen/"}}, {"geometry": {"type": "Point", "coordinates": [139.1284555, 36.4236952]}, "type": "Feature", "properties": {"name": "赤城の恵", "address": "群馬県前橋市荻窪町437-11", "station_id": "akaginomegumi", "pref_id": "gunma", "uri": "http://www.michi-no-eki.jp/michinoeki/gunma/akaginomegumi/"}}, {"geometry": {"type": "Point", "coordinates": [138.9167972, 36.2337132]}, "type": "Feature", "properties": {"name": "甘楽", "address": "群馬県甘楽郡甘楽町大字小幡444-1", "station_id": "kanra", "pref_id": "gunma", "uri": "http://www.michi-no-eki.jp/michinoeki/gunma/kanra/"}}, {"geometry": {"type": "Point", "coordinates": [139.0689353, 36.612775]}, "type": "Feature", "properties": {"name": "あぐりーむ昭和", "address": "群馬県利根郡昭和村大字森下2406-2", "station_id": "aguri%ef%bd%b0mushowa", "pref_id": "gunma", "uri": "http://www.michi-no-eki.jp/michinoeki/gunma/aguri%ef%bd%b0mushowa/"}}, {"geometry": {"type": "Point", "coordinates": [138.7417079, 36.1782734]}, "type": "Feature", "properties": {"name": "オアシスなんもく", "address": "群馬県甘楽郡南牧村大字千原3-1", "station_id": "oashisunammoku", "pref_id": "gunma", "uri": "http://www.michi-no-eki.jp/michinoeki/gunma/oashisunammoku/"}}, {"geometry": {"type": "Point", "coordinates": [139.0942386, 36.4693828]}, "type": "Feature", "properties": {"name": "ふじみ", "address": "群馬県前橋市富士見町石井1569-1", "station_id": "fujimi-2", "pref_id": "gunma", "uri": "http://www.michi-no-eki.jp/michinoeki/gunma/fujimi-2/"}}, {"geometry": {"type": "Point", "coordinates": [139.2964207, 36.2646406]}, "type": "Feature", "properties": {"name": "おおた", "address": "群馬県太田市粕川町701番地1", "station_id": "ota", "pref_id": "gunma", "uri": "http://www.michi-no-eki.jp/michinoeki/gunma/ota/"}}, {"geometry": {"type": "Point", "coordinates": [138.6842731, 36.5475134]}, "type": "Feature", "properties": {"name": "八ッ場ふるさと館", "address": "群馬県吾妻郡長野原町大字林1567番地4", "station_id": "yambafurusatokan", "pref_id": "gunma", "uri": "http://www.michi-no-eki.jp/michinoeki/gunma/yambafurusatokan/"}}, {"geometry": {"type": "Point", "coordinates": [138.9543706, 36.6225003]}, "type": "Feature", "properties": {"name": "中山盆地", "address": "群馬県吾妻郡高山村大字中山2357番地1", "station_id": "nakayamabonchi", "pref_id": "gunma", "uri": "http://www.michi-no-eki.jp/michinoeki/gunma/nakayamabonchi/"}}, {"geometry": {"type": "Point", "coordinates": [138.7930923, 36.4245358]}, "type": "Feature", "properties": {"name": "くらぶち小栗の里", "address": "群馬県高崎市倉渕町三ノ倉296番地1", "station_id": "kurabuchiogurinosato", "pref_id": "gunma", "uri": "http://www.michi-no-eki.jp/michinoeki/gunma/kurabuchiogurinosato/"}}, {"geometry": {"type": "Point", "coordinates": [138.7356141, 36.5695872]}, "type": "Feature", "properties": {"name": "あがつま峡", "address": "群馬県吾妻郡東吾妻町大字三島6441", "station_id": "agatsumakyo", "pref_id": "gunma", "uri": "http://www.michi-no-eki.jp/michinoeki/gunma/agatsumakyo/"}}, {"geometry": {"type": "Point", "coordinates": [139.0943274, 36.3082618]}, "type": "Feature", "properties": {"name": "玉村宿", "address": "群馬県佐波郡玉村町大字上新田604-1", "station_id": "tamamurajuku", "pref_id": "gunma", "uri": "http://www.michi-no-eki.jp/michinoeki/gunma/tamamurajuku/"}}, {"geometry": {"type": "Point", "coordinates": [140.1728576, 36.5278259]}, "type": "Feature", "properties": {"name": "もてぎ", "address": "栃木県芳賀郡茂木町大字茂木1090-1", "station_id": "motegi", "pref_id": "tochigi", "uri": "http://www.michi-no-eki.jp/michinoeki/tochigi/motegi/"}}, {"geometry": {"type": "Point", "coordinates": [139.964996, 36.3673361]}, "type": "Feature", "properties": {"name": "にのみや", "address": "栃木県真岡市久下田2204-1", "station_id": "ninomiya", "pref_id": "tochigi", "uri": "http://www.michi-no-eki.jp/michinoeki/tochigi/ninomiya/"}}, {"geometry": {"type": "Point", "coordinates": [139.8993301, 36.9557969]}, "type": "Feature", "properties": {"name": "湯の香しおばら", "address": "栃木県那須塩原市関谷442番地", "station_id": "yunokashiobara", "pref_id": "tochigi", "uri": "http://www.michi-no-eki.jp/michinoeki/tochigi/yunokashiobara/"}}, {"geometry": {"type": "Point", "coordinates": [140.0137036, 37.0415321]}, "type": "Feature", "properties": {"name": "那須高原友愛の森", "address": "栃木県那須郡那須町大字高久乙593-8", "station_id": "nasukogen-yuuainomori", "pref_id": "tochigi", "uri": "http://www.michi-no-eki.jp/michinoeki/tochigi/nasukogen-yuuainomori/"}}, {"geometry": {"type": "Point", "coordinates": [139.9850158, 37.0010944]}, "type": "Feature", "properties": {"name": "明治の森・黒磯", "address": "栃木県那須塩原市青木27番地", "station_id": "meijinomorikuroiso", "pref_id": "tochigi", "uri": "http://www.michi-no-eki.jp/michinoeki/tochigi/meijinomorikuroiso/"}}, {"geometry": {"type": "Point", "coordinates": [140.1498965, 36.7475796]}, "type": "Feature", "properties": {"name": "ばとう", "address": "栃木県那須郡那珂川町北向田183-1", "station_id": "bato", "pref_id": "tochigi", "uri": "http://www.michi-no-eki.jp/michinoeki/tochigi/bato/"}}, {"geometry": {"type": "Point", "coordinates": [140.1574148, 36.9540542]}, "type": "Feature", "properties": {"name": "東山道伊王野", "address": "栃木県那須郡那須町大字伊王野459", "station_id": "tosando-iono", "pref_id": "tochigi", "uri": "http://www.michi-no-eki.jp/michinoeki/tochigi/tosando-iono/"}}, {"geometry": {"type": "Point", "coordinates": [140.0326363, 36.7154994]}, "type": "Feature", "properties": {"name": "きつれがわ", "address": "栃木県さくら市喜連川4145-10", "station_id": "kitsuregawa", "pref_id": "tochigi", "uri": "http://www.michi-no-eki.jp/michinoeki/tochigi/kitsuregawa/"}}, {"geometry": {"type": "Point", "coordinates": [139.5721208, 36.3435044]}, "type": "Feature", "properties": {"name": "どまんなか たぬま", "address": "栃木県佐野市吉水町366-2", "station_id": "domannaka-tanuma", "pref_id": "tochigi", "uri": "http://www.michi-no-eki.jp/michinoeki/tochigi/domannaka-tanuma/"}}, {"geometry": {"type": "Point", "coordinates": [140.0581962, 36.5523813]}, "type": "Feature", "properties": {"name": "はが", "address": "栃木県芳賀郡芳賀町大字祖母井842-1", "station_id": "haga", "pref_id": "tochigi", "uri": "http://www.michi-no-eki.jp/michinoeki/tochigi/haga/"}}, {"geometry": {"type": "Point", "coordinates": [140.0873784, 36.8630177]}, "type": "Feature", "properties": {"name": "那須与一の郷", "address": "栃木県大田原市南金丸1584-6", "station_id": "nasunoyoichinosato", "pref_id": "tochigi", "uri": "http://www.michi-no-eki.jp/michinoeki/tochigi/nasunoyoichinosato/"}}, {"geometry": {"type": "Point", "coordinates": [139.9685838, 36.9008623]}, "type": "Feature", "properties": {"name": "那須野が原博物館", "address": "栃木県那須塩原市三島5-1", "station_id": "nasunogahara-hakubutsukan", "pref_id": "tochigi", "uri": "http://www.michi-no-eki.jp/michinoeki/tochigi/nasunogahara-hakubutsukan/"}}, {"geometry": {"type": "Point", "coordinates": [139.734081, 36.3823804]}, "type": "Feature", "properties": {"name": "みかも", "address": "栃木県栃木市藤岡町大和田678", "station_id": "mikamo", "pref_id": "tochigi", "uri": "http://www.michi-no-eki.jp/michinoeki/tochigi/mikamo/"}}, {"geometry": {"type": "Point", "coordinates": [139.7607489, 36.3081846]}, "type": "Feature", "properties": {"name": "思川", "address": "栃木県小山市大字下国府塚25-1", "station_id": "omoigawa", "pref_id": "tochigi", "uri": "http://www.michi-no-eki.jp/michinoeki/tochigi/omoigawa/"}}, {"geometry": {"type": "Point", "coordinates": [139.6779606, 36.9323012]}, "type": "Feature", "properties": {"name": "湯西川", "address": "栃木県日光市西川478番地1", "station_id": "yunishigawa", "pref_id": "tochigi", "uri": "http://www.michi-no-eki.jp/michinoeki/tochigi/yunishigawa/"}}, {"geometry": {"type": "Point", "coordinates": [139.8069587, 36.4552686]}, "type": "Feature", "properties": {"name": "みぶ", "address": "栃木県下都賀郡壬生町大字国谷1870-2", "station_id": "mibu", "pref_id": "tochigi", "uri": "http://www.michi-no-eki.jp/michinoeki/tochigi/mibu/"}}, {"geometry": {"type": "Point", "coordinates": [139.7431798, 36.4666875]}, "type": "Feature", "properties": {"name": "にしかた", "address": "栃木県栃木市西方町元369-1", "station_id": "nishikata", "pref_id": "tochigi", "uri": "http://www.michi-no-eki.jp/michinoeki/tochigi/nishikata/"}}, {"geometry": {"type": "Point", "coordinates": [139.8837944, 36.3971639]}, "type": "Feature", "properties": {"name": "しもつけ", "address": "栃木県下野市薬師寺3720-1", "station_id": "shimotsuke", "pref_id": "tochigi", "uri": "http://www.michi-no-eki.jp/michinoeki/tochigi/shimotsuke/"}}, {"geometry": {"type": "Point", "coordinates": [139.9216154, 36.805614]}, "type": "Feature", "properties": {"name": "やいた", "address": "栃木県矢板市矢板114番地1", "station_id": "yaita", "pref_id": "tochigi", "uri": "http://www.michi-no-eki.jp/michinoeki/tochigi/yaita/"}}, {"geometry": {"type": "Point", "coordinates": [139.781318, 36.7647074]}, "type": "Feature", "properties": {"name": "湧水の郷しおや", "address": "栃木県塩谷郡塩谷町大字船生3733-1", "station_id": "yuusuinosato-shioya", "pref_id": "tochigi", "uri": "http://www.michi-no-eki.jp/michinoeki/tochigi/yuusuinosato-shioya/"}}, {"geometry": {"type": "Point", "coordinates": [139.8313127, 36.633391]}, "type": "Feature", "properties": {"name": "うつのみや ろまんちっく村", "address": "栃木県宇都宮市新里町丙254番地", "station_id": "utsunomiya-romanchikkumura", "pref_id": "tochigi", "uri": "http://www.michi-no-eki.jp/michinoeki/tochigi/utsunomiya-romanchikkumura/"}}, {"geometry": {"type": "Point", "coordinates": [140.1001434, 36.5426889]}, "type": "Feature", "properties": {"name": "サシバの里いちかい", "address": "栃木県芳賀郡市貝町大字市塙1270番地", "station_id": "sashibanosatoichikai", "pref_id": "tochigi", "uri": "http://www.michi-no-eki.jp/michinoeki/tochigi/sashibanosatoichikai/"}}, {"geometry": {"type": "Point", "coordinates": [139.688067, 36.7252183]}, "type": "Feature", "properties": {"name": "日光", "address": "栃木県日光市今市719番地1", "station_id": "nikkou", "pref_id": "tochigi", "uri": "http://www.michi-no-eki.jp/michinoeki/tochigi/nikkou/"}}, {"geometry": {"type": "Point", "coordinates": [140.0844274, 36.4300685]}, "type": "Feature", "properties": {"name": "ましこ(2016年度開業予定)", "address": "栃木県芳賀郡益子町大字長堤2271番地", "station_id": "mashiko", "pref_id": "tochigi", "uri": "http://www.michi-no-eki.jp/michinoeki/tochigi/mashiko/"}}, {"geometry": {"type": "Point", "coordinates": [140.3330587, 36.5449685]}, "type": "Feature", "properties": {"name": "かつら", "address": "茨城県東茨城郡城里町大字御前山37番地", "station_id": "katsura", "pref_id": "ibaraki", "uri": "http://www.michi-no-eki.jp/michinoeki/ibaraki/katsura/"}}, {"geometry": {"type": "Point", "coordinates": [140.2800036, 36.6558574]}, "type": "Feature", "properties": {"name": "みわ", "address": "茨城県常陸大宮市鷲子272番地", "station_id": "miwa", "pref_id": "ibaraki", "uri": "http://www.michi-no-eki.jp/michinoeki/ibaraki/miwa/"}}, {"geometry": {"type": "Point", "coordinates": [140.5096817, 36.7057462]}, "type": "Feature", "properties": {"name": "さとみ", "address": "茨城県常陸太田市小菅694番地3", "station_id": "satomi", "pref_id": "ibaraki", "uri": "http://www.michi-no-eki.jp/michinoeki/ibaraki/satomi/"}}, {"geometry": {"type": "Point", "coordinates": [139.7953455, 36.1026782]}, "type": "Feature", "properties": {"name": "さかい", "address": "茨城県猿島郡境町1341番地1", "station_id": "sakai", "pref_id": "ibaraki", "uri": "http://www.michi-no-eki.jp/michinoeki/ibaraki/sakai/"}}, {"geometry": {"type": "Point", "coordinates": [140.3592347, 36.7685851]}, "type": "Feature", "properties": {"name": "奥久慈だいご", "address": "茨城県久慈郡大子町大字池田2830番地1", "station_id": "okukujidaigo", "pref_id": "ibaraki", "uri": "http://www.michi-no-eki.jp/michinoeki/ibaraki/okukujidaigo/"}}, {"geometry": {"type": "Point", "coordinates": [139.9865656, 36.2158713]}, "type": "Feature", "properties": {"name": "しもつま", "address": "茨城県下妻市数須140番地", "station_id": "shimotsuma", "pref_id": "ibaraki", "uri": "http://www.michi-no-eki.jp/michinoeki/ibaraki/shimotsuma/"}}, {"geometry": {"type": "Point", "coordinates": [140.4037633, 36.0963942]}, "type": "Feature", "properties": {"name": "たまつくり", "address": "茨城県行方市玉造甲1963-5", "station_id": "tamatsukuri", "pref_id": "ibaraki", "uri": "http://www.michi-no-eki.jp/michinoeki/ibaraki/tamatsukuri/"}}, {"geometry": {"type": "Point", "coordinates": [140.5892448, 35.9461322]}, "type": "Feature", "properties": {"name": "いたこ", "address": "茨城県潮来市前川1326-1", "station_id": "itako", "pref_id": "ibaraki", "uri": "http://www.michi-no-eki.jp/michinoeki/ibaraki/itako/"}}, {"geometry": {"type": "Point", "coordinates": [139.7582595, 36.095335]}, "type": "Feature", "properties": {"name": "ごか", "address": "茨城県猿島郡五霞町幸主18-1", "station_id": "goka", "pref_id": "ibaraki", "uri": "http://www.michi-no-eki.jp/michinoeki/ibaraki/goka/"}}, {"geometry": {"type": "Point", "coordinates": [139.7025248, 36.1846451]}, "type": "Feature", "properties": {"name": "まくらがの里 こが", "address": "茨城県古河市大田和2623番地", "station_id": "makuraganosato-koga", "pref_id": "ibaraki", "uri": "http://www.michi-no-eki.jp/michinoeki/ibaraki/makuraganosato-koga/"}}, {"geometry": {"type": "Point", "coordinates": [140.6151942, 36.4923537]}, "type": "Feature", "properties": {"name": "日立おさかなセンター", "address": "茨城県日立市みなと町5779-24", "station_id": "hitachi-osakanasenta", "pref_id": "ibaraki", "uri": "http://www.michi-no-eki.jp/michinoeki/ibaraki/hitachi-osakanasenta/"}}, {"geometry": {"type": "Point", "coordinates": [140.4115467, 36.5928004]}, "type": "Feature", "properties": {"name": "常陸大宮", "address": "茨城県常陸大宮市岩崎717番1", "station_id": "hitachiomiya", "pref_id": "ibaraki", "uri": "http://www.michi-no-eki.jp/michinoeki/ibaraki/hitachiomiya/"}}, {"geometry": {"type": "Point", "coordinates": [140.5278257, 36.506628]}, "type": "Feature", "properties": {"name": "ひたちおおた", "address": "茨城県常陸太田市下河合町1016番1 ", "station_id": "hitachiota-eki", "pref_id": "ibaraki", "uri": "http://www.michi-no-eki.jp/michinoeki/ibaraki/hitachiota-eki/"}}, {"geometry": {"type": "Point", "coordinates": [139.3414749, 35.6866238]}, "type": "Feature", "properties": {"name": "八王子滝山", "address": "東京都八王子市滝山町1-592-2", "station_id": "hachiojitakiyama", "pref_id": "tokyo", "uri": "http://www.michi-no-eki.jp/michinoeki/tokyo/hachiojitakiyama/"}}, {"geometry": {"type": "Point", "coordinates": [139.8371306, 35.0376773]}, "type": "Feature", "properties": {"name": "とみうら", "address": "千葉県南房総市富浦町青木123-1", "station_id": "tomiura", "pref_id": "chiba", "uri": "http://www.michi-no-eki.jp/michinoeki/chiba/tomiura/"}}, {"geometry": {"type": "Point", "coordinates": [139.8948453, 35.0341006]}, "type": "Feature", "properties": {"name": "三芳村", "address": "千葉県南房総市川田82-2", "station_id": "miyoshimura", "pref_id": "chiba", "uri": "http://www.michi-no-eki.jp/michinoeki/chiba/miyoshimura/"}}, {"geometry": {"type": "Point", "coordinates": [140.1067486, 35.7584154]}, "type": "Feature", "properties": {"name": "やちよ", "address": "千葉県八千代市米本4905-1", "station_id": "yachiyo", "pref_id": "chiba", "uri": "http://www.michi-no-eki.jp/michinoeki/chiba/yachiyo/"}}, {"geometry": {"type": "Point", "coordinates": [139.8371002, 35.1279707]}, "type": "Feature", "properties": {"name": "きょなん", "address": "千葉県安房郡鋸南町吉浜517-1", "station_id": "kyonan", "pref_id": "chiba", "uri": "http://www.michi-no-eki.jp/michinoeki/chiba/kyonan/"}}, {"geometry": {"type": "Point", "coordinates": [140.0770891, 35.0638015]}, "type": "Feature", "properties": {"name": "鴨川オーシャンパーク", "address": "千葉県鴨川市江見太夫崎22", "station_id": "kamogawa-o%ef%bd%b0shampa%ef%bd%b0ku", "pref_id": "chiba", "uri": "http://www.michi-no-eki.jp/michinoeki/chiba/kamogawa-o%ef%bd%b0shampa%ef%bd%b0ku/"}}, {"geometry": {"type": "Point", "coordinates": [139.9753266, 35.0086555]}, "type": "Feature", "properties": {"name": "ローズマリー公園", "address": "千葉県南房総市白子1501", "station_id": "ro%ef%bd%b0zumari%ef%bd%b0koen", "pref_id": "chiba", "uri": "http://www.michi-no-eki.jp/michinoeki/chiba/ro%ef%bd%b0zumari%ef%bd%b0koen/"}}, {"geometry": {"type": "Point", "coordinates": [140.0695173, 35.1985309]}, "type": "Feature", "properties": {"name": "ふれあいパーク・きみつ", "address": "千葉県君津市笹字椿1766-3", "station_id": "fureaipa%ef%bd%b0ku-kimitsu", "pref_id": "chiba", "uri": "http://www.michi-no-eki.jp/michinoeki/chiba/fureaipa%ef%bd%b0ku-kimitsu/"}}, {"geometry": {"type": "Point", "coordinates": [140.0232539, 35.8577705]}, "type": "Feature", "properties": {"name": "しょうなん", "address": "千葉県柏市箕輪新田59-2", "station_id": "shonan", "pref_id": "chiba", "uri": "http://www.michi-no-eki.jp/michinoeki/chiba/shonan/"}}, {"geometry": {"type": "Point", "coordinates": [140.2566948, 35.2490314]}, "type": "Feature", "properties": {"name": "たけゆらの里おおたき", "address": "千葉県夷隅郡大多喜町石神870-5", "station_id": "takeyuranosatotaki", "pref_id": "chiba", "uri": "http://www.michi-no-eki.jp/michinoeki/chiba/takeyuranosatotaki/"}}, {"geometry": {"type": "Point", "coordinates": [140.4752437, 35.7314732]}, "type": "Feature", "properties": {"name": "多古", "address": "千葉県香取郡多古町多古1069-1", "station_id": "tako", "pref_id": "chiba", "uri": "http://www.michi-no-eki.jp/michinoeki/chiba/tako/"}}, {"geometry": {"type": "Point", "coordinates": [140.109646, 35.4638588]}, "type": "Feature", "properties": {"name": "あずの里いちはら", "address": "千葉県市原市浅井小向492-1", "station_id": "azunosatoichihara", "pref_id": "chiba", "uri": "http://www.michi-no-eki.jp/michinoeki/chiba/azunosatoichihara/"}}, {"geometry": {"type": "Point", "coordinates": [140.4701229, 35.8059964]}, "type": "Feature", "properties": {"name": "くりもと", "address": "千葉県香取市沢1372-1", "station_id": "kurimoto", "pref_id": "chiba", "uri": "http://www.michi-no-eki.jp/michinoeki/chiba/kurimoto/"}}, {"geometry": {"type": "Point", "coordinates": [139.9520926, 34.9299008]}, "type": "Feature", "properties": {"name": "ちくら・潮風王国", "address": "千葉県南房総市千倉町千田1051", "station_id": "chikurashiokazeokoku", "pref_id": "chiba", "uri": "http://www.michi-no-eki.jp/michinoeki/chiba/chikurashiokazeokoku/"}}, {"geometry": {"type": "Point", "coordinates": [139.8556137, 35.1005082]}, "type": "Feature", "properties": {"name": "富楽里とみやま", "address": "千葉県南房総市二部1900", "station_id": "furaritomiyama", "pref_id": "chiba", "uri": "http://www.michi-no-eki.jp/michinoeki/chiba/furaritomiyama/"}}, {"geometry": {"type": "Point", "coordinates": [139.8603645, 35.0577165]}, "type": "Feature", "properties": {"name": "おおつの里", "address": "千葉県南房総市富浦町大津320", "station_id": "otsunosato", "pref_id": "chiba", "uri": "http://www.michi-no-eki.jp/michinoeki/chiba/otsunosato/"}}, {"geometry": {"type": "Point", "coordinates": [140.5015935, 35.6017957]},