{"type": "FeatureCollection", "features": [{"type": "Feature", "geometry": {"type": "Point", "coordinates": [141.80455, 43.246601]}, "properties": {"pref_id": "10", "station_id": "18786", "name": "三笠", "address": "068-2165 北海道三笠市岡山1056-1", "tel": "01267-2-5775", "hours": "9:00〜18:00(4〜9月) 9:00〜17:00(10〜3月)", "uri": "https://www.michi-no-eki.jp/stations/views/18786"}}, {"type": "Feature", "geometry": {"type": "Point", "coordinates": [142.188894, 43.525518]}, "properties": {"pref_id": "10", "station_id": "18787", "name": "スタープラザ 芦別", "address": "075-0014 北海道芦別市北4条東1-1", "tel": "0124-23-1437", "hours": "9:00〜19:00(5〜10月)9:00〜18:00(11〜4月)", "uri": "https://www.michi-no-eki.jp/stations/views/18787"}}, {"type": "Feature", "geometry": {"type": "Point", "coordinates": [142.572798, 43.169701]}, "properties": {"pref_id": "10", "station_id": "18788", "name": "南ふらの", "address": "079-2403 北海道空知郡南富良野町字幾寅687", "tel": "0167-52-2100", "hours": "9:00〜17:00(6〜9月は19:00まで)", "uri": "https://www.michi-no-eki.jp/stations/views/18788"}}, {"type": "Feature", "geometry": {"type": "Point", "coordinates": [144.198127, 42.992735]}, "properties": {"pref_id": "10", "station_id": "18789", "name": "しらぬか恋問", "address": "088-0562 北海道白糠郡白糠町恋問3丁目3-1", "tel": "01547-5-3317", "hours": "9:00〜17:30", "uri": "https://www.michi-no-eki.jp/stations/views/18789"}}, {"type": "Feature", "geometry": {"type": "Point", "coordinates": [142.320033, 44.558858]}, "properties": {"pref_id": "10", "station_id": "18790", "name": "びふか", "address": "098-2362 北海道中川郡美深町字大手307-1", "tel": "01656-2-1000", "hours": "9:00〜18:00", "uri": "https://www.michi-no-eki.jp/stations/views/18790"}}, {"type": "Feature", "geometry": {"type": "Point", "coordinates": [140.139289, 41.894342]}, "properties": {"pref_id": "10", "station_id": "18791", "name": "江差", "address": "043-0024 北海道檜山郡江差町字尾山町1", "tel": "0139-52-1177", "hours": "9:00〜17:00(4〜11月) 10:00〜16:00(12〜3月)", "uri": "https://www.michi-no-eki.jp/stations/views/18791"}}, {"type": "Feature", "geometry": {"type": "Point", "coordinates": [141.096589, 42.855177]}, "properties": {"pref_id": "10", "station_id": "18792", "name": "望羊中山", "address": "044-0223 北海道虻田郡喜茂別町字川上345", "tel": "0136-33-2671", "hours": "8:30〜17:30", "uri": "https://www.michi-no-eki.jp/stations/views/18792"}}, {"type": "Feature", "geometry": {"type": "Point", "coordinates": [141.793647, 44.71412]}, "properties": {"pref_id": "10", "station_id": "18793", "name": "えんべつ富士見", "address": "098-3534 北海道天塩郡遠別町字富士見46-1", "tel": "01632-7-3939", "hours": "9:00〜17:00", "uri": "https://www.michi-no-eki.jp/stations/views/18793"}}, {"type": "Feature", "geometry": {"type": "Point", "coordinates": [143.299194, 42.558862]}, "properties": {"pref_id": "10", "station_id": "18794", "name": "忠類", "address": "089-1701 北海道中川郡幕別町忠類白銀町384-12", "tel": "01558-8-3236", "hours": "9:00〜18:00", "uri": "https://www.michi-no-eki.jp/stations/views/18794"}}, {"type": "Feature", "geometry": {"type": "Point", "coordinates": [144.447719, 43.492391]}, "properties": {"pref_id": "10", "station_id": "18796", "name": "摩周温泉", "address": "088-3203 北海道川上郡弟子屈町湯の島3-5-5", "tel": "015-482-2500", "hours": "8:00〜18:00(11〜4月は9:00〜17:00)", "uri": "https://www.michi-no-eki.jp/stations/views/18796"}}, {"type": "Feature", "geometry": {"type": "Point", "coordinates": [142.257872, 44.729078]}, "properties": {"pref_id": "10", "station_id": "18797", "name": "おといねっぷ", "address": "098-2501 北海道中川郡音威子府村字音威子府155", "tel": "01656-5-3111", "hours": "売店9:30〜17:00 レストラン11:00〜17:00", "uri": "https://www.michi-no-eki.jp/stations/views/18797"}}, {"type": "Feature", "geometry": {"type": "Point", "coordinates": [143.595699, 44.185182]}, "properties": {"pref_id": "10", "station_id": "18798", "name": "かみゆうべつ温泉チューリップの湯", "address": "099-6329 北海道紋別郡湧別町中湧別中町3020-1", "tel": "01586-4-1126", "hours": "10:00〜22:00", "uri": "https://www.michi-no-eki.jp/stations/views/18798"}}, {"type": "Feature", "geometry": {"type": "Point", "coordinates": [140.51678, 42.983435]}, "properties": {"pref_id": "10", "station_id": "18799", "name": "いわない", "address": "045-0003 北海道岩内郡岩内町字万代47-4", "tel": "0135-63-1155", "hours": "9:00〜18:00(4〜10月) 9:00〜17:30(11〜3月)", "uri": "https://www.michi-no-eki.jp/stations/views/18799"}}, {"type": "Feature", "geometry": {"type": "Point", "coordinates": [143.328723, 43.995941]}, "properties": {"pref_id": "10", "station_id": "18800", "name": "まるせっぷ", "address": "099-0207 北海道紋別郡遠軽町丸瀬布元町42-2", "tel": "0158-47-2010", "hours": "9:00〜17:00", "uri": "https://www.michi-no-eki.jp/stations/views/18800"}}, {"type": "Feature", "geometry": {"type": "Point", "coordinates": [144.844018, 43.05767]}, "properties": {"pref_id": "10", "station_id": "18801", "name": "厚岸グルメパーク", "address": "088-1119 北海道厚岸郡厚岸町住の江町2-2", "tel": "0153-52-4139", "hours": "9:00〜17:00(4〜10月)  10:00〜18:00(11〜3月) ", "uri": "https://www.michi-no-eki.jp/stations/views/18801"}}, {"type": "Feature", "geometry": {"type": "Point", "coordinates": [141.875302, 43.751048]}, "properties": {"pref_id": "10", "station_id": "18802", "name": "サンフラワー北竜", "address": "078-2511 北海道雨竜郡北竜町字板谷163-2", "tel": "0164-34-3321", "hours": "8:00〜22:00", "uri": "https://www.michi-no-eki.jp/stations/views/18802"}}, {"type": "Feature", "geometry": {"type": "Point", "coordinates": [142.634226, 42.220874]}, "properties": {"pref_id": "10", "station_id": "18803", "name": "みついし", "address": "059-3233 北海道日高郡新ひだか町三石鳧舞161-2", "tel": "0146-34-2333", "hours": "8:45〜17:30", "uri": "https://www.michi-no-eki.jp/stations/views/18803"}}, {"type": "Feature", "geometry": {"type": "Point", "coordinates": [140.216154, 41.916573]}, "properties": {"pref_id": "10", "station_id": "18804", "name": "あっさぶ", "address": "043-1112 北海道檜山郡厚沢部町緑町72-1", "tel": "0139-64-3738", "hours": "8:30〜18:00(5〜10月) 9:00〜17:00(11〜4月)", "uri": "https://www.michi-no-eki.jp/stations/views/18804"}}, {"type": "Feature", "geometry": {"type": "Point", "coordinates": [140.013417, 42.686727]}, "properties": {"pref_id": "10", "station_id": "18805", "name": "よってけ!島牧", "address": "048-0631 北海道島牧郡島牧村字千走11-1", "tel": "0136-74-5183", "hours": "9:00〜18:00(7〜8月) 9:00〜17:00(9〜6月)", "uri": "https://www.michi-no-eki.jp/stations/views/18805"}}, {"type": "Feature", "geometry": {"type": "Point", "coordinates": [139.876681, 42.212366]}, "properties": {"pref_id": "10", "station_id": "18806", "name": "てっくいランド大成", "address": "043-0514 北海道久遠郡せたな町大成区平浜378", "tel": "01398-4-6561", "hours": "9:00〜17:00, 9:00〜16:00(11〜3月), 9:00〜19:00(7月中旬〜8月中旬)", "uri": "https://www.michi-no-eki.jp/stations/views/18806"}}, {"type": "Feature", "geometry": {"type": "Point", "coordinates": [143.375004, 44.328341]}, "properties": {"pref_id": "10", "station_id": "18807", "name": "オホーツク紋別", "address": "094-0023 北海道紋別市元紋別11-6", "tel": "0158-23-5400", "hours": "9:00〜17:00", "uri": "https://www.michi-no-eki.jp/stations/views/18807"}}, {"type": "Feature", "geometry": {"type": "Point", "coordinates": [140.568716, 42.098901]}, "properties": {"pref_id": "10", "station_id": "18808", "name": "YOU･遊･もり", "address": "049-2311 北海道茅部郡森町字上台町326-18", "tel": "01374-2-4886", "hours": "9:00〜17:30(3/21〜10/20) 9:00〜17:00(10/21〜3/20)", "uri": "https://www.michi-no-eki.jp/stations/views/18808"}}, {"type": "Feature", "geometry": {"type": "Point", "coordinates": [143.500532, 43.75352]}, "properties": {"pref_id": "10", "station_id": "18809", "name": "おんねゆ温泉", "address": "091-0153 北海道北見市留辺蘂町松山1-4", "tel": "0157-45-3373", "hours": "9:00〜17:30", "uri": "https://www.michi-no-eki.jp/stations/views/18809"}}, {"type": "Feature", "geometry": {"type": "Point", "coordinates": [140.106219, 42.011397]}, "properties": {"pref_id": "10", "station_id": "18810", "name": "ルート229元和台", "address": "043-0114 北海道爾志郡乙部町字元和169", "tel": "0139-62-3009", "hours": "8:30〜18:00(4〜10月) 9:00〜16:00(11〜3月)", "uri": "https://www.michi-no-eki.jp/stations/views/18810"}}, {"type": "Feature", "geometry": {"type": "Point", "coordinates": [141.888802, 43.433272]}, "properties": {"pref_id": "10", "station_id": "18811", "name": "ハウスヤルビ奈井江", "address": "079-0312 北海道空知郡奈井江町字奈井江28-1", "tel": "0125-65-4601", "hours": "9:00〜18:00(4〜9月) 9:00〜17:00(10〜3月)", "uri": "https://www.michi-no-eki.jp/stations/views/18811"}}, {"type": "Feature", "geometry": {"type": "Point", "coordinates": [141.654956, 44.137022]}, "properties": {"pref_id": "10", "station_id": "18812", "name": "おびら鰊番屋", "address": "078-3454 北海道留萌郡小平町字鬼鹿広富", "tel": "0164-56-1828", "hours": "8:00〜17:00", "uri": "https://www.michi-no-eki.jp/stations/views/18812"}}, {"type": "Feature", "geometry": {"type": "Point", "coordinates": [142.631813, 44.878376]}, "properties": {"pref_id": "10", "station_id": "18813", "name": "マリーンアイランド岡島", "address": "098-5802 北海道枝幸郡枝幸町字岡島1978-13", "tel": "0163-62-2860", "hours": "9:00〜17:00", "uri": "https://www.michi-no-eki.jp/stations/views/18813"}}, {"type": "Feature", "geometry": {"type": "Point", "coordinates": [143.116955, 44.469498]}, "properties": {"pref_id": "10", "station_id": "18814", "name": "おこっぺ", "address": "098-1614 北海道紋別郡興部町字興部(幸町)", "tel": "0158-82-2385", "hours": "5月〜10月 9:00〜18:00、11月〜4月 9:00〜17:00", "uri": "https://www.michi-no-eki.jp/stations/views/18814"}}, {"type": "Feature", "geometry": {"type": "Point", "coordinates": [144.146957, 43.14402]}, "properties": {"pref_id": "10", "station_id": "18815", "name": "阿寒丹頂の里", "address": "085-0245 北海道釧路市阿寒町上阿寒23-36-1", "tel": "0154-66-2969", "hours": "5月〜9月 9:00〜18:00 10月〜4月 9:00〜17:00 観光案内所10:00〜16:00", "uri": "https://www.michi-no-eki.jp/stations/views/18815"}}, {"type": "Feature", "geometry": {"type": "Point", "coordinates": [143.181694, 42.974917]}, "properties": {"pref_id": "10", "station_id": "18816", "name": "おとふけ", "address": "080-0346 北海道河東郡音更町なつぞら2", "tel": "0155-65-0822", "hours": "9:00〜19:00", "uri": "https://www.michi-no-eki.jp/stations/views/18816"}}, {"type": "Feature", "geometry": {"type": "Point", "coordinates": [142.213402, 44.877462]}, "properties": {"pref_id": "10", "station_id": "18817", "name": "ピンネシリ", "address": "098-5113 北海道枝幸郡中頓別町字敏音知72-7", "tel": "01634-7-8510", "hours": "9:00〜17:00", "uri": "https://www.michi-no-eki.jp/stations/views/18817"}}, {"type": "Feature", "geometry": {"type": "Point", "coordinates": [140.094966, 41.808496]}, "properties": {"pref_id": "10", "station_id": "18819", "name": "上ノ国もんじゅ", "address": "049-0602 北海道檜山郡上ノ国町字原歌3", "tel": "0139-55-3955", "hours": "・文珠館 9:00〜17:00 ・特産品販売所 9:00〜17:00(4月〜10月)、10:00〜17:00(11月〜3月)※月曜定休(11月〜3月)月曜が祝日の場合は翌平日 ・レストラン 11:00〜15:00(LO14:30)※月曜定休(11月〜3月)月曜が祝日の場合は翌平日", "uri": "https://www.michi-no-eki.jp/stations/views/18819"}}, {"type": "Feature", "geometry": {"type": "Point", "coordinates": [140.385569, 43.165359]}, "properties": {"pref_id": "10", "station_id": "18820", "name": "オスコイ!かもえない", "address": "045-0302 北海道古宇郡神恵内村大字赤石村字大森292-1", "tel": "0135-76-5800", "hours": "9:00〜17:00", "uri": "https://www.michi-no-eki.jp/stations/views/18820"}}, {"type": "Feature", "geometry": {"type": "Point", "coordinates": [143.126839, 42.69214]}, "properties": {"pref_id": "10", "station_id": "18821", "name": "なかさつない", "address": "089-1330 北海道河西郡中札内村大通南7-14", "tel": "0155-67-2811", "hours": "9:00〜18:00(4〜10月) 9:00〜17:00(11〜3月)営業時間、定休日は店舗により異なります", "uri": "https://www.michi-no-eki.jp/stations/views/18821"}}, {"type": "Feature", "geometry": {"type": "Point", "coordinates": [141.716616, 42.94998]}, "properties": {"pref_id": "10", "station_id": "18822", "name": "マオイの丘公園", "address": "069-1460 北海道夕張郡長沼町東10線南7番地", "tel": "0123-84-2120", "hours": "9:00〜18:00(4月〜11月)、9:00〜17:00(11月〜3月)、※「ピッツェリアトニーノ北海道長沼」は営業時間が異なります。詳しくは、公式ホームページよりご確認下さい。", "uri": "https://www.michi-no-eki.jp/stations/views/18822"}}, {"type": "Feature", "geometry": {"type": "Point", "coordinates": [142.442007, 42.87679]}, "properties": {"pref_id": "10", "station_id": "18823", "name": "樹海ロード日高", "address": "055-2301 北海道沙流郡日高町本町東1-298-1", "tel": "01457-6-2001", "hours": "9:00〜18:00", "uri": "https://www.michi-no-eki.jp/stations/views/18823"}}, {"type": "Feature", "geometry": {"type": "Point", "coordinates": [140.899048, 42.559133]}, "properties": {"pref_id": "10", "station_id": "18824", "name": "そうべつ情報館i(アイ)", "address": "052-0101 北海道有珠郡壮瞥町字滝之町384-1", "tel": "0142-66-4200", "hours": "9:00〜17:30 (11/16〜3/31は17:00迄)", "uri": "https://www.michi-no-eki.jp/stations/views/18824"}}, {"type": "Feature", "geometry": {"type": "Point", "coordinates": [140.702395, 42.799492]}, "properties": {"pref_id": "10", "station_id": "18825", "name": "ニセコビュープラザ", "address": "048-1544 北海道虻田郡ニセコ町字元町77-10", "tel": "0136-43-2051", "hours": "情報プラザ棟:9:00-18:00", "uri": "https://www.michi-no-eki.jp/stations/views/18825"}}, {"type": "Feature", "geometry": {"type": "Point", "coordinates": [140.335834, 41.601259]}, "properties": {"pref_id": "10", "station_id": "18826", "name": "しりうち", "address": "049-1221 北海道上磯郡知内町字湯の里48-13", "tel": "01392-6-2270", "hours": "8:00〜18:00", "uri": "https://www.michi-no-eki.jp/stations/views/18826"}}, {"type": "Feature", "geometry": {"type": "Point", "coordinates": [140.255731, 41.479134]}, "properties": {"pref_id": "10", "station_id": "18827", "name": "横綱の里ふくしま", "address": "049-1312 北海道松前郡福島町字福島143-1", "tel": "0139-47-4072", "hours": "9:00〜17:00", "uri": "https://www.michi-no-eki.jp/stations/views/18827"}}, {"type": "Feature", "geometry": {"type": "Point", "coordinates": [142.315691, 42.359836]}, "properties": {"pref_id": "10", "station_id": "18828", "name": "サラブレッドロード新冠", "address": "059-2402 北海道新冠郡新冠町字中央町1-20", "tel": "0146-45-7070", "hours": "10:00〜18:00", "uri": "https://www.michi-no-eki.jp/stations/views/18828"}}, {"type": "Feature", "geometry": {"type": "Point", "coordinates": [143.239243, 43.144342]}, "properties": {"pref_id": "10", "station_id": "18829", "name": "ピア21しほろ", "address": "080-1200 北海道河東郡士幌町字士幌西2線147", "tel": "01564-5-3940", "hours": "9:00〜18:00(4月〜11月) 9:00〜17:00(12月〜3月)", "uri": "https://www.michi-no-eki.jp/stations/views/18829"}}, {"type": "Feature", "geometry": {"type": "Point", "coordinates": [143.090986, 44.19689]}, "properties": {"pref_id": "10", "station_id": "18830", "name": "香りの里たきのうえ", "address": "099-5602 北海道紋別郡滝上町旭町", "tel": "0158-29-3300", "hours": "8:30 〜17:00", "uri": "https://www.michi-no-eki.jp/stations/views/18830"}}, {"type": "Feature", "geometry": {"type": "Point", "coordinates": [141.894022, 43.662509]}, "properties": {"pref_id": "10", "station_id": "18831", "name": "田園の里うりゅう", "address": "078-2600 北海道雨竜郡雨竜町字満寿28-3", "tel": "0125-79-2100", "hours": "9:00〜18:00(5〜10月) 10:00〜16:00(11〜4月)", "uri": "https://www.michi-no-eki.jp/stations/views/18831"}}, {"type": "Feature", "geometry": {"type": "Point", "coordinates": [140.943745, 42.342012]}, "properties": {"pref_id": "10", "station_id": "18832", "name": "みたら室蘭", "address": "051-0036 北海道室蘭市祝津町4-16-15", "tel": "0143-26-2030", "hours": "9:30〜19:00 (11〜3月は17:00まで、毎週木曜・祝日の場合は金曜定休日) ※館内各店舗の営業時間は店舗により異なる", "uri": "https://www.michi-no-eki.jp/stations/views/18832"}}, {"type": "Feature", "geometry": {"type": "Point", "coordinates": [142.4895, 43.844134]}, "properties": {"pref_id": "10", "station_id": "18833", "name": "とうま", "address": "078-1332 北海道上川郡当麻町字園別2区", "tel": "0166-58-8639", "hours": "9:00〜18:00", "uri": "https://www.michi-no-eki.jp/stations/views/18833"}}, {"type": "Feature", "geometry": {"type": "Point", "coordinates": [140.788781, 43.188538]}, "properties": {"pref_id": "10", "station_id": "18834", "name": "スペース・アップルよいち", "address": "046-0003 北海道余市郡余市町黒川町6-4", "tel": "0135-22-1515", "hours": "4月中旬〜11月上旬 9:00〜18:00 11月上旬〜4月中旬 9:00〜17:00", "uri": "https://www.michi-no-eki.jp/stations/views/18834"}}, {"type": "Feature", "geometry": {"type": "Point", "coordinates": [141.706577, 44.367332]}, "properties": {"pref_id": "10", "station_id": "18835", "name": "ほっと♡はぼろ", "address": "078-4113 北海道苫前郡羽幌町北3条1-29", "tel": "0164-62-3800", "hours": "7:00〜22:00", "uri": "https://www.michi-no-eki.jp/stations/views/18835"}}, {"type": "Feature", "geometry": {"type": "Point", "coordinates": [143.824142, 44.099918]}, "properties": {"pref_id": "10", "station_id": "18836", "name": "サロマ湖", "address": "093-0421 北海道常呂郡佐呂間町字浪速121-3", "tel": "01587-5-2828", "hours": "9:00〜18:00(11〜3月は9:00〜17:00)", "uri": "https://www.michi-no-eki.jp/stations/views/18836"}}, {"type": "Feature", "geometry": {"type": "Point", "coordinates": [143.719206, 44.13082]}, "properties": {"pref_id": "10", "station_id": "18837", "name": "愛ランド湧別", "address": "093-0652 北海道紋別郡湧別町志撫子6-2", "tel": "01586-8-2455", "hours": "9:00〜17:30", "uri": "https://www.michi-no-eki.jp/stations/views/18837"}}, {"type": "Feature", "geometry": {"type": "Point", "coordinates": [142.959733, 44.583037]}, "properties": {"pref_id": "10", "station_id": "18838", "name": "おうむ", "address": "098-1702 北海道紋別郡雄武町字雄武1885-14", "tel": "0158-84-2403", "hours": "8:00〜21:00 (5〜10月) 8:00〜20:00 (11〜4月)", "uri": "https://www.michi-no-eki.jp/stations/views/18838"}}, {"type": "Feature", "geometry": {"type": "Point", "coordinates": [142.177348, 45.329219]}, "properties": {"pref_id": "10", "station_id": "18839", "name": "さるふつ公園", "address": "098-6222 北海道宗谷郡猿払村字浜鬼志別241-7", "tel": "01635-2-2311", "hours": "9:00〜17:00", "uri": "https://www.michi-no-eki.jp/stations/views/18839"}}, {"type": "Feature", "geometry": {"type": "Point", "coordinates": [142.139546, 44.114633]}, "properties": {"pref_id": "10", "station_id": "18840", "name": "森と湖の里ほろかない", "address": "074-0425 北海道雨竜郡幌加内町字政和第1", "tel": "0165-37-2070", "hours": "10:00〜21:00 冬期10:30〜21:00 ", "uri": "https://www.michi-no-eki.jp/stations/views/18840"}}, {"type": "Feature", "geometry": {"type": "Point", "coordinates": [142.005839, 43.503293]}, "properties": {"pref_id": "10", "station_id": "18841", "name": "うたしないチロルの湯", "address": "073-0406 北海道歌志内市字中村72-1", "tel": "0125-42-5566", "hours": "9:00〜17:00", "uri": "https://www.michi-no-eki.jp/stations/views/18841"}}, {"type": "Feature", "geometry": {"type": "Point", "coordinates": [140.380034, 42.672709]}, "properties": {"pref_id": "10", "station_id": "18842", "name": "くろまつない", "address": "048-0134 北海道寿都郡黒松内町字白井川8-10", "tel": "0136-71-2222", "hours": "9:00〜18:00(4〜10月) 9:00〜17:00(11〜3月)", "uri": "https://www.michi-no-eki.jp/stations/views/18842"}}, {"type": "Feature", "geometry": {"type": "Point", "coordinates": [141.941478, 43.62344]}, "properties": {"pref_id": "10", "station_id": "18843", "name": "たきかわ", "address": "079-0463 北海道滝川市江部乙町東11-13-3", "tel": "0125-26-5500", "hours": "9:00〜18:00(4〜10月) 10:00〜17:00(11〜3月)", "uri": "https://www.michi-no-eki.jp/stations/views/18843"}}, {"type": "Feature", "geometry": {"type": "Point", "coordinates": [145.43837, 43.261674]}, "properties": {"pref_id": "10", "station_id": "18844", "name": "スワン44ねむろ", "address": "086-0073 北海道根室市酪陽1", "tel": "0153-25-3055", "hours": "9:00〜17:00(4〜6,10月) 9:00〜18:00(7〜9月) 9:00〜16:00(11〜3月)", "uri": "https://www.michi-no-eki.jp/stations/views/18844"}}, {"type": "Feature", "geometry": {"type": "Point", "coordinates": [141.835718, 43.451601]}, "properties": {"pref_id": "10", "station_id": "18845", "name": "つるぬま", "address": "061-0600 北海道樺戸郡浦臼町字キナウスナイ186-214", "tel": "0125-68-2626", "hours": "9:00〜18:00(4〜9月) 10:00〜17:00(10〜3月)", "uri": "https://www.michi-no-eki.jp/stations/views/18845"}}, {"type": "Feature", "geometry": {"type": "Point", "coordinates": [141.10163, 41.779487]}, "properties": {"pref_id": "10", "station_id": "18846", "name": "なとわ・えさん", "address": "041-0525 北海道函館市日ノ浜町31-2", "tel": "0138-85-4010", "hours": "9:00〜18:00(4〜9月) 9:00〜17:00(10〜3月)", "uri": "https://www.michi-no-eki.jp/stations/views/18846"}}, {"type": "Feature", "geometry": {"type": "Point", "coordinates": [140.667336, 42.125311]}, "properties": {"pref_id": "10", "station_id": "18847", "name": "つど〜る・プラザ・さわら", "address": "049-2222 北海道茅部郡森町砂原2-358-1", "tel": "01374-8-2828", "hours": "9:00〜17:00", "uri": "https://www.michi-no-eki.jp/stations/views/18847"}}, {"type": "Feature", "geometry": {"type": "Point", "coordinates": [145.192089, 44.017454]}, "properties": {"pref_id": "10", "station_id": "18848", "name": "知床・らうす", "address": "086-1833 北海道目梨郡羅臼町本町361-1", "tel": "0153-87-5151", "hours": "9:00〜17:00(5〜10月) 10:00〜16:00(11〜4月)", "uri": "https://www.michi-no-eki.jp/stations/views/18848"}}, {"type": "Feature", "geometry": {"type": "Point", "coordinates": [143.271848, 42.633311]}, "properties": {"pref_id": "10", "station_id": "18849", "name": "さらべつ", "address": "089-1573 北海道河西郡更別村字弘和464-1", "tel": "0155-53-3663", "hours": "9:00〜18:00", "uri": "https://www.michi-no-eki.jp/stations/views/18849"}}, {"type": "Feature", "geometry": {"type": "Point", "coordinates": [140.875491, 42.470502]}, "properties": {"pref_id": "10", "station_id": "18850", "name": "だて歴史の杜", "address": "052-0012 北海道伊達市松ヶ枝町34-1", "tel": "0142-25-5567", "hours": "9:00〜18:00", "uri": "https://www.michi-no-eki.jp/stations/views/18850"}}, {"type": "Feature", "geometry": {"type": "Point", "coordinates": [142.348446, 43.76]}, "properties": {"pref_id": "10", "station_id": "18851", "name": "あさひかわ", "address": "070-8004 北海道旭川市神楽4条6-1-12", "tel": "0166-61-2283", "hours": "9:00〜21:00 (売店は19:00(夏季)まで・フードコートは店舗により異なります)", "uri": "https://www.michi-no-eki.jp/stations/views/18851"}}, {"type": "Feature", "geometry": {"type": "Point", "coordinates": [142.39758, 42.978859]}, "properties": {"pref_id": "10", "station_id": "18852", "name": "自然体感しむかっぷ", "address": "079-2201 北海道勇払郡占冠村字中央", "tel": "0167-39-8010", "hours": "9:00〜18:00", "uri": "https://www.michi-no-eki.jp/stations/views/18852"}}, {"type": "Feature", "geometry": {"type": "Point", "coordinates": [142.868068, 44.335988]}, "properties": {"pref_id": "10", "station_id": "18853", "name": "にしおこっぺ花夢", "address": "098-1421 北海道紋別郡西興部村字上興部37", "tel": "0158-87-2333", "hours": "9:00〜17:00", "uri": "https://www.michi-no-eki.jp/stations/views/18853"}}, {"type": "Feature", "geometry": {"type": "Point", "coordinates": [143.742367, 43.467863]}, "properties": {"pref_id": "10", "station_id": "18854", "name": "オーロラタウン93りくべつ", "address": "089-4315 北海道足寄郡陸別町大通", "tel": "0156-27-2012", "hours": "9:00〜17:00", "uri": "https://www.michi-no-eki.jp/stations/views/18854"}}, {"type": "Feature", "geometry": {"type": "Point", "coordinates": [144.453268, 43.933921]}, "properties": {"pref_id": "10", "station_id": "18855", "name": "はなやか(葉菜野花)小清水", "address": "099-3452 北海道斜里郡小清水町字浜小清水474-7", "tel": "0152-67-7752", "hours": "9:00〜18:00  レストランは11:00〜15:00", "uri": "https://www.michi-no-eki.jp/stations/views/18855"}}, {"type": "Feature", "geometry": {"type": "Point", "coordinates": [142.070593, 43.699483]}, "properties": {"pref_id": "10", "station_id": "18856", "name": "ライスランドふかがわ", "address": "074-1271 北海道深川市音江町字広里59-7", "tel": "0164-26-3636", "hours": "4月・5月〜10月:9:00〜18:00、6月〜9月:9:00〜19:00、11月〜3月:9:00〜17:00", "uri": "https://www.michi-no-eki.jp/stations/views/18856"}}, {"type": "Feature", "geometry": {"type": "Point", "coordinates": [142.067348, 44.801691]}, "properties": {"pref_id": "10", "station_id": "18857", "name": "なかがわ", "address": "098-2805 北海道中川郡中川町字誉498-1", "tel": "01656-7-2683", "hours": "9:00〜17:00", "uri": "https://www.michi-no-eki.jp/stations/views/18857"}}, {"type": "Feature", "geometry": {"type": "Point", "coordinates": [140.884563, 42.739929]}, "properties": {"pref_id": "10", "station_id": "18858", "name": "230ルスツ", "address": "048-1731 北海道虻田郡留寿都村字留寿都127", "tel": "0136-47-2068", "hours": "9:00〜18:00(4月下旬〜10月) 9:00〜17:00(11〜4月下旬)", "uri": "https://www.michi-no-eki.jp/stations/views/18858"}}, {"type": "Feature", "geometry": {"type": "Point", "coordinates": [141.747755, 44.884572]}, "properties": {"pref_id": "10", "station_id": "18859", "name": "てしお", "address": "098-3305 北海道天塩郡天塩町新開通4-7227-2", "tel": "01632-9-2155", "hours": "4月〜10月  9:00〜19:00                      11月〜3月 9:00〜17:00", "uri": "https://www.michi-no-eki.jp/stations/views/18859"}}, {"type": "Feature", "geometry": {"type": "Point", "coordinates": [143.273259, 42.489824]}, "properties": {"pref_id": "10", "station_id": "18860", "name": "コスモール大樹", "address": "089-2152 北海道広尾郡大樹町西本通98", "tel": "01558-6-5220", "hours": "特産品コーナー 9:00〜17:30 (十勝バス大樹案内所【乗車券販売など】)休館 年末年始(12月31日〜1月3日)             ショッピングセンター 9:00〜20:00 (衣料品すずき、100円ショップ、写真店、オリーブ薬局、 コープさっぽろ、ヘアークラブMock、クリーニング、 理療整体院、ラーメンハウスMAMO)休館 1月1日(各テナント臨時休業あり)", "uri": "https://www.michi-no-eki.jp/stations/views/18860"}}, {"type": "Feature", "geometry": {"type": "Point", "coordinates": [144.247854, 43.648286]}, "properties": {"pref_id": "10", "station_id": "18861", "name": "ぐるっとパノラマ美幌峠", "address": "092-0022 北海道網走郡美幌町字古梅", "tel": "0152-77-6001", "hours": "4月下旬〜10月 9:00〜18:00  11月〜4月下旬 9:00〜17:00", "uri": "https://www.michi-no-eki.jp/stations/views/18861"}}, {"type": "Feature", "geometry": {"type": "Point", "coordinates": [140.478985, 42.762099]}, "properties": {"pref_id": "10", "station_id": "18862", "name": "らんこし・ふるさとの丘", "address": "048-1251 北海道磯谷郡蘭越町字相生969", "tel": "0136-55-3251", "hours": "9:00〜17:00", "uri": "https://www.michi-no-eki.jp/stations/views/18862"}}, {"type": "Feature", "geometry": {"type": "Point", "coordinates": [140.722382, 42.577551]}, "properties": {"pref_id": "10", "station_id": "18863", "name": "とようら", "address": "049-5412 北海道虻田郡豊浦町字旭町65-8", "tel": "0142-83-1010", "hours": "直売所9:00〜17:00          テイクアウトコーナー10:00〜16:00", "uri": "https://www.michi-no-eki.jp/stations/views/18863"}}, {"type": "Feature", "geometry": {"type": "Point", "coordinates": [144.188488, 43.917336]}, "properties": {"pref_id": "10", "station_id": "18864", "name": "メルヘンの丘めまんべつ", "address": "099-2356 北海道網走郡大空町女満別昭和96", "tel": "0152-75-6160", "hours": "8:45〜17:30", "uri": "https://www.michi-no-eki.jp/stations/views/18864"}}, {"type": "Feature", "geometry": {"type": "Point", "coordinates": [141.925464, 42.573973]}, "properties": {"pref_id": "10", "station_id": "18865", "name": "むかわ四季の館", "address": "054-0042 北海道勇払郡むかわ町美幸3-3-1", "tel": "0145-42-4171", "hours": "6:00〜22:00", "uri": "https://www.michi-no-eki.jp/stations/views/18865"}}, {"type": "Feature", "geometry": {"type": "Point", "coordinates": [143.980525, 43.545622]}, "properties": {"pref_id": "10", "station_id": "18866", "name": "あいおい", "address": "092-0361 北海道網走郡津別町字相生", "tel": "0152-75-9101", "hours": "9:00〜17:00【火曜日定休日(トイレは24時間開放)】", "uri": "https://www.michi-no-eki.jp/stations/views/18866"}}, {"type": "Feature", "geometry": {"type": "Point", "coordinates": [142.98857, 43.098188]}, "properties": {"pref_id": "10", "station_id": "18867", "name": "しかおい", "address": "081-0222 北海道河東郡鹿追町東町3-2", "tel": "0156-66-1125", "hours": "9:00〜17:00(3〜6月、10〜11月) 10:00〜16:00(12〜2月) 9:00〜18:00(7〜9月)", "uri": "https://www.michi-no-eki.jp/stations/views/18867"}}, {"type": "Feature", "geometry": {"type": "Point", "coordinates": [143.076278, 43.870061]}, "properties": {"pref_id": "10", "station_id": "18868", "name": "しらたき", "address": "099-0126 北海道紋別郡遠軽町奥白滝", "tel": "0158-48-2175", "hours": "9:00〜18:00", "uri": "https://www.michi-no-eki.jp/stations/views/18868"}}, {"type": "Feature", "geometry": {"type": "Point", "coordinates": [143.546455, 43.244332]}, "properties": {"pref_id": "10", "station_id": "18869", "name": "あしょろ銀河ホール21", "address": "089-3701 北海道足寄郡足寄町北1条1丁目", "tel": "0156-25-6131", "hours": "9:00〜17:00", "uri": "https://www.michi-no-eki.jp/stations/views/18869"}}, {"type": "Feature", "geometry": {"type": "Point", "coordinates": [141.65933, 42.833788]}, "properties": {"pref_id": "10", "station_id": "18870", "name": "サーモンパーク千歳", "address": "066-0028 北海道千歳市花園2-4-2", "tel": "0123-29-3972", "hours": "9:00〜17:00(一部店舗は16:00まで)", "uri": "https://www.michi-no-eki.jp/stations/views/18870"}}, {"type": "Feature", "geometry": {"type": "Point", "coordinates": [142.508814, 43.697305]}, "properties": {"pref_id": "10", "station_id": "18871", "name": "ひがしかわ「道草館」", "address": "071-1423 北海道上川郡東川町東町1丁目1番15号", "tel": "0166-68-4777", "hours": "9:00〜19:00", "uri": "https://www.michi-no-eki.jp/stations/views/18871"}}, {"type": "Feature", "geometry": {"type": "Point", "coordinates": [141.585675, 42.897235]}, "properties": {"pref_id": "10", "station_id": "18872", "name": "花ロードえにわ", "address": "061-1375 北海道恵庭市南島松817-18", "tel": "0123-37-8787", "hours": "9:00〜18:00(施設・時期により異なる)<休:12/31〜1/2>", "uri": "https://www.michi-no-eki.jp/stations/views/18872"}}, {"type": "Feature", "geometry": {"type": "Point", "coordinates": [140.370027, 42.880182]}, "properties": {"pref_id": "10", "station_id": "18873", "name": "シェルプラザ・港", "address": "048-1341 北海道磯谷郡蘭越町港町1402-2", "tel": "0136-56-2700", "hours": "9:00〜17:00", "uri": "https://www.michi-no-eki.jp/stations/views/18873"}}, {"type": "Feature", "geometry": {"type": "Point", "coordinates": [140.807705, 42.762321]}, "properties": {"pref_id": "10", "station_id": "18874", "name": "真狩フラワーセンター", "address": "048-1611 北海道虻田郡真狩村字光8-3", "tel": "0136-48-2007", "hours": "9:00〜17:30(4月下旬〜10/31) 9:30〜16:30(11/1〜4月下旬)", "uri": "https://www.michi-no-eki.jp/stations/views/18874"}}, {"type": "Feature", "geometry": {"type": "Point", "coordinates": [141.965963, 43.764831]}, "properties": {"pref_id": "10", "station_id": "18875", "name": "鐘のなるまち・ちっぷべつ", "address": "078-2100 北海道雨竜郡秩父別町2085", "tel": "0164-33-3902", "hours": "9:00〜17:00(4〜10月) 9:00〜16:00(11〜3月)", "uri": "https://www.michi-no-eki.jp/stations/views/18875"}}, {"type": "Feature", "geometry": {"type": "Point", "coordinates": [140.778736, 42.528998]}, "properties": {"pref_id": "10", "station_id": "18876", "name": "あぷた", "address": "049-5603 北海道虻田郡洞爺湖町入江84-2", "tel": "0142-76-5501", "hours": "9::00〜18:00(冬期17:00)", "uri": "https://www.michi-no-eki.jp/stations/views/18876"}}, {"type": "Feature", "geometry": {"type": "Point", "coordinates": [143.025023, 43.169747]}, "properties": {"pref_id": "10", "station_id": "18877", "name": "うりまく", "address": "081-0341 北海道河東郡鹿追町瓜幕西3-1外", "tel": "0156-67-2626", "hours": "9:00〜17:00", "uri": "https://www.michi-no-eki.jp/stations/views/18877"}}, {"type": "Feature", "geometry": {"type": "Point", "coordinates": [142.39098, 44.093831]}, "properties": {"pref_id": "10", "station_id": "18878", "name": "絵本の里けんぶち", "address": "098-0341 北海道上川郡剣淵町東町2420", "tel": "0165-34-3811", "hours": "9:00〜17:00(5〜10月中旬) 9:00〜16:00(10月中旬〜4月)", "uri": "https://www.michi-no-eki.jp/stations/views/18878"}}, {"type": "Feature", "geometry": {"type": "Point", "coordinates": [141.656472, 44.313303]}, "properties": {"pref_id": "10", "station_id": "18879", "name": "風Wとままえ", "address": "078-3701 北海道苫前郡苫前町字苫前119-1", "tel": "0164-64-2810", "hours": "7:00〜21:00", "uri": "https://www.michi-no-eki.jp/stations/views/18879"}}, {"type": "Feature", "geometry": {"type": "Point", "coordinates": [143.367911, 43.138881]}, "properties": {"pref_id": "10", "station_id": "18880", "name": "しほろ温泉", "address": "080-1285 北海道河東郡士幌町字下居辺西2-134", "tel": "01564-5-3630", "hours": "10:00〜21:00", "uri": "https://www.michi-no-eki.jp/stations/views/18880"}}, {"type": "Feature", "geometry": {"type": "Point", "coordinates": [140.870902, 42.858907]}, "properties": {"pref_id": "10", "station_id": "18881", "name": "名水の郷きょうごく", "address": "044-0131 北海道虻田郡京極町字川西45-1", "tel": "0136-42-2292", "hours": "売店 9:00〜17:00          レストラン 11:00〜16:00       休館日 毎週水曜日及び年末年始(12/31〜1/3)", "uri": "https://www.michi-no-eki.jp/stations/views/18881"}}, {"type": "Feature", "geometry": {"type": "Point", "coordinates": [142.463786, 43.592125]}, "properties": {"pref_id": "10", "station_id": "18882", "name": "びえい「丘のくら」", "address": "071-0208 北海道上川郡美瑛町本町1-9-21", "tel": "0166-92-0920", "hours": "9:00〜18:00(6〜8月) 9:00〜17:00(3〜5月、9〜11月) 10:00〜17:00(12〜2月)", "uri": "https://www.michi-no-eki.jp/stations/views/18882"}}, {"type": "Feature", "geometry": {"type": "Point", "coordinates": [141.776818, 44.563504]}, "properties": {"pref_id": "10", "station_id": "18883", "name": "☆ロマン街道しょさんべつ", "address": "078-4431 北海道苫前郡初山別村字豊岬153-1", "tel": "0164-67-2525", "hours": "10:00〜21:00", "uri": "https://www.michi-no-eki.jp/stations/views/18883"}}, {"type": "Feature", "geometry": {"type": "Point", "coordinates": [144.990668, 44.069073]}, "properties": {"pref_id": "10", "station_id": "18884", "name": "うとろ・シリエトク", "address": "099-4354 北海道斜里郡斜里町ウトロ西186-8", "tel": "0152-22-5000", "hours": "9:00〜17:00(レストラン 10:00〜15:00)", "uri": "https://www.michi-no-eki.jp/stations/views/18884"}}, {"type": "Feature", "geometry": {"type": "Point", "coordinates": [144.664214, 43.911771]}, "properties": {"pref_id": "10", "station_id": "18885", "name": "しゃり", "address": "099-4113 北海道斜里郡斜里町本町37", "tel": "0152-26-8888", "hours": "9:00〜19:00", "uri": "https://www.michi-no-eki.jp/stations/views/18885"}}, {"type": "Feature", "geometry": {"type": "Point", "coordinates": [144.533995, 43.790459]}, "properties": {"pref_id": "10", "station_id": "18886", "name": "パパスランドさっつる", "address": "099-4522 北海道斜里郡清里町字神威1071", "tel": "0152-26-2288", "hours": "9:00〜21:00", "uri": "https://www.michi-no-eki.jp/stations/views/18886"}}, {"type": "Feature", "geometry": {"type": "Point", "coordinates": [142.413772, 44.287419]}, "properties": {"pref_id": "10", "station_id": "18887", "name": "もち米の里☆なよろ", "address": "098-0507 北海道名寄市風連町西町334-1", "tel": "01655-7-8686", "hours": "9:00〜18:00 ", "uri": "https://www.michi-no-eki.jp/stations/views/18887"}}, {"type": "Feature", "geometry": {"type": "Point", "coordinates": [140.231824, 42.795534]}, "properties": {"pref_id": "10", "station_id": "18888", "name": "みなとま〜れ寿都", "address": "048-0404 北海道寿都郡寿都町字大磯町29-1", "tel": "0136-62-2550", "hours": "9:00〜18:00", "uri": "https://www.michi-no-eki.jp/stations/views/18888"}}, {"type": "Feature", "geometry": {"type": "Point", "coordinates": [140.82182, 42.664511]}, "properties": {"pref_id": "10", "station_id": "18889", "name": "とうや湖", "address": "049-5831 北海道虻田郡洞爺湖町香川9-4", "tel": "0142-87-2200", "hours": "4月〜10月(8:30〜17:00) 11月〜3月(9:00〜16:00)", "uri": "https://www.michi-no-eki.jp/stations/views/18889"}}, {"type": "Feature", "geometry": {"type": "Point", "coordinates": [144.273893, 44.022034]}, "properties": {"pref_id": "10", "station_id": "18890", "name": "流氷街道網走", "address": "093-0003 北海道網走市南3条東4丁目", "tel": "0152-67-5007", "hours": "9:00〜18:00", "uri": "https://www.michi-no-eki.jp/stations/views/18890"}}, {"type": "Feature", "geometry": {"type": "Point", "coordinates": [140.107232, 41.426515]}, "properties": {"pref_id": "10", "station_id": "18891", "name": "北前船 松前", "address": "049-1506 北海道松前郡松前町字唐津379", "tel": "0139-46-2211", "hours": "9:00〜18:00(4〜9月) 9:00〜17:00(10〜3月) 定休日:毎週火曜日(10〜3月、火曜日が祝日の場合は翌日水曜日)及び年末年始(お問い合わせください)", "uri": "https://www.michi-no-eki.jp/stations/views/18891"}}, {"type": "Feature", "geometry": {"type": "Point", "coordinates": [143.61325, 43.125634]}, "properties": {"pref_id": "10", "station_id": "18892", "name": "ステラ★ほんべつ", "address": "089-3334 北海道中川郡本別町北3-1-1", "tel": "0156-22-5819", "hours": "9:00〜18:00", "uri": "https://www.michi-no-eki.jp/stations/views/18892"}}, {"type": "Feature", "geometry": {"type": "Point", "coordinates": [141.694649, 42.699951]}, "properties": {"pref_id": "10", "station_id": "18893", "name": "ウトナイ湖", "address": "059-1365 北海道苫小牧市字植苗156-30", "tel": "0144-58-4137", "hours": "9:00〜18:00(11月〜2月は9:00〜17:00)", "uri": "https://www.michi-no-eki.jp/stations/views/18893"}}, {"type": "Feature", "geometry": {"type": "Point", "coordinates": [143.663657, 42.813998]}, "properties": {"pref_id": "10", "station_id": "18894", "name": "うらほろ", "address": "089-5621 北海道十勝郡浦幌町字北町16-3", "tel": "015-576-5678", "hours": "9:00〜17:00", "uri": "https://www.michi-no-eki.jp/stations/views/18894"}}, {"type": "Feature", "geometry": {"type": "Point", "coordinates": [141.642701, 43.214116]}, "properties": {"pref_id": "10", "station_id": "18895", "name": "しんしのつ", "address": "068-1100  北海道石狩郡新篠津村第45線北2", "tel": "0126-58-3166", "hours": "7:00〜22:00 ※休館日の翌日は10:00開館  道の駅グッズ販売は21:00まで", "uri": "https://www.michi-no-eki.jp/stations/views/18895"}}, {"type": "Feature", "geometry": {"type": "Point", "coordinates": [142.038078, 42.93699]}, "properties": {"pref_id": "10", "station_id": "18896", "name": "夕張メロード", "address": "068-0755 北海道夕張市紅葉山529", "tel": "0123-53-8111", "hours": "10:00〜18:30", "uri": "https://www.michi-no-eki.jp/stations/views/18896"}}, {"type": "Feature", "geometry": {"type": "Point", "coordinates": [145.236876, 43.533413]}, "properties": {"pref_id": "10", "station_id": "18897", "name": "おだいとう", "address": "086-1641 北海道野付郡別海町尾岱沼5-27", "tel": "0153-86-2449", "hours": "9:00〜17:00(5〜10月) 9:00〜16:00(11〜4月) 火曜日定休(9月〜6月) ※7〜8月無休", "uri": "https://www.michi-no-eki.jp/stations/views/18897"}}, {"type": "Feature", "geometry": {"type": "Point", "coordinates": [140.94475, 41.927921]}, "properties": {"pref_id": "10", "station_id": "18898", "name": "縄文ロマン 南かやべ", "address": "041-1613 北海道函館市臼尻町551-1", "tel": "0138-25-2030", "hours": "9:00〜17:00(4〜10月) 9:00〜16:30(11〜3月)", "uri": "https://www.michi-no-eki.jp/stations/views/18898"}}, {"type": "Feature", "geometry": {"type": "Point", "coordinates": [141.677348, 45.41725]}, "properties": {"pref_id": "10", "station_id": "18899", "name": "わっかない", "address": "097-0023 北海道稚内市開運2丁目", "tel": "0162-29-0277", "hours": "10:00〜18:00", "uri": "https://www.michi-no-eki.jp/stations/views/18899"}}, {"type": "Feature", "geometry": {"type": "Point", "coordinates": [140.844843, 43.050868]}, "properties": {"pref_id": "10", "station_id": "19821", "name": "あかいがわ", "address": "046-0541 北海道余市郡赤井川村字都190-16", "tel": "0135-34-6699", "hours": "8:30〜18:00(5〜10月)、9:00〜17:00(11〜4月)", "uri": "https://www.michi-no-eki.jp/stations/views/19821"}}, {"type": "Feature", "geometry": {"type": "Point", "coordinates": [140.435363, 41.678052]}, "properties": {"pref_id": "10", "station_id": "19840", "name": "みそぎの郷 きこない", "address": "049-0400 北海道上磯郡木古内町字本町338-14", "tel": "01392-2-3161", "hours": "9:00〜18:00 ", "uri": "https://www.michi-no-eki.jp/stations/views/19840"}}, {"type": "Feature", "geometry": {"type": "Point", "coordinates": [140.830553, 42.028522]}, "properties": {"pref_id": "10", "station_id": "19841", "name": "しかべ間歇泉公園", "address": "041-1402 北海道茅部郡鹿部町字鹿部18-1", "tel": "01372-7-5655", "hours": "【3月20日−11月30日】 月〜木 9時〜17時 金〜日·祝 8時半〜18時 定休日なし  【12月1日−3月19日】 月〜木 10時〜15時 金〜日·祝 9時〜18時 定休日 1月4日〜3月19日の毎週水曜日、年末年始(12月30日〜1月1日)", "uri": "https://www.michi-no-eki.jp/stations/views/19841"}}, {"type": "Feature", "geometry": {"type": "Point", "coordinates": [144.294951, 43.845319]}, "properties": {"pref_id": "10", "station_id": "19888", "name": "ノンキーランドひがしもこと", "address": "099-3244 北海道網走郡大空町東藻琴100", "tel": "0152-66-3600", "hours": "9:00〜18:00", "uri": "https://www.michi-no-eki.jp/stations/views/19888"}}, {"type": "Feature", "geometry": {"type": "Point", "coordinates": [141.448498, 43.177254]}, "properties": {"pref_id": "10", "station_id": "19889", "name": "北欧の風 道の駅とうべつ", "address": "061-3773 北海道石狩郡当別町当別太774-11", "tel": "0133-27-5260", "hours": "10:00〜18:00", "uri": "https://www.michi-no-eki.jp/stations/views/19889"}}, {"type": "Feature", "geometry": {"type": "Point", "coordinates": [141.43118, 43.403873]}, "properties": {"pref_id": "10", "station_id": "19897", "name": "石狩「あいろーど厚田」", "address": "061-3601 北海道石狩市厚田区厚田98-2", "tel": "0133-78-2300", "hours": "10:00〜16:00(11/1-3/31)", "uri": "https://www.michi-no-eki.jp/stations/views/19897"}}, {"type": "Feature", "geometry": {"type": "Point", "coordinates": [140.655973, 41.925666]}, "properties": {"pref_id": "10", "station_id": "19898", "name": "なないろ・ななえ", "address": "041-1102 北海道亀田郡七飯町字峠下380-2", "tel": "0138-86-5195", "hours": "9:00〜18:00〔時期により異なる〕", "uri": "https://www.michi-no-eki.jp/stations/views/19898"}}, {"type": "Feature", "geometry": {"type": "Point", "coordinates": [142.597342, 43.503071]}, "properties": {"pref_id": "10", "station_id": "19914", "name": "びえい「白金ビルケ」", "address": "071-0235 北海道上川郡美瑛町字白金", "tel": "0166-94-3355", "hours": "9:00〜18:00(6〜8月) 9:00〜17:00(3〜5月、9〜11月) 10:00〜17:00(12〜2月)", "uri": "https://www.michi-no-eki.jp/stations/views/19914"}}, {"type": "Feature", "geometry": {"type": "Point", "coordinates": [142.360437, 45.124936]}, "properties": {"pref_id": "10", "station_id": "19927", "name": "北オホーツクはまとんべつ", "address": "098-5704 北海道枝幸郡浜頓別町中央北21番1", "tel": "", "hours": "", "uri": "https://www.michi-no-eki.jp/stations/views/19927"}}, {"type": "Feature", "geometry": {"type": "Point", "coordinates": [141.818766, 42.876095]}, "properties": {"pref_id": "10", "station_id": "19928", "name": "あびらD51ステーション", "address": "059-1921 北海道勇払郡安平町追分柏が丘49番地1", "tel": "", "hours": "", "uri": "https://www.michi-no-eki.jp/stations/views/19928"}}, {"type": "Feature", "geometry": {"type": "Point", "coordinates": [143.498488, 44.023759]}, "properties": {"pref_id": "10", "station_id": "19936", "name": "遠軽 森のオホーツク", "address": "099-0344 北海道紋別郡遠軽町野上150番地1", "tel": "0158-42-4536", "hours": "9:00〜18:00(冬季のスキー場は9:00〜20:00)※ゲレンデ状況等により変動あり", "uri": "https://www.michi-no-eki.jp/stations/views/19936"}}, {"type": "Feature", "geometry": {"type": "Point", "coordinates": [143.29178, 43.224637]}, "properties": {"pref_id": "10", "station_id": "19942", "name": "かみしほろ", "address": " 北海道河東郡上士幌町字上士幌東3線227番地1", "tel": "01564-7-7722", "hours": "9:00〜18:00(冬季〜17:00)◆レストラン「La Table de KAMISHIHORO」11:00〜16:00(モーニング8:00〜10:00)", "uri": "https://www.michi-no-eki.jp/stations/views/19942"}}, {"type": "Feature", "geometry": {"type": "Point", "coordinates": [141.648817, 43.944454]}, "properties": {"pref_id": "10", "station_id": "19943", "name": "るもい", "address": "077-0005 北海道留萌市船場町2丁目114", "tel": "0164-43-1501", "hours": "9:00〜17:00", "uri": "https://www.michi-no-eki.jp/stations/views/19943"}}, {"type": "Feature", "geometry": {"type": "Point", "coordinates": [143.300835, 42.933438]}, "properties": {"pref_id": "10", "station_id": "19955", "name": "ガーデンスパ十勝川温泉", "address": "080-0261 北海道河東郡音更町十勝川温泉北14丁目1番地", "tel": "0155-46-2447", "hours": "5月〜10月 9:00〜19:00(月〜木)9:00〜21:00(金〜日・祝日)      11月〜4月 9:00〜19:00", "uri": "https://www.michi-no-eki.jp/stations/views/19955"}}, {"type": "Feature", "geometry": {"type": "Point", "coordinates": [142.392884, 44.176726]}, "properties": {"pref_id": "10", "station_id": "19962", "name": "羊のまち 侍・しべつ", "address": "095-0019 北海道士別市大通東5丁目440番地23", "tel": "（0165）26-7353", "hours": "夏季 5月〜10月 9:00〜18:00、冬季 11月〜4月 10:00〜17:00", "uri": "https://www.michi-no-eki.jp/stations/views/19962"}}, {"type": "Feature", "geometry": {"type": "Point", "coordinates": [141.680229, 43.341421]}, "properties": {"pref_id": "10", "station_id": "22522", "name": "275つきがた", "address": " 北海道樺戸郡月形町81番地10", "tel": "0126-37-2188", "hours": "【道の駅】9:00〜21:00(毎月第3火曜日休館※祝日の場合は翌日) 【日帰り温泉】11:00〜21:00(最終入場20:30)(毎月第3火曜日休館※祝日の場合は翌日) 【レストラン】11:30〜19:30【LO19:00】(毎週火曜日休館※祝日の場合は翌日)", "uri": "https://www.michi-no-eki.jp/stations/views/22522"}}, {"type": "Feature", "geometry": {"type": "Point", "coordinates": [140.638446, 43.26533]}, "properties": {"pref_id": "10", "station_id": "22681", "name": "ふるびらたらこミュージアム", "address": "046-0121 北海道古平郡古平町大字浜町40-4", "tel": "", "hours": "", "uri": "https://www.michi-no-eki.jp/stations/views/22681"}}, {"type": "Feature", "geometry": {"type": "Point", "coordinates": [141.15525, 40.716825]}, "properties": {"pref_id": "11", "station_id": "18900", "name": "しちのへ", "address": "039-2501 青森県上北郡七戸町字荒熊内67-94", "tel": "0176-62-5777", "hours": "9:00〜18:00 <休 3/31>", "uri": "https://www.michi-no-eki.jp/stations/views/18900"}}, {"type": "Feature", "geometry": {"type": "Point", "coordinates": [141.608433, 40.458496]}, "properties": {"pref_id": "11", "station_id": "18901", "name": "はしかみ", "address": "039-1201 青森県三戸郡階上町大字道仏字耳ヶ吠3-3", "tel": "0178-88-1800", "hours": "9:00〜18:00 <休12/31〜1/1>", "uri": "https://www.michi-no-eki.jp/stations/views/18901"}}, {"type": "Feature", "geometry": {"type": "Point", "coordinates": [140.687485, 40.580833]}, "properties": {"pref_id": "11", "station_id": "18902", "name": "虹の湖", "address": "036-0402 青森県黒石市大字沖浦字山神1-5", "tel": "0172-54-2348", "hours": "9:00〜16:00(営業時間短縮あり)", "uri": "https://www.michi-no-eki.jp/stations/views/18902"}}, {"type": "Feature", "geometry": {"type": "Point", "coordinates": [140.80477, 41.167961]}, "properties": {"pref_id": "11", "station_id": "18903", "name": "わきのさわ", "address": "039-5323 青森県むつ市脇野沢七引205-5", "tel": "0175-44-3252", "hours": "9:00〜17:00", "uri": "https://www.michi-no-eki.jp/stations/views/18903"}}, {"type": "Feature", "geometry": {"type": "Point", "coordinates": [140.888219, 41.270398]}, "properties": {"pref_id": "11", "station_id": "18904", "name": "かわうち湖", "address": "039-4701 青森県むつ市川内町福浦山314", "tel": "0175-38-5108", "hours": "9:00〜17:00<休 木曜日>≪冬期閉鎖あり≫", "uri": "https://www.michi-no-eki.jp/stations/views/18904"}}, {"type": "Feature", "geometry": {"type": "Point", "coordinates": [141.069152, 40.429623]}, "properties": {"pref_id": "11", "station_id": "18905", "name": "しんごう", "address": "039-1801 青森県三戸郡新郷村大字戸来字雨池11-2", "tel": "0178-78-3333", "hours": "9:00〜17:00 <休 水曜日> ≪冬期閉鎖あり≫", "uri": "https://www.michi-no-eki.jp/stations/views/18905"}}, {"type": "Feature", "geometry": {"type": "Point", "coordinates": [140.548795, 40.554752]}, "properties": {"pref_id": "11", "station_id": "18906", "name": "ひろさき", "address": "036-8124 青森県弘前市大字石川字泉田62-1", "tel": "0172-92-3366", "hours": "9:00〜18:30(4月〜10月)、9:00〜18:00(11月〜3月)", "uri": "https://www.michi-no-eki.jp/stations/views/18906"}}, {"type": "Feature", "geometry": {"type": "Point", "coordinates": [141.117434, 40.586204]}, "properties": {"pref_id": "11", "station_id": "18907", "name": "奥入瀬", "address": "034-0301 青森県十和田市大字奥瀬字堰道39-1", "tel": "0176-72-3201", "hours": "9:00〜18:00 <休 12/31〜1/1>", "uri": "https://www.michi-no-eki.jp/stations/views/18907"}}, {"type": "Feature", "geometry": {"type": "Point", "coordinates": [141.255476, 40.387808]}, "properties": {"pref_id": "11", "station_id": "18908", "name": "さんのへ", "address": "039-0141 青森県三戸郡三戸町大字川守田字西張渡39-1", "tel": "0179-22-0600", "hours": "9:00〜18:00〔施設により異なる〕", "uri": "https://www.michi-no-eki.jp/stations/views/18908"}}, {"type": "Feature", "geometry": {"type": "Point", "coordinates": [140.579519, 40.717928]}, "properties": {"pref_id": "11", "station_id": "18909", "name": "なみおか", "address": "038-1331 青森県青森市浪岡大字女鹿沢字野尻2-3", "tel": "0172-62-1170", "hours": "9:00〜19:00(3/16〜11/15)、9:00〜18:00(11/16〜3/15)〔施設により異なる〕", "uri": "https://www.michi-no-eki.jp/stations/views/18909"}}, {"type": "Feature", "geometry": {"type": "Point", "coordinates": [140.38395, 41.045691]}, "properties": {"pref_id": "11", "station_id": "18910", "name": "十三湖高原", "address": "037-0401 青森県五所川原市相内実取287-1058", "tel": "0173-62-3556", "hours": "9:00〜18:00(冬期・営業時間短縮あり)<休 12/31〜1/2>", "uri": "https://www.michi-no-eki.jp/stations/views/18910"}}, {"type": "Feature", "geometry": {"type": "Point", "coordinates": [140.514335, 41.145511]}, "properties": {"pref_id": "11", "station_id": "18911", "name": "いまべつ", "address": "030-1505 青森県東津軽郡今別町大字大川平字清川87-16", "tel": "0174-31-5200", "hours": "9:00〜19:00 ≪冬期・営業時間短縮あり≫", "uri": "https://www.michi-no-eki.jp/stations/views/18911"}}, {"type": "Feature", "geometry": {"type": "Point", "coordinates": [141.43043, 40.406785]}, "properties": {"pref_id": "11", "station_id": "18912", "name": "なんごう", "address": "031-0114 青森県八戸市南郷大字中野字舘野4-4", "tel": "0178-82-2902", "hours": "直売所8:00〜18:00(4〜10月)・8:30〜17:00(11〜3月)、レストラン 11:00〜19:00(ラストオーダー18:30)", "uri": "https://www.michi-no-eki.jp/stations/views/18912"}}, {"type": "Feature", "geometry": {"type": "Point", "coordinates": [140.322251, 40.784406]}, "properties": {"pref_id": "11", "station_id": "18913", "name": "もりた", "address": "038-2817 青森県つがる市森田町床舞稚桜4-1", "tel": "0173-26-4488", "hours": "9:00〜18:00 ≪冬期・営業時間短縮あり≫", "uri": "https://www.michi-no-eki.jp/stations/views/18913"}}, {"type": "Feature", "geometry": {"type": "Point", "coordinates": [140.86137, 40.891692]}, "properties": {"pref_id": "11", "station_id": "18914", "name": "浅虫温泉", "address": "039-3501 青森県青森市大字浅虫字螢谷341-19", "tel": "017-737-5151", "hours": "7:00〜20:30〔施設により異なる〕", "uri": "https://www.michi-no-eki.jp/stations/views/18914"}}, {"type": "Feature", "geometry": {"type": "Point", "coordinates": [140.623165, 40.481558]}, "properties": {"pref_id": "11", "station_id": "18915", "name": "いかりがせき", "address": "038-0101 青森県平川市碇ヶ関碇石13-1", "tel": "0172-49-5020", "hours": "9:00〜19:00 ≪冬期・営業時間短縮あり≫ <休 年末年始>", "uri": "https://www.michi-no-eki.jp/stations/views/18915"}}, {"type": "Feature", "geometry": {"type": "Point", "coordinates": [140.577686, 40.633619]}, "properties": {"pref_id": "11", "station_id": "18916", "name": "いなかだて", "address": "038-1111 青森県南津軽郡田舎館村大字高樋字八幡10", "tel": "0172-58-4411", "hours": "8:30〜18:00 ≪冬期・営業時間短縮あり≫ <休 12/31午後〜1/1>", "uri": "https://www.michi-no-eki.jp/stations/views/18916"}}, {"type": "Feature", "geometry": {"type": "Point", "coordinates": [141.256588, 41.083731]}, "properties": {"pref_id": "11", "station_id": "18917", "name": "よこはま", "address": "039-4134 青森県上北郡横浜町字林ノ脇79-12", "tel": "0175-78-6687", "hours": "<4月〜10月>8:30〜18:00 <11月〜3月>9:00〜17:30         <定休日 12/31、1/1、1月〜3月の火曜日>", "uri": "https://www.michi-no-eki.jp/stations/views/18917"}}, {"type": "Feature", "geometry": {"type": "Point", "coordinates": [140.346791, 41.253834]}, "properties": {"pref_id": "11", "station_id": "18918", "name": "みんまや", "address": "030-1700 青森県東津軽郡外ヶ浜町字三厩龍浜99", "tel": "0174-38-2301", "hours": "8:40〜17:00 <冬期閉鎖あり>", "uri": "https://www.michi-no-eki.jp/stations/views/18918"}}, {"type": "Feature", "geometry": {"type": "Point", "coordinates": [140.320596, 41.144905]}, "properties": {"pref_id": "11", "station_id": "18919", "name": "こどまり", "address": "037-0300 青森県北津軽郡中泊町大字小泊字折腰内45", "tel": "0173-27-9300", "hours": "9:00〜17:00(冬季閉鎖11月上旬〜4月下旬)", "uri": "https://www.michi-no-eki.jp/stations/views/18919"}}, {"type": "Feature", "geometry": {"type": "Point", "coordinates": [141.363895, 40.785414]}, "properties": {"pref_id": "11", "station_id": "18920", "name": "みさわ", "address": "033-0164 青森県三沢市谷地頭4-298-652", "tel": "0176-59-2711", "hours": "直売所 (4月〜10月)9:00〜18:00 (11月〜3月)9:00〜17:00 レストラン (4月〜10月)10:30〜16:30 ラストオーダー16:00 (11月〜3月)10:30〜15:30 ラストオーダー15:30 <休 12/31~1/2>", "uri": "https://www.michi-no-eki.jp/stations/views/18920"}}, {"type": "Feature", "geometry": {"type": "Point", "coordinates": [141.264612, 40.574645]}, "properties": {"pref_id": "11", "station_id": "18921", "name": "とわだ", "address": "034-0051 青森県十和田市大字伝法寺字平窪37-2", "tel": "0176-28-3790", "hours": "9:00〜20:00(4月〜10月)、9:00〜19:00(11月〜3月) <休 1/1>", "uri": "https://www.michi-no-eki.jp/stations/views/18921"}}, {"type": "Feature", "geometry": {"type": "Point", "coordinates": [140.442705, 40.737146]}, "properties": {"pref_id": "11", "station_id": "18922", "name": "つるた", "address": "038-3524 青森県北津軽郡鶴田町大字境字里見176-1", "tel": "0173-22-5656", "hours": "9:00〜18:00 <休 1/1>", "uri": "https://www.michi-no-eki.jp/stations/views/18922"}}, {"type": "Feature", "geometry": {"type": "Point", "coordinates": [140.000469, 40.744223]}, "properties": {"pref_id": "11", "station_id": "18923", "name": "ふかうら", "address": "038-2411 青森県西津軽郡深浦町大字風合瀬字上砂子川144-1", "tel": "0173-76-3660", "hours": "9:00〜18:00(1〜3月17:00)", "uri": "https://www.michi-no-eki.jp/stations/views/18923"}}, {"type": "Feature", "geometry": {"type": "Point", "coordinates": [141.274961, 40.728039]}, "properties": {"pref_id": "11", "station_id": "18924", "name": "おがわら湖", "address": "039-2401 青森県上北郡東北町大字上野字南谷地122", "tel": "0176-58-1122", "hours": "8:30〜18:00(4〜9月)、9:00〜17:30(10〜3月)<休 年末年始>", "uri": "https://www.michi-no-eki.jp/stations/views/18924"}}, {"type": "Feature", "geometry": {"type": "Point", "coordinates": [140.641197, 41.174837]}, "properties": {"pref_id": "11", "station_id": "18925", "name": "たいらだて", "address": "030-1402 青森県東津軽郡外ヶ浜町字平舘太郎右ェ門沢1-3", "tel": "0174-31-2211", "hours": "8:00〜17:00", "uri": "https://www.michi-no-eki.jp/stations/views/18925"}}, {"type": "Feature", "geometry": {"type": "Point", "coordinates": [141.324727, 40.606404]}, "properties": {"pref_id": "11", "station_id": "18926", "name": "ろくのへ", "address": "039-2371 青森県上北郡六戸町大字犬落瀬字後田87", "tel": "0176-55-4134", "hours": "9:00〜18:00 ≪冬期・営業時間短縮あり≫", "uri": "https://www.michi-no-eki.jp/stations/views/18926"}}, {"type": "Feature", "geometry": {"type": "Point", "coordinates": [140.300462, 40.577739]}, "properties": {"pref_id": "11", "station_id": "19899", "name": "津軽白神", "address": "036-1411 青森県中津軽郡西目屋村大字田代字神田219-1", "tel": "0172-85-2855", "hours": "9:00〜17:00(冬季間9:00〜16:00)", "uri": "https://www.michi-no-eki.jp/stations/views/19899"}}, {"type": "Feature", "geometry": {"type": "Point", "coordinates": [140.375856, 40.251513]}, "properties": {"pref_id": "12", "station_id": "18969", "name": "たかのす", "address": "018-3301 秋田県北秋田市綴子字大堤道下62-1", "tel": "0186-63-2233", "hours": "9:00〜18:00(12〜3月 9:30〜17:00) <休 1/1>", "uri": "https://www.michi-no-eki.jp/stations/views/18969"}}, {"type": "Feature", "geometry": {"type": "Point", "coordinates": [140.259823, 40.216348]}, "properties": {"pref_id": "12", "station_id": "18970", "name": "ふたつい", "address": "018-3102 秋田県能代市二ツ井町小繋字泉51番地", "tel": "0185-74-5118", "hours": "9:00〜18:00 <休 1/1〜1/2>", "uri": "https://www.michi-no-eki.jp/stations/views/18970"}}, {"type": "Feature", "geometry": {"type": "Point", "coordinates": [140.014564, 39.36288]}, "properties": {"pref_id": "12", "station_id": "18971", "name": "にしめ", "address": "018-0604 秋田県由利本荘市西目町沼田字新道下1112-2", "tel": "0184-33-4260", "hours": "9:00〜18:00 <休 12/31〜1/1>", "uri": "https://www.michi-no-eki.jp/stations/views/18971"}}, {"type": "Feature", "geometry": {"type": "Point", "coordinates": [140.624429, 40.421034]}, "properties": {"pref_id": "12", "station_id": "18972", "name": "やたて峠", "address": "017-0001 秋田県大館市長走字陣場311", "tel": "0186-51-2311", "hours": "7:00〜21:00", "uri": "https://www.michi-no-eki.jp/stations/views/18972"}}, {"type": "Feature", "geometry": {"type": "Point", "coordinates": [139.948678, 40.421583]}, "properties": {"pref_id": "12", "station_id": "18973", "name": "はちもり", "address": "018-2601 秋田県山本郡八峰町八森字乙の水72-4", "tel": "0185-78-2300", "hours": "9:00〜18:00 (冬季9:00〜17:00) <休 12/30〜1/2>", "uri": "https://www.michi-no-eki.jp/stations/views/18973"}}, {"type": "Feature", "geometry": {"type": "Point", "coordinates": [140.785215, 40.18184]}, "properties": {"pref_id": "12", "station_id": "18974", "name": "かづの", "address": "018-5201 秋田県鹿角市花輪字新田町11-4", "tel": "0186-22-0555", "hours": "9:00〜18:00 (冬季9:00〜17:00)", "uri": "https://www.michi-no-eki.jp/stations/views/18974"}}, {"type": "Feature", "geometry": {"type": "Point", "coordinates": [140.376722, 39.522147]}, "properties": {"pref_id": "12", "station_id": "18975", "name": "かみおか", "address": "019-1702 秋田県大仙市北楢岡字船戸187", "tel": "0187-72-4004", "hours": "9:00〜18:00", "uri": "https://www.michi-no-eki.jp/stations/views/18975"}}, {"type": "Feature", "geometry": {"type": "Point", "coordinates": [140.08035, 40.022308]}, "properties": {"pref_id": "12", "station_id": "18976", "name": "ことおか", "address": "018-2104 秋田県山本郡三種町鹿渡字高石野126-1", "tel": "0185-87-4311", "hours": "9:00〜18:00≪冬期・営業時間短縮あり≫ <休 12/31〜1/3>", "uri": "https://www.michi-no-eki.jp/stations/views/18976"}}, {"type": "Feature", "geometry": {"type": "Point", "coordinates": [140.285026, 39.301604]}, "properties": {"pref_id": "12", "station_id": "18977", "name": "東由利", "address": "015-0211 秋田県由利本荘市東由利老方字畑田28", "tel": "0184-69-2611", "hours": "10:00〜21:00〔休館日 第1・3月曜日〕祭日の時は翌日", "uri": "https://www.michi-no-eki.jp/stations/views/18977"}}, {"type": "Feature", "geometry": {"type": "Point", "coordinates": [140.297203, 40.063515]}, "properties": {"pref_id": "12", "station_id": "18978", "name": "かみこあに", "address": "018-4421 秋田県北秋田郡上小阿仁村小沢田字向川原66-1", "tel": "0186-77-3238", "hours": "9:00〜17:30 <休 12/31〜1/1>", "uri": "https://www.michi-no-eki.jp/stations/views/18978"}}, {"type": "Feature", "geometry": {"type": "Point", "coordinates": [139.900182, 39.220129]}, "properties": {"pref_id": "12", "station_id": "18979", "name": "象潟", "address": "018-0121 秋田県にかほ市象潟町字大塩越73-1", "tel": "0184-32-5588", "hours": "9:00〜21:00<休 12月〜3月の第3月曜日>", "uri": "https://www.michi-no-eki.jp/stations/views/18979"}}, {"type": "Feature", "geometry": {"type": "Point", "coordinates": [140.533182, 39.53854]}, "properties": {"pref_id": "12", "station_id": "18980", "name": "なかせん", "address": "014-0207 秋田県大仙市長野字高畑95-1", "tel": "0187-56-4515", "hours": "9:00〜18:00≪冬期・営業時間短縮あり≫ <休 12/31〜1/1>", "uri": "https://www.michi-no-eki.jp/stations/views/18980"}}, {"type": "Feature", "geometry": {"type": "Point", "coordinates": [140.460393, 39.065139]}, "properties": {"pref_id": "12", "station_id": "18981", "name": "おがち", "address": "019-0205 秋田県湯沢市小野字橋本90", "tel": "0183-52-5500", "hours": "9:00〜18:00 ≪冬期・営業時間短縮あり≫", "uri": "https://www.michi-no-eki.jp/stations/views/18981"}}, {"type": "Feature", "geometry": {"type": "Point", "coordinates": [140.009563, 39.856815]}, "properties": {"pref_id": "12", "station_id": "18982", "name": "てんのう", "address": "010-0201 秋田県潟上市天王字江川上谷地109-2", "tel": "018-878-6588", "hours": "9:00〜18:00≪冬期・営業時間短縮あり≫ <休 12/31>", "uri": "https://www.michi-no-eki.jp/stations/views/18982"}}, {"type": "Feature", "geometry": {"type": "Point", "coordinates": [140.052933, 39.542084]}, "properties": {"pref_id": "12", "station_id": "18983", "name": "岩城", "address": "018-1301 秋田県由利本荘市岩城内道川 字新鶴潟192-43", "tel": "0184-73-2700", "hours": "9:00〜18:30(4月〜10月)、9:00〜18:00(11月〜3月)〔施設により異なる〕、温泉9:00〜21:00", "uri": "https://www.michi-no-eki.jp/stations/views/18983"}}, {"type": "Feature", "geometry": {"type": "Point", "coordinates": [140.077799, 39.864734]}, "properties": {"pref_id": "12", "station_id": "18984", "name": "しょうわ", "address": "018-1415 秋田県潟上市昭和豊川竜毛字山ノ下1-1", "tel": "018-855-5041", "hours": "9:00〜18:00 <休 12/31〜1/1>", "uri": "https://www.michi-no-eki.jp/stations/views/18984"}}, {"type": "Feature", "geometry": {"type": "Point", "coordinates": [140.028005, 40.264578]}, "properties": {"pref_id": "12", "station_id": "18985", "name": "みねはま", "address": "018-2509 秋田県山本郡八峰町峰浜沼田字ホンコ谷地147-6", "tel": "0185-76-4649", "hours": "9:00〜18:00≪冬期・営業時間短縮あり≫ <休 12/31〜1/3>", "uri": "https://www.michi-no-eki.jp/stations/views/18985"}}, {"type": "Feature", "geometry": {"type": "Point", "coordinates": [140.625808, 39.289317]}, "properties": {"pref_id": "12", "station_id": "18986", "name": "さんない", "address": "019-1108 秋田県横手市山内土渕字小目倉沢34", "tel": "0182-56-1600", "hours": "9:00〜19:00≪冬期・営業時間短縮あり≫", "uri": "https://www.michi-no-eki.jp/stations/views/18986"}}, {"type": "Feature", "geometry": {"type": "Point", "coordinates": [140.090156, 39.442884]}, "properties": {"pref_id": "12", "station_id": "18987", "name": "おおうち", "address": "018-0711 秋田県由利本荘市岩谷町字西越36", "tel": "0184-62-1126", "hours": "9:00〜21:00〔施設により異なる〕", "uri": "https://www.michi-no-eki.jp/stations/views/18987"}}, {"type": "Feature", "geometry": {"type": "Point", "coordinates": [140.456774, 39.901824]}, "properties": {"pref_id": "12", "station_id": "18988", "name": "あに", "address": "018-4735 秋田県北秋田市阿仁比立内字家ノ後8-1", "tel": "0186-69-2575", "hours": "9:00〜17:00<年中>、レストラン  11:00〜14:00<年中>、<休 12月〜3月の毎週火曜日、12/31〜1/2>", "uri": "https://www.michi-no-eki.jp/stations/views/18988"}}, {"type": "Feature", "geometry": {"type": "Point", "coordinates": [140.585214, 40.219348]}, "properties": {"pref_id": "12", "station_id": "18989", "name": "ひない", "address": "018-5701 秋田県大館市比内町扇田字新大堤下93-11", "tel": "0186-55-1000", "hours": "9:00〜20:00〔施設により異なる〕 <休 12/31〜1/2、レストランは毎週月曜日>", "uri": "https://www.michi-no-eki.jp/stations/views/18989"}}, {"type": "Feature", "geometry": {"type": "Point", "coordinates": [140.144214, 39.947086]}, "properties": {"pref_id": "12", "station_id": "18990", "name": "五城目", "address": "018-1856 秋田県南秋田郡五城目町富津内下山内字上広ヶ野76-1", "tel": "018-879-8411", "hours": "◇物産館 9:00〜18:00(12月〜3月 17:00) ◇レストラン 11:00〜15:30 ◇軽食 9:00〜18:00(12月〜3月17:00)", "uri": "https://www.michi-no-eki.jp/stations/views/18990"}}, {"type": "Feature", "geometry": {"type": "Point", "coordinates": [140.291515, 39.109541]}, "properties": {"pref_id": "12", "station_id": "18991", "name": "清水の里・鳥海郷", "address": "015-0721 秋田県由利本荘市鳥海町上笹子字堺台100", "tel": "0184-59-2022", "hours": "8:30〜18:00 <休 12/31〜1/2>", "uri": "https://www.michi-no-eki.jp/stations/views/18991"}}, {"type": "Feature", "geometry": {"type": "Point", "coordinates": [140.567568, 39.378995]}, "properties": {"pref_id": "12", "station_id": "18992", "name": "美郷", "address": "019-1302 秋田県仙北郡美郷町金沢字下舘124", "tel": "0182-37-3000", "hours": "9:00〜19:00 ≪冬期・営業時間短縮あり≫ <休 1/1>", "uri": "https://www.michi-no-eki.jp/stations/views/18992"}}, {"type": "Feature", "geometry": {"type": "Point", "coordinates": [140.362517, 39.61884]}, "properties": {"pref_id": "12", "station_id": "18993", "name": "協和", "address": "019-2412 秋田県大仙市協和荒川字新田表15-2", "tel": "018-881-6646", "hours": "9:00〜18:00 (冬期9:00〜17:00)※諸般の事情により時間短縮営業を行う場合があります。事前に確認をお願い致します。", "uri": "https://www.michi-no-eki.jp/stations/views/18993"}}, {"type": "Feature", "geometry": {"type": "Point", "coordinates": [140.521447, 39.226174]}, "properties": {"pref_id": "12", "station_id": "18994", "name": "十文字", "address": "019-0529 秋田県横手市十文字町字海道下21-4", "tel": "0182-23-9320", "hours": "9:00〜18:00≪元日は休業・催事等で時間変更あり≫", "uri": "https://www.michi-no-eki.jp/stations/views/18994"}}, {"type": "Feature", "geometry": {"type": "Point", "coordinates": [139.951518, 40.015349]}, "properties": {"pref_id": "12", "station_id": "18995", "name": "おおがた", "address": "010-0445 秋田県南秋田郡大潟村字西5-2", "tel": "0185-22-4141", "hours": "8:00〜18:00≪冬期・営業時間短縮あり≫ <休 1/1〜1/2>", "uri": "https://www.michi-no-eki.jp/stations/views/18995"}}, {"type": "Feature", "geometry": {"type": "Point", "coordinates": [140.061005, 39.752708]}, "properties": {"pref_id": "12", "station_id": "18996", "name": "あきた港", "address": "011-0945 秋田県秋田市土崎港西1-9-1", "tel": "018-857-3381", "hours": "9:00〜21:00〔施設により異なる〕", "uri": "https://www.michi-no-eki.jp/stations/views/18996"}}, {"type": "Feature", "geometry": {"type": "Point", "coordinates": [140.781686, 40.356598]}, "properties": {"pref_id": "12", "station_id": "18997", "name": "こさか七滝", "address": "017-0203 秋田県鹿角郡小坂町上向字藤原35-3", "tel": "0186-29-3777", "hours": "9:00〜17:00(4/15〜11/5) <休 月2回火曜日>               【冬期間は物産施設等が閉鎖】令和2年11月2日(月) 〜 令和3年4月16日(金)予定", "uri": "https://www.michi-no-eki.jp/stations/views/18997"}}, {"type": "Feature", "geometry": {"type": "Point", "coordinates": [140.372164, 40.195528]}, "properties": {"pref_id": "12", "station_id": "18998", "name": "大館能代空港", "address": "018-3454 秋田県北秋田市脇神字カラムシ岱21-144", "tel": "0186-62-5330", "hours": "7:45〜19:00", "uri": "https://www.michi-no-eki.jp/stations/views/18998"}}, {"type": "Feature", "geometry": {"type": "Point", "coordinates": [140.412438, 39.200532]}, "properties": {"pref_id": "12", "station_id": "19860", "name": "うご", "address": "012-1131 秋田県雄勝郡羽後町西馬音内字中野200", "tel": "0183-56-6128", "hours": "9:00〜18:00、9:00〜17:00(11月〜4月)<休 1/1>", "uri": "https://www.michi-no-eki.jp/stations/views/19860"}}, {"type": "Feature", "geometry": {"type": "Point", "coordinates": [140.82593, 40.295831]}, "properties": {"pref_id": "12", "station_id": "19901", "name": "おおゆ", "address": "018-5421 秋田県鹿角市十和田大湯字中谷地19", "tel": "0186-22-4184", "hours": "9:00〜18:00", "uri": "https://www.michi-no-eki.jp/stations/views/19901"}}, {"type": "Feature", "geometry": {"type": "Point", "coordinates": [139.848491, 39.882027]}, "properties": {"pref_id": "12", "station_id": "19915", "name": "おが", "address": "010-0511 秋田県男鹿市船川港船川字新浜町1番地19", "tel": "0185-47-7515", "hours": "9:00〜17:00", "uri": "https://www.michi-no-eki.jp/stations/views/19915"}}, {"type": "Feature", "geometry": {"type": "Point", "coordinates": [140.85773, 40.417678]}, "properties": {"pref_id": "12", "station_id": "22370", "name": "十和田湖", "address": "018-5511 秋田県鹿角郡小坂町十和田湖字生出1番地2", "tel": "", "hours": "", "uri": "https://www.michi-no-eki.jp/stations/views/22370"}}, {"type": "Feature", "geometry": {"type": "Point", "coordinates": [141.142137, 39.483271]}, "properties": {"pref_id": "13", "station_id": "18927", "name": "石鳥谷", "address": "028-3171 岩手県花巻市石鳥谷町中寺林7-17-3", "tel": "0198-45-6868", "hours": "9:00〜17:30〔施設により異なる〕 <休 12/31〜1/1>", "uri": "https://www.michi-no-eki.jp/stations/views/18927"}}, {"type": "Feature", "geometry": {"type": "Point", "coordinates": [141.62669, 39.006996]}, "properties": {"pref_id": "13", "station_id": "18928", "name": "高田松原", "address": "029-2204 岩手県陸前高田市気仙町字土手影180 高田松原津波復興祈念公園内", "tel": "0192-22-8411", "hours": "9:00〜18:00(冬期時間短縮あり) 年中無休(施設内一部店舗を除く)", "uri": "https://www.michi-no-eki.jp/stations/views/18928"}}, {"type": "Feature", "geometry": {"type": "Point", "coordinates": [141.35353, 39.651615]}, "properties": {"pref_id": "13", "station_id": "18929", "name": "区界高原", "address": "028-2631 岩手県宮古市区界2-434-2", "tel": "0193-77-2266", "hours": "9:00〜17:00 ≪冬期・営業時間短縮あり≫", "uri": "https://www.michi-no-eki.jp/stations/views/18929"}}, {"type": "Feature", "geometry": {"type": "Point", "coordinates": [141.665536, 40.27784]}, "properties": {"pref_id": "13", "station_id": "18930", "name": "おおの", "address": "028-8802 岩手県九戸郡洋野町大野58-12-30", "tel": "0194-77-4379", "hours": "9:00〜17:00〔施設により異なる〕", "uri": "https://www.michi-no-eki.jp/stations/views/18930"}}, {"type": "Feature", "geometry": {"type": "Point", "coordinates": [141.395881, 39.179837]}, "properties": {"pref_id": "13", "station_id": "18931", "name": "種山ヶ原", "address": "029-2311 岩手県気仙郡住田町世田米字子飼沢30-39", "tel": "0197-38-2215", "hours": "9:00〜18:00(冬期17:00まで)", "uri": "https://www.michi-no-eki.jp/stations/views/18931"}}, {"type": "Feature", "geometry": {"type": "Point", "coordinates": [141.862659, 39.842305]}, "properties": {"pref_id": "13", "station_id": "18932", "name": "いわいずみ", "address": "027-0502 岩手県下閉伊郡岩泉町乙茂字乙茂90-1", "tel": "0194-32-3070", "hours": "8:30〜18:00(夏期)、8:30〜17:30(冬期)", "uri": "https://www.michi-no-eki.jp/stations/views/18932"}}, {"type": "Feature", "geometry": {"type": "Point", "coordinates": [141.818707, 40.116105]}, "properties": {"pref_id": "13", "station_id": "18933", "name": "のだ", "address": "028-8201 岩手県九戸郡野田村大字野田31-31-1", "tel": "0194-78-4171", "hours": "9:00〜18:00 <休 1/1、3/31、9/30>", "uri": "https://www.michi-no-eki.jp/stations/views/18933"}}, {"type": "Feature", "geometry": {"type": "Point", "coordinates": [141.971987, 39.737554]}, "properties": {"pref_id": "13", "station_id": "18934", "name": "たろう", "address": "027-0307 岩手県宮古市田老二丁目5-1", "tel": "0193-87-2971", "hours": "9:00〜17:00(産直とれたろう)", "uri": "https://www.michi-no-eki.jp/stations/views/18934"}}, {"type": "Feature", "geometry": {"type": "Point", "coordinates": [141.902541, 39.914271]}, "properties": {"pref_id": "13", "station_id": "18935", "name": "たのはた", "address": "028-8407 岩手県下閉伊郡田野畑村菅窪223-85", "tel": "0194-34-2006", "hours": "9:00〜18:00(10〜3月/17:30)〔施設により異なる〕 <休 12/31〜1/4>", "uri": "https://www.michi-no-eki.jp/stations/views/18935"}}, {"type": "Feature", "geometry": {"type": "Point", "coordinates": [141.181477, 39.094217]}, "properties": {"pref_id": "13", "station_id": "18936", "name": "みずさわ", "address": "023-0831 岩手県奥州市水沢姉体町字石川原51-3", "tel": "0197-26-3739", "hours": "売店9:00〜18:00 <休 1/1> 、レストラン11:00〜18:00(ラストオーダー17:00)", "uri": "https://www.michi-no-eki.jp/stations/views/18936"}}, {"type": "Feature", "geometry": {"type": "Point", "coordinates": [141.099379, 39.879967]}, "properties": {"pref_id": "13", "station_id": "18937", "name": "にしね", "address": "028-7111 岩手県八幡平市大更2-154-36", "tel": "0195-75-0070", "hours": "4月〜10月 8:30〜17:00 11月〜3月 9:00〜17:00 <休 12/31〜1/1>", "uri": "https://www.michi-no-eki.jp/stations/views/18937"}}, {"type": "Feature", "geometry": {"type": "Point", "coordinates": [141.573518, 40.150939]}, "properties": {"pref_id": "13", "station_id": "18938", "name": "白樺の里やまがた", "address": "028-8602 岩手郡久慈市山形町川井8-12-1", "tel": "0194-72-3131", "hours": "9:00〜18:00 <休 12/30〜1/3(売店は無休)>", "uri": "https://www.michi-no-eki.jp/stations/views/18938"}}, {"type": "Feature", "geometry": {"type": "Point", "coordinates": [141.351304, 39.346052]}, "properties": {"pref_id": "13", "station_id": "18939", "name": "みやもり", "address": "028-0304 岩手県遠野市宮守町下宮守30-37-1", "tel": "0198-67-2929", "hours": "9:00〜18:00≪冬期・営業時間短縮あり≫", "uri": "https://www.michi-no-eki.jp/stations/views/18939"}}, {"type": "Feature", "geometry": {"type": "Point", "coordinates": [141.206417, 39.555555]}, "properties": {"pref_id": "13", "station_id": "18940", "name": "紫波", "address": "028-3535 岩手県紫波郡紫波町遠山字松原7-8", "tel": "019-671-1300", "hours": "9:00〜17:00≪冬期・営業時間の変更あり≫ <休 12/31〜1/3>", "uri": "https://www.michi-no-eki.jp/stations/views/18940"}}, {"type": "Feature", "geometry": {"type": "Point", "coordinates": [141.34049, 39.536775]}, "properties": {"pref_id": "13", "station_id": "18941", "name": "はやちね", "address": "028-3201 岩手県花巻市大迫町内川目10-30-114", "tel": "0198-48-5018 大迫支所へ転送", "hours": "売店9:00〜17:30 <休み:火曜日と冬期(11月下旬〜4月中旬)> トイレとスタンプと自販機は24時間年中無休で利用可", "uri": "https://www.michi-no-eki.jp/stations/views/18941"}}, {"type": "Feature", "geometry": {"type": "Point", "coordinates": [141.952995, 39.478294]}, "properties": {"pref_id": "13", "station_id": "18942", "name": "やまだ おいすた", "address": "028-1321 岩手県下閉伊郡山田町山田2-111-2", "tel": "0193-65-6631", "hours": "9:00〜18:00", "uri": "https://www.michi-no-eki.jp/stations/views/18942"}}, {"type": "Feature", "geometry": {"type": "Point", "coordinates": [141.501123, 39.330925]}, "properties": {"pref_id": "13", "station_id": "18943", "name": "遠野風の丘", "address": "028-0531 岩手県遠野市綾織町新里8-2-1", "tel": "0198-62-0888", "hours": "9:00〜18:00 ≪冬期・営業時間短縮あり≫ <休 1/1>", "uri": "https://www.michi-no-eki.jp/stations/views/18943"}}, {"type": "Feature", "geometry": {"type": "Point", "coordinates": [141.798998, 39.121158]}, "properties": {"pref_id": "13", "station_id": "18944", "name": "さんりく", "address": "022-0101 岩手県大船渡市三陸町越善来字井戸洞95-27", "tel": "0192-44-3241", "hours": "9:00〜18:00", "uri": "https://www.michi-no-eki.jp/stations/views/18944"}}, {"type": "Feature", "geometry": {"type": "Point", "coordinates": [140.875147, 39.300719]}, "properties": {"pref_id": "13", "station_id": "18945", "name": "錦秋湖", "address": "024-0341 岩手県和賀郡西和賀町杉名畑44-264", "tel": "0197-84-2990", "hours": "9:00〜18:30(12〜3月は9:00〜18:00)", "uri": "https://www.michi-no-eki.jp/stations/views/18945"}}, {"type": "Feature", "geometry": {"type": "Point", "coordinates": [141.339958, 39.984567]}, "properties": {"pref_id": "13", "station_id": "18946", "name": "くずまき高原", "address": "028-5402 岩手県岩手郡葛巻町葛巻39-159-3", "tel": "0195-66-0711", "hours": "9:00〜18:00 ≪冬期・営業時間短縮あり≫ <休 1/1〜1/2>", "uri": "https://www.michi-no-eki.jp/stations/views/18946"}}, {"type": "Feature", "geometry": {"type": "Point", "coordinates": [141.21381, 39.968545]}, "properties": {"pref_id": "13", "station_id": "18947", "name": "石神の丘", "address": "028-4307 岩手県岩手郡岩手町大字五日市10-121-20", "tel": "0195-61-1600", "hours": "産直9:00〜18:00", "uri": "https://www.michi-no-eki.jp/stations/views/18947"}}, {"type": "Feature", "geometry": {"type": "Point", "coordinates": [140.874886, 39.706412]}, "properties": {"pref_id": "13", "station_id": "18948", "name": "雫石あねっこ", "address": "020-0582 岩手県岩手郡雫石町橋場坂本118-10", "tel": "019-692-5577", "hours": "8:30〜18:00 ≪冬期・営業時間短縮あり≫", "uri": "https://www.michi-no-eki.jp/stations/views/18948"}}, {"type": "Feature", "geometry": {"type": "Point", "coordinates": [141.221895, 39.382437]}, "properties": {"pref_id": "13", "station_id": "18949", "name": "とうわ", "address": "028-0115 岩手県花巻市東和町安俵6区147-2", "tel": "0198-42-3006", "hours": "9:00〜17:00", "uri": "https://www.michi-no-eki.jp/stations/views/18949"}}, {"type": "Feature", "geometry": {"type": "Point", "coordinates": [141.052885, 38.946439]}, "properties": {"pref_id": "13", "station_id": "18950", "name": "厳美渓", "address": "021-0101 岩手県一関市厳美町字沖野々220-1", "tel": "0191-29-2000", "hours": "9:00〜18:00(11〜3月は9:00〜17:00)<休 毎月第3水曜日(3〜10月は無休)>", "uri": "https://www.michi-no-eki.jp/stations/views/18950"}}, {"type": "Feature", "geometry": {"type": "Point", "coordinates": [141.416529, 40.248349]}, "properties": {"pref_id": "13", "station_id": "18951", "name": "おりつめ", "address": "028-6506 岩手県九戸郡九戸村大字山屋2-28-1", "tel": "0195-42-4400", "hours": "8:00〜19:00 <休 1/1、1/2>", "uri": "https://www.michi-no-eki.jp/stations/views/18951"}}, {"type": "Feature", "geometry": {"type": "Point", "coordinates": [141.272375, 38.898677]}, "properties": {"pref_id": "13", "station_id": "18952", "name": "かわさき", "address": "029-0202 岩手県一関市川崎町薄衣字法道地42-3", "tel": "0191-36-5170", "hours": "9:00〜19:00(12〜2月は9:00〜18:00)", "uri": "https://www.michi-no-eki.jp/stations/views/18952"}}, {"type": "Feature", "geometry": {"type": "Point", "coordinates": [141.589162, 39.648882]}, "properties": {"pref_id": "13", "station_id": "18953", "name": "やまびこ館", "address": "028-2513 岩手県宮古市川内8-2", "tel": "0193-85-5011", "hours": "8:30〜18:30 ≪冬期・営業時間短縮あり≫", "uri": "https://www.michi-no-eki.jp/stations/views/18953"}}, {"type": "Feature", "geometry": {"type": "Point", "coordinates": [141.969894, 39.639018]}, "properties": {"pref_id": "13", "station_id": "18954", "name": "みやこ", "address": "027-0004 岩手県宮古市臨港通1-20", "tel": "0193-71-3100", "hours": "8:45〜17:00〔施設により異なる〕", "uri": "https://www.michi-no-eki.jp/stations/views/18954"}}, {"type": "Feature", "geometry": {"type": "Point", "coordinates": [141.589311, 39.871122]}, "properties": {"pref_id": "13", "station_id": "18955", "name": "三田貝分校", "address": "028-5641 岩手県下閉伊郡岩泉町門字三田貝47-2", "tel": "0194-25-4311", "hours": "8:30〜18:00 ≪冬期・営業時間短縮あり≫", "uri": "https://www.michi-no-eki.jp/stations/views/18955"}}, {"type": "Feature", "geometry": {"type": "Point", "coordinates": [141.764639, 40.189888]}, "properties": {"pref_id": "13", "station_id": "18956", "name": "くじ", "address": "028-0056 岩手県久慈市中町2-5-6", "tel": "0194-66-9200", "hours": "9:00〜19:00 ≪冬期・営業時間短縮あり≫ <休 1/1>", "uri": "https://www.michi-no-eki.jp/stations/views/18956"}}, {"type": "Feature", "geometry": {"type": "Point", "coordinates": [141.781682, 39.253633]}, "properties": {"pref_id": "13", "station_id": "19822", "name": "釜石仙人峠", "address": "026-0055 岩手県釜石市甲子町7-155-4", "tel": "0193-27-8530", "hours": "9:00〜18:00〔施設により異なる〕<休 12/31〜1/1>", "uri": "https://www.michi-no-eki.jp/stations/views/19822"}}, {"type": "Feature", "geometry": {"type": "Point", "coordinates": [141.121791, 38.991816]}, "properties": {"pref_id": "13", "station_id": "19876", "name": "平泉", "address": "029-4012 岩手県西磐井郡平泉町平泉字伽羅楽112-2", "tel": "0191-48-4795", "hours": "9:00〜18:00 ≪冬期・営業時間短縮あり≫", "uri": "https://www.michi-no-eki.jp/stations/views/19876"}}, {"type": "Feature", "geometry": {"type": "Point", "coordinates": [141.448417, 38.931213]}, "properties": {"pref_id": "13", "station_id": "19900", "name": "むろね", "address": "029-1201 岩手県一関市室根町折壁字向山131-9", "tel": "0191-34-4180", "hours": "9:00-18:00", "uri": "https://www.michi-no-eki.jp/stations/views/19900"}}, {"type": "Feature", "geometry": {"type": "Point", "coordinates": [141.05601, 39.365752]}, "properties": {"pref_id": "13", "station_id": "19944", "name": "はなまき西南", "address": " 岩手県花巻市轟木7地割203番地", "tel": "0198-29-5522", "hours": "物産館「すぎの樹」 9:00〜17:00   食堂「味楽苑」 11:00〜14:00、17:00〜21:30  加工室「ミレットキッチン花」", "uri": "https://www.michi-no-eki.jp/stations/views/19944"}}, {"type": "Feature", "geometry": {"type": "Point", "coordinates": [141.885932, 40.002952]}, "properties": {"pref_id": "13", "station_id": "19963", "name": "青の国ふだい", "address": "028-8332 岩手県下閉伊郡普代村第9地割字銅屋5番地3", "tel": "0194-35-2411", "hours": "8:00〜17:00(年末年始休業あり)", "uri": "https://www.michi-no-eki.jp/stations/views/19963"}}, {"type": "Feature", "geometry": {"type": "Point", "coordinates": [141.781341, 40.22645]}, "properties": {"pref_id": "13", "station_id": "21974", "name": "いわて北三陸", "address": "028-0001 岩手県久慈市夏井町鳥谷第7地割3-2", "tel": "0194-66-8830", "hours": "9:00〜19:00<休 1/1>", "uri": "https://www.michi-no-eki.jp/stations/views/21974"}}, {"type": "Feature", "geometry": {"type": "Point", "coordinates": [141.331695, 39.018314]}, "properties": {"pref_id": "13", "station_id": "22682", "name": "だいとう", "address": "029-0521 岩手県一関市大東町渋民字西風47-1", "tel": "", "hours": "", "uri": "https://www.michi-no-eki.jp/stations/views/22682"}}, {"type": "Feature", "geometry": {"type": "Point", "coordinates": [141.18951, 39.843727]}, "properties": {"pref_id": "13", "station_id": "22683", "name": "もりおか渋民", "address": "028-4132 岩手県盛岡市渋民字渋民80番地42", "tel": "", "hours": "", "uri": "https://www.michi-no-eki.jp/stations/views/22683"}}, {"type": "Feature", "geometry": {"type": "Point", "coordinates": [141.973148, 39.437023]}, "properties": {"pref_id": "13", "station_id": "22684", "name": "ふなこし", "address": "028-1371 岩手県下閉伊郡山田町船越第6地割141番地", "tel": "", "hours": "", "uri": "https://www.michi-no-eki.jp/stations/views/22684"}}, {"type": "Feature", "geometry": {"type": "Point", "coordinates": [139.874501, 38.586994]}, "properties": {"pref_id": "15", "station_id": "18999", "name": "月山", "address": "997-0403 山形県鶴岡市越中山字名平3-1", "tel": "0235-53-3411", "hours": "9:00〜17:00 <休 12〜3月の第4月曜日>", "uri": "https://www.michi-no-eki.jp/stations/views/18999"}}, {"type": "Feature", "geometry": {"type": "Point", "coordinates": [140.328447, 38.41304]}, "properties": {"pref_id": "15", "station_id": "19000", "name": "河北", "address": "999-3511 山形県西村山郡河北町谷地字真木335-1", "tel": "0237-72-2870", "hours": "9:00〜17:00", "uri": "https://www.michi-no-eki.jp/stations/views/19000"}}, {"type": "Feature", "geometry": {"type": "Point", "coordinates": [140.269891, 38.399013]}, "properties": {"pref_id": "15", "station_id": "19001", "name": "寒河江", "address": "990-0523 山形県寒河江市大字八鍬字川原919-8", "tel": "0237-86-1818", "hours": "9:00〜18:00≪冬期・営業時間短縮あり≫", "uri": "https://www.michi-no-eki.jp/stations/views/19001"}}, {"type": "Feature", "geometry": {"type": "Point", "coordinates": [139.558109, 38.580422]}, "properties": {"pref_id": "15", "station_id": "19002", "name": "あつみ", "address": "999-7121 山形県鶴岡市早田字戸ノ浦606", "tel": "0235-44-3211", "hours": "8:00〜18:00(冬季は8:30〜17:30) <休 毎月最終水曜日(7・8月を除く)、12/31〜1/1>", "uri": "https://www.michi-no-eki.jp/stations/views/19002"}}, {"type": "Feature", "geometry": {"type": "Point", "coordinates": [140.099237, 38.436059]}, "properties": {"pref_id": "15", "station_id": "19003", "name": "にしかわ", "address": "990-0742 山形県西村山郡西川町大字水沢2304", "tel": "0237-74-2100", "hours": "9:00〜17:00 <休 年末年始>", "uri": "https://www.michi-no-eki.jp/stations/views/19003"}}, {"type": "Feature", "geometry": {"type": "Point", "coordinates": [139.994671, 38.026065]}, "properties": {"pref_id": "15", "station_id": "19004", "name": "いいで", "address": "999-0606 山形県西置賜郡飯豊町大字松原1898", "tel": "0238-86-3939", "hours": "9:00〜18:00(12〜3月は10:00〜17:00) <休 12/31〜1/1・12月〜3月の第二水曜・第四水曜(変更の可能性あり)>", "uri": "https://www.michi-no-eki.jp/stations/views/19004"}}, {"type": "Feature", "geometry": {"type": "Point", "coordinates": [140.38231, 38.487146]}, "properties": {"pref_id": "15", "station_id": "19005", "name": "むらやま", "address": "995-0025 山形県村山市大字楯岡7635-1", "tel": "0237-55-7100", "hours": "9:00〜17:00(季節変更あり)", "uri": "https://www.michi-no-eki.jp/stations/views/19005"}}, {"type": "Feature", "geometry": {"type": "Point", "coordinates": [140.161431, 38.728688]}, "properties": {"pref_id": "15", "station_id": "19006", "name": "とざわ", "address": "999-6402 山形県最上郡戸沢村大字蔵岡字黒渕3008-1", "tel": "0233-72-3303", "hours": "9:00〜17:30〔施設により異なる〕", "uri": "https://www.michi-no-eki.jp/stations/views/19006"}}, {"type": "Feature", "geometry": {"type": "Point", "coordinates": [139.875583, 39.060163]}, "properties": {"pref_id": "15", "station_id": "19007", "name": "鳥海", "address": "999-8531 山形県飽海郡遊佐町大字菅里字菅野308-1", "tel": "0234-71-7222", "hours": "9:00〜18:00(3月〜10月)、9:00〜17:00(11〜2月) < 休   1/1 >", "uri": "https://www.michi-no-eki.jp/stations/views/19007"}}, {"type": "Feature", "geometry": {"type": "Point", "coordinates": [139.984182, 37.877658]}, "properties": {"pref_id": "15", "station_id": "19008", "name": "田沢", "address": "992-1583 山形県米沢市大字入田沢573-19", "tel": "0238-31-2753", "hours": "9:00〜18:00 ≪冬期・営業時間短縮あり≫ <休 1/1>", "uri": "https://www.michi-no-eki.jp/stations/views/19008"}}, {"type": "Feature", "geometry": {"type": "Point", "coordinates": [139.730609, 38.071956]}, "properties": {"pref_id": "15", "station_id": "19009", "name": "白い森おぐに", "address": "999-1363 山形県西置賜郡小国町大字小国小坂町616-1", "tel": "0238-62-3719", "hours": "売店 白い森のくまさん・ぶな茶屋軽食コーナー9:00〜17:00 お母さん食堂あいあい11:30〜14:00 <休 1/1>(あいあいのみ毎週火曜定休)", "uri": "https://www.michi-no-eki.jp/stations/views/19009"}}, {"type": "Feature", "geometry": {"type": "Point", "coordinates": [140.213291, 38.367756]}, "properties": {"pref_id": "15", "station_id": "19010", "name": "おおえ", "address": "990-1121 山形県西村山郡大江町大字藤田218-6", "tel": "0237-62-5845", "hours": "9:00〜18:00 <休 12/31〜1/1>", "uri": "https://www.michi-no-eki.jp/stations/views/19010"}}, {"type": "Feature", "geometry": {"type": "Point", "coordinates": [139.84633, 38.782805]}, "properties": {"pref_id": "15", "station_id": "19011", "name": "庄内みかわ", "address": "997-1301 山形県東田川郡三川町大字横山字堤172-1", "tel": "0235-68-2500", "hours": "9:00〜16:00 <休 12/31午後〜1/3>", "uri": "https://www.michi-no-eki.jp/stations/views/19011"}}, {"type": "Feature", "geometry": {"type": "Point", "coordinates": [140.217442, 38.006775]}, "properties": {"pref_id": "15", "station_id": "19012", "name": "たかはた", "address": "992-0302 山形県東置賜郡高畠町大字安久津2072-1", "tel": "0238-52-5433", "hours": "9:00〜17:30≪冬期・営業時間短縮あり≫", "uri": "https://www.michi-no-eki.jp/stations/views/19012"}}, {"type": "Feature", "geometry": {"type": "Point", "coordinates": [140.387127, 38.354481]}, "properties": {"pref_id": "15", "station_id": "19013", "name": "天童温泉", "address": "994-0028 山形県天童市鍬ノ町二丁目3番41号", "tel": "023-651-2002", "hours": "9:00〜18:00", "uri": "https://www.michi-no-eki.jp/stations/views/19013"}}, {"type": "Feature", "geometry": {"type": "Point", "coordinates": [140.363688, 38.656902]}, "properties": {"pref_id": "15", "station_id": "19014", "name": "尾花沢", "address": "999-4554 山形県尾花沢市芦沢1195-1", "tel": "0237-24-3535", "hours": "9:00〜18:00 <休 1/1>", "uri": "https://www.michi-no-eki.jp/stations/views/19014"}}, {"type": "Feature", "geometry": {"type": "Point", "coordinates": [140.097322, 38.218111]}, "properties": {"pref_id": "15", "station_id": "19015", "name": "白鷹ヤナ公園", "address": "992-0862 山形県西置賜郡白鷹町大字下山661-1", "tel": "0238-85-5577", "hours": "10:00〜18:00≪冬期・営業時間短縮あり≫ <休 毎週水曜日>", "uri": "https://www.michi-no-eki.jp/stations/views/19015"}}, {"type": "Feature", "geometry": {"type": "Point", "coordinates": [140.169257, 38.327388]}, "properties": {"pref_id": "15", "station_id": "19823", "name": "あさひまち", "address": "990-1411 山形県西村山郡朝日町大字和合字北又2724", "tel": "0237-85-0623", "hours": "9:00〜18:00〔施設により異なる〕※現在短縮営業〜17:00 (冬季は9:00〜17:00)", "uri": "https://www.michi-no-eki.jp/stations/views/19823"}}, {"type": "Feature", "geometry": {"type": "Point", "coordinates": [139.984412, 38.794158]}, "properties": {"pref_id": "15", "station_id": "19861", "name": "しょうない", "address": "999-6601 山形県東田川郡庄内町狩川字外北割97-1", "tel": "0234-56-3039", "hours": "9:30〜18:00≪冬期・営業時間短縮あり≫ <休 年末年始>", "uri": "https://www.michi-no-eki.jp/stations/views/19861"}}, {"type": "Feature", "geometry": {"type": "Point", "coordinates": [140.043516, 38.108211]}, "properties": {"pref_id": "15", "station_id": "19878", "name": "川のみなと長井", "address": "993-0003 山形県長井市東町2-50", "tel": "0238-87-1121", "hours": "9:00〜18:00〔施設により異なる〕", "uri": "https://www.michi-no-eki.jp/stations/views/19878"}}, {"type": "Feature", "geometry": {"type": "Point", "coordinates": [140.137017, 37.922055]}, "properties": {"pref_id": "15", "station_id": "19902", "name": "米沢", "address": "992-0117 山形県米沢市大字川井1039-1", "tel": "0238-40-8400", "hours": "トイレ、道路情報コーナー、無料休憩所は24時間ご利用いただけます。 お土産コーナー:9時〜18時 フードコート:10時〜18時 セブンイレブン:7時〜21時 米沢牛レストラン牛毘亭:10時〜18時(※予約の際は21:00まで可)", "uri": "https://www.michi-no-eki.jp/stations/views/19902"}}, {"type": "Feature", "geometry": {"type": "Point", "coordinates": [140.312071, 38.189453]}, "properties": {"pref_id": "15", "station_id": "22266", "name": "やまがた蔵王", "address": "990-2307 山形県山形市表蔵王79番地1", "tel": "023-676-6868", "hours": "9:00〜17:30", "uri": "https://www.michi-no-eki.jp/stations/views/22266"}}, {"type": "Feature", "geometry": {"type": "Point", "coordinates": [140.43113, 38.759914]}, "properties": {"pref_id": "15", "station_id": "22267", "name": "もがみ", "address": "999-6212 山形県最上郡最上町大字志茂字柳ノ原1469番地50", "tel": "0233321137", "hours": "9時から17時", "uri": "https://www.michi-no-eki.jp/stations/views/22267"}}, {"type": "Feature", "geometry": {"type": "Point", "coordinates": [140.310543, 38.781644]}, "properties": {"pref_id": "15", "station_id": "22685", "name": "新庄エコロジーガーデン原蚕の杜", "address": "996-0001 山形県新庄市五日町字一本柳1140番1", "tel": "", "hours": "", "uri": "https://www.michi-no-eki.jp/stations/views/22685"}}, {"type": "Feature", "geometry": {"type": "Point", "coordinates": [140.466502, 37.982691]}, "properties": {"pref_id": "14", "station_id": "18957", "name": "七ヶ宿", "address": "989-0537 宮城県刈田郡七ヶ宿町字上野8-1", "tel": "0224-37-2721", "hours": "9:00〜17:30 ≪冬期・営業時間短縮あり≫ <休 12/31〜1/3、3/31>", "uri": "https://www.michi-no-eki.jp/stations/views/18957"}}, {"type": "Feature", "geometry": {"type": "Point", "coordinates": [141.325525, 38.619593]}, "properties": {"pref_id": "14", "station_id": "18958", "name": "津山", "address": "986-0402 宮城県登米市津山町横山字細谷26-1", "tel": "0225-69-2341", "hours": "9:00〜17:00 <休 12/30〜1/1>", "uri": "https://www.michi-no-eki.jp/stations/views/18958"}}, {"type": "Feature", "geometry": {"type": "Point", "coordinates": [140.938388, 38.521611]}, "properties": {"pref_id": "14", "station_id": "18959", "name": "三本木", "address": "989-6321 宮城県大崎市三本木字大豆坂63-13", "tel": "0229-52-6232", "hours": "9:00〜18:00", "uri": "https://www.michi-no-eki.jp/stations/views/18959"}}, {"type": "Feature", "geometry": {"type": "Point", "coordinates": [140.844319, 38.794418]}, "properties": {"pref_id": "14", "station_id": "18960", "name": "路田里はなやま", "address": "987-2511 宮城県栗原市花山字本沢北ノ前112-1", "tel": "0228-56-2265", "hours": "8:30〜17:00", "uri": "https://www.michi-no-eki.jp/stations/views/18960"}}, {"type": "Feature", "geometry": {"type": "Point", "coordinates": [141.562655, 38.814984]}, "properties": {"pref_id": "14", "station_id": "18961", "name": "大谷海岸", "address": "988-0273 宮城県気仙沼市本吉町三島94-12", "tel": "0226-44-3180", "hours": "9:30〜17:30 <休 12/31〜1/2>", "uri": "https://www.michi-no-eki.jp/stations/views/18961"}}, {"type": "Feature", "geometry": {"type": "Point", "coordinates": [140.992791, 38.424053]}, "properties": {"pref_id": "14", "station_id": "18962", "name": "おおさと", "address": "981-3521 宮城県黒川郡大郷町中村字北浦 51-6", "tel": "022-359-2675", "hours": "9:00〜18:00 <休 年末年始>", "uri": "https://www.michi-no-eki.jp/stations/views/18962"}}, {"type": "Feature", "geometry": {"type": "Point", "coordinates": [141.187891, 38.627118]}, "properties": {"pref_id": "14", "station_id": "18963", "name": "米山", "address": "987-0321 宮城県登米市米山町西野字新遠田67", "tel": "0220-55-2747", "hours": "9:00〜18:30(4月〜11月)、9:00〜18:00(12月〜3月) <休 12/31〜1/3>", "uri": "https://www.michi-no-eki.jp/stations/views/18963"}}, {"type": "Feature", "geometry": {"type": "Point", "coordinates": [140.833294, 38.70744]}, "properties": {"pref_id": "14", "station_id": "18964", "name": "あ・ら・伊達な道の駅", "address": "989-6405 宮城県大崎市岩出山池月字下宮道下4-1", "tel": "0229-73-2236", "hours": "4月〜11月 9:00〜18:00  12月〜3月 9:00〜17:00〔施設により異なる〕", "uri": "https://www.michi-no-eki.jp/stations/views/18964"}}, {"type": "Feature", "geometry": {"type": "Point", "coordinates": [141.316076, 38.742664]}, "properties": {"pref_id": "14", "station_id": "18965", "name": "林林館", "address": "987-0901 宮城県登米市東和町米川字六反33-1", "tel": "0220-45-1218", "hours": "9:00〜17:00〔施設により異なる〕", "uri": "https://www.michi-no-eki.jp/stations/views/18965"}}, {"type": "Feature", "geometry": {"type": "Point", "coordinates": [141.295318, 38.501033]}, "properties": {"pref_id": "14", "station_id": "18966", "name": "上品の郷", "address": "986-0132 宮城県石巻市小船越字二子北下1-1", "tel": "0225-62-3670", "hours": "直売所9:00〜19:00 温泉保養施設9:00〜21:00(最終受付20:30 毎月第4火曜定休) フードコート10:00〜20:00(LO19:30)  お郷カフェ10:00〜17:00", "uri": "https://www.michi-no-eki.jp/stations/views/18966"}}, {"type": "Feature", "geometry": {"type": "Point", "coordinates": [141.160641, 38.66488]}, "properties": {"pref_id": "14", "station_id": "18967", "name": "みなみかた", "address": "987-0401 宮城県登米市南方町新高石浦150-1", "tel": "0220-58-3111", "hours": "9:00〜18:00(施設により異なる) <休 12/31〜1/3>", "uri": "https://www.michi-no-eki.jp/stations/views/18967"}}, {"type": "Feature", "geometry": {"type": "Point", "coordinates": [140.717279, 38.118639]}, "properties": {"pref_id": "14", "station_id": "18968", "name": "村田", "address": "989-1305 宮城県柴田郡村田町大字村田字北塩内41", "tel": "0224-83-5505", "hours": "9:00〜17:00 <休 年末年始>", "uri": "https://www.michi-no-eki.jp/stations/views/18968"}}, {"type": "Feature", "geometry": {"type": "Point", "coordinates": [141.327823, 38.70797]}, "properties": {"pref_id": "14", "station_id": "19842", "name": "三滝堂", "address": "987-0902 宮城県登米市東和町米谷字福平191-1", "tel": "0220-23-7891", "hours": "9:00〜19:00〔施設により異なる〕", "uri": "https://www.michi-no-eki.jp/stations/views/19842"}}, {"type": "Feature", "geometry": {"type": "Point", "coordinates": [140.807648, 37.968831]}, "properties": {"pref_id": "14", "station_id": "19929", "name": "かくだ", "address": "981-1504 宮城県角田市枝野字北島81番地1", "tel": "0224-61-2850", "hours": "9:00〜17:30(4月〜10月) 9:00〜17:00(11月〜3月)", "uri": "https://www.michi-no-eki.jp/stations/views/19929"}}, {"type": "Feature", "geometry": {"type": "Point", "coordinates": [140.956797, 38.579937]}, "properties": {"pref_id": "14", "station_id": "19935", "name": "おおさき", "address": "989-6174 宮城県大崎市古川千手寺町二丁目5番50号", "tel": "0229-25-7381", "hours": "産直コーナー 09:30〜18:30     コミュニティカフェ 10:00〜18:00  共に元旦のみお休み", "uri": "https://www.michi-no-eki.jp/stations/views/19935"}}, {"type": "Feature", "geometry": {"type": "Point", "coordinates": [141.468783, 38.520781]}, "properties": {"pref_id": "14", "station_id": "19964", "name": "硯上の里おがつ", "address": "986-1335 宮城県石巻市雄勝町下雄勝二丁目5番地", "tel": "0225-25-6844", "hours": "9:00〜16:30(各店舗による、ホームページで要確認)※雄勝硯伝統産業会館:火曜日定休", "uri": "https://www.michi-no-eki.jp/stations/views/19964"}}, {"type": "Feature", "geometry": {"type": "Point", "coordinates": [141.445985, 38.44581]}, "properties": {"pref_id": "14", "station_id": "19965", "name": "おながわ", "address": "986-2265 宮城県牡鹿郡女川町女川二丁目66番地", "tel": "0225-24-8118", "hours": "店舗・施設による。※ハマテラス内のトイレ、授乳スペース、情報コーナーは24時間利用可能", "uri": "https://www.michi-no-eki.jp/stations/views/19965"}}, {"type": "Feature", "geometry": {"type": "Point", "coordinates": [141.448327, 38.678126]}, "properties": {"pref_id": "14", "station_id": "19966", "name": "さんさん南三陸", "address": "986-0752 宮城県本吉郡南三陸町志津川字五日町200-1", "tel": "0226-46-1385（南三陸町商工観光課）", "hours": "商店街(店舗による) 伝承館施設(9:00〜17:00※冬期12〜2月は16:00まで) 観光案内所(9:00〜18:00) 志津川駅(9:00〜17:30)", "uri": "https://www.michi-no-eki.jp/stations/views/19966"}}, {"type": "Feature", "geometry": {"type": "Point", "coordinates": [0.0, 0.0]}, "properties": {"pref_id": "14", "station_id": "22523", "name": "東松島", "address": "981-0504 宮城県東松島市小松字上二間堀112番地5", "tel": "", "hours": "9:00〜19:00(施設により異なる)", "uri": "https://www.michi-no-eki.jp/stations/views/22523"}}, {"type": "Feature", "geometry": {"type": "Point", "coordinates": [140.334294, 37.65512]}, "properties": {"pref_id": "16", "station_id": "19016", "name": "つちゆ", "address": "960-1243 福島県福島市松川町水原字南沢41-2", "tel": "0243-24-2148", "hours": "9:00〜18:00≪冬期・営業時間短縮あり≫", "uri": "https://www.michi-no-eki.jp/stations/views/19016"}}, {"type": "Feature", "geometry": {"type": "Point", "coordinates": [140.576693, 37.667818]}, "properties": {"pref_id": "16", "station_id": "19017", "name": "川俣", "address": "960-1406 福島県伊達郡川俣町大字鶴沢字東13-1", "tel": "024-566-5253", "hours": "9:00〜17:00 <休 12/31〜1/1>", "uri": "https://www.michi-no-eki.jp/stations/views/19017"}}, {"type": "Feature", "geometry": {"type": "Point", "coordinates": [139.727599, 37.08655]}, "properties": {"pref_id": "16", "station_id": "19018", "name": "たじま", "address": "967-0014 福島県南会津郡南会津町糸沢 字男鹿沼原3242-8", "tel": "0241-66-3333", "hours": "7:00〜19:00(12月〜3月は7:00〜18:00まで)", "uri": "https://www.michi-no-eki.jp/stations/views/19018"}}, {"type": "Feature", "geometry": {"type": "Point", "coordinates": [140.483688, 37.635666]}, "properties": {"pref_id": "16", "station_id": "19019", "name": "安達", "address": "9691511 上記参照", "tel": "0243613100", "hours": "(上り線)9:00〜18:00、(下り線)8:30〜18:00 〔店舗により異なる〕", "uri": "https://www.michi-no-eki.jp/stations/views/19019"}}, {"type": "Feature", "geometry": {"type": "Point", "coordinates": [139.878264, 37.701938]}, "properties": {"pref_id": "16", "station_id": "19020", "name": "喜多の郷", "address": "966-0901 福島県喜多方市松山町鳥見山字三町歩5598-1", "tel": "0241-21-1139", "hours": "売店9:30〜18:00(最終入館17:45) レストラン11:00〜18:00(Lo17:30)≪夏期・営業時間延長あり≫<休 年末年始>", "uri": "https://www.michi-no-eki.jp/stations/views/19020"}}, {"type": "Feature", "geometry": {"type": "Point", "coordinates": [140.043753, 37.665058]}, "properties": {"pref_id": "16", "station_id": "19021", "name": "裏磐梯", "address": "966-0401 福島県耶麻郡北塩原村大字桧原字南黄連沢山1157", "tel": "0241-33-2241", "hours": "8:30〜17:30≪冬期・営業時間短縮あり≫<休 11月〜4月の毎週水曜日>", "uri": "https://www.michi-no-eki.jp/stations/views/19021"}}, {"type": "Feature", "geometry": {"type": "Point", "coordinates": [140.997626, 37.250006]}, "properties": {"pref_id": "16", "station_id": "19022", "name": "ならは", "address": "979-0513 福島県双葉郡楢葉町大字山田岡字大堤入22-1", "tel": "0240-26-1126", "hours": "売店施設9:00〜18:00        温泉施設10:00〜21:00        フードコート11:00〜20:00", "uri": "https://www.michi-no-eki.jp/stations/views/19022"}}, {"type": "Feature", "geometry": {"type": "Point", "coordinates": [140.947952, 37.761109]}, "properties": {"pref_id": "16", "station_id": "19023", "name": "そうま", "address": "979-2522 福島県相馬市日下石字金谷74-1", "tel": "0244-37-3938", "hours": "9:30〜18:00", "uri": "https://www.michi-no-eki.jp/stations/views/19023"}}, {"type": "Feature", "geometry": {"type": "Point", "coordinates": [140.41452, 36.950619]}, "properties": {"pref_id": "16", "station_id": "19024", "name": "はなわ", "address": "963-5405 福島県東白川郡塙町大字塙字桜木町388-1", "tel": "0247-44-0123", "hours": "9:00〜18:00 <休 1/1、1/2>", "uri": "https://www.michi-no-eki.jp/stations/views/19024"}}, {"type": "Feature", "geometry": {"type": "Point", "coordinates": [139.722175, 37.527693]}, "properties": {"pref_id": "16", "station_id": "19025", "name": "会津柳津", "address": "969-7201 福島県河沼郡柳津町字下平乙181-1", "tel": "0241-42-2324", "hours": "9:00〜18:00 ≪冬期・営業時間短縮あり≫", "uri": "https://www.michi-no-eki.jp/stations/views/19025"}}, {"type": "Feature", "geometry": {"type": "Point", "coordinates": [140.577349, 37.569956]}, "properties": {"pref_id": "16", "station_id": "19026", "name": "ふくしま東和", "address": "964-0111 福島県二本松市太田字下田2-3", "tel": "0243-46-2113", "hours": "9:00〜17:00 <休 12/31・1/1・1/2>", "uri": "https://www.michi-no-eki.jp/stations/views/19026"}}, {"type": "Feature", "geometry": {"type": "Point", "coordinates": [139.642595, 37.585867]}, "properties": {"pref_id": "16", "station_id": "19027", "name": "にしあいづ", "address": "969-4406 福島県耶麻郡西会津町野沢字下條乙1969-26", "tel": "0241-48-1512", "hours": "9:00〜19:00 <休 1/1>                                     9:00〜18:00(12/1〜3/15)", "uri": "https://www.michi-no-eki.jp/stations/views/19027"}}, {"type": "Feature", "geometry": {"type": "Point", "coordinates": [139.670802, 37.477758]}, "properties": {"pref_id": "16", "station_id": "19028", "name": "尾瀬街道みしま宿", "address": "969-7515 福島県大沼郡三島町大字川井字天屋原610", "tel": "0241-48-5677", "hours": "8:00〜18:00 <休 1/1〜1/3>", "uri": "https://www.michi-no-eki.jp/stations/views/19028"}}, {"type": "Feature", "geometry": {"type": "Point", "coordinates": [140.418137, 37.222832]}, "properties": {"pref_id": "16", "station_id": "19029", "name": "たまかわ", "address": "963-7800 福島県石川郡玉川村大字岩法寺字宮ノ前140-2", "tel": "0247-57-3800", "hours": "8:30〜18:00", "uri": "https://www.michi-no-eki.jp/stations/views/19029"}}, {"type": "Feature", "geometry": {"type": "Point", "coordinates": [140.063392, 37.239976]}, "properties": {"pref_id": "16", "station_id": "19030", "name": "羽鳥湖高原", "address": "962-0622 福島県岩瀬郡天栄村大字田良尾字芝草1-3552", "tel": "0248-85-2547", "hours": "9:00〜18:00", "uri": "https://www.michi-no-eki.jp/stations/views/19030"}}, {"type": "Feature", "geometry": {"type": "Point", "coordinates": [140.983582, 37.635707]}, "properties": {"pref_id": "16", "station_id": "19031", "name": "南相馬", "address": "975-0033 福島県南相馬市原町区高見町2-30-1", "tel": "0244-26-5100", "hours": "9:00〜18:00〔施設により異なる〕", "uri": "https://www.michi-no-eki.jp/stations/views/19031"}}, {"type": "Feature", "geometry": {"type": "Point", "coordinates": [139.916343, 37.203539]}, "properties": {"pref_id": "16", "station_id": "19032", "name": "しもごう", "address": "969-5335 福島県南会津郡下郷町大字南倉沢 字木賊844-188", "tel": "0241-67-3802", "hours": "8:00〜18:00(4月〜11月)、8:00〜17:00(12月〜3月)<休 12/31〜1/1>", "uri": "https://www.michi-no-eki.jp/stations/views/19032"}}, {"type": "Feature", "geometry": {"type": "Point", "coordinates": [140.560032, 37.250545]}, "properties": {"pref_id": "16", "station_id": "19033", "name": "ひらた", "address": "963-8202 福島県石川郡平田村大字上蓬田字横森後160", "tel": "0247-55-3501", "hours": "9:30〜18:00 <休 1/1>", "uri": "https://www.michi-no-eki.jp/stations/views/19033"}}, {"type": "Feature", "geometry": {"type": "Point", "coordinates": [140.992995, 37.107429]}, "properties": {"pref_id": "16", "station_id": "19034", "name": "よつくら港", "address": "979-0201 福島県いわき市四倉町5-218-1", "tel": "0246-32-8075", "hours": "9:00〜18:00〔施設により異なる〕*『11月〜2月 閉店17:00』 <休 1/1、毎週火曜日(但し 祝日、GW・お盆期間、1/2・3は営業いたします。)>", "uri": "https://www.michi-no-eki.jp/stations/views/19034"}}, {"type": "Feature", "geometry": {"type": "Point", "coordinates": [139.986633, 37.562804]}, "properties": {"pref_id": "16", "station_id": "19035", "name": "ばんだい", "address": "969-3301 福島県耶麻郡磐梯町大字磐梯字十王堂38", "tel": "0242-74-1091", "hours": "9:00〜18:00(2021.12.1〜) 〔コーナーにより異なる〕", "uri": "https://www.michi-no-eki.jp/stations/views/19035"}}, {"type": "Feature", "geometry": {"type": "Point", "coordinates": [140.529774, 37.09313]}, "properties": {"pref_id": "16", "station_id": "19036", "name": "ふるどの", "address": "963-8306 福島県石川郡古殿町大字田口字平舘25", "tel": "0247-53-4070", "hours": "9:00〜18:00 <休 年末年始>", "uri": "https://www.michi-no-eki.jp/stations/views/19036"}}, {"type": "Feature", "geometry": {"type": "Point", "coordinates": [139.615486, 37.068822]}, "properties": {"pref_id": "16", "station_id": "19037", "name": "番屋", "address": "967-0324 福島県南会津郡南会津町番屋4", "tel": "0241-78-2785", "hours": "8:00〜17:00<休 毎週火曜日、木曜日(冬期のみ)、12/29〜1/1>", "uri": "https://www.michi-no-eki.jp/stations/views/19037"}}, {"type": "Feature", "geometry": {"type": "Point", "coordinates": [140.244786, 37.24366]}, "properties": {"pref_id": "16", "station_id": "19038", "name": "季の里天栄", "address": "962-0504 福島県岩瀬郡天栄村大字大里字天房41-2", "tel": "0248-81-1455", "hours": "9:00〜17:30<休 第1水曜日12/31〜1/3>", "uri": "https://www.michi-no-eki.jp/stations/views/19038"}}, {"type": "Feature", "geometry": {"type": "Point", "coordinates": [139.54266, 37.221982]}, "properties": {"pref_id": "16", "station_id": "19039", "name": "きらら289", "address": "967-0611 福島県南会津郡南会津町山口字橋尻1", "tel": "0241-71-1289", "hours": "10:00〜20:00(火曜日は10:00〜14:00)", "uri": "https://www.michi-no-eki.jp/stations/views/19039"}}, {"type": "Feature", "geometry": {"type": "Point", "coordinates": [139.530583, 37.471924]}, "properties": {"pref_id": "16", "station_id": "19040", "name": "奥会津かねやま", "address": "968-0006 福島県大沼郡金山町大字中川字上居平949-8", "tel": "0241-55-3334", "hours": "9:00〜18:30<休 12/30〜1/2>", "uri": "https://www.michi-no-eki.jp/stations/views/19040"}}, {"type": "Feature", "geometry": {"type": "Point", "coordinates": [140.590248, 37.53478]}, "properties": {"pref_id": "16", "station_id": "19041", "name": "さくらの郷", "address": "964-0301 福島県二本松市東新殿字平石田12-2", "tel": "0243-68-4770", "hours": "9:00〜17:00 <休 年始>", "uri": "https://www.michi-no-eki.jp/stations/views/19041"}}, {"type": "Feature", "geometry": {"type": "Point", "coordinates": [139.863136, 37.556999]}, "properties": {"pref_id": "16", "station_id": "19042", "name": "あいづ 湯川・会津坂下", "address": "969-3555  福島県河沼郡湯川村大字佐野目字五丁ノ目78-1", "tel": "0241-27-8853", "hours": "9:00〜18:00〔施設により異なる〕<休 1月1日 2月第3水曜日>※臨時休業あり", "uri": "https://www.michi-no-eki.jp/stations/views/19042"}}, {"type": "Feature", "geometry": {"type": "Point", "coordinates": [139.630139, 37.325463]},