{"type": "FeatureCollection", "features": [{"geometry": {"type": "Point", "coordinates": [141.8045499, 43.2466006]}, "type": "Feature", "properties": {"old_station_id": "hokkaido/mikasa", "hours": "9:00〜18:00(4〜9月) 9:00〜17:00(10〜3月)", "pref_id": "1", "name": "三笠", "address": "068-2165 北海道三笠市岡山1056-1", "uri": "https://www.michi-no-eki.jp/stations/view/1", "station_id": "1"}}, {"geometry": {"type": "Point", "coordinates": [142.1888941, 43.5255178]}, "type": "Feature", "properties": {"old_station_id": "hokkaido/suta%ef%bd%b0puraza-ashibetsu", "hours": "9:00〜19:00(5〜10月)9:00〜18:00(11〜4月)", "pref_id": "1", "name": "スタープラザ 芦別", "address": "075-0014 北海道芦別市北4条東1-1", "uri": "https://www.michi-no-eki.jp/stations/view/2", "station_id": "2"}}, {"geometry": {"type": "Point", "coordinates": [142.5727983, 43.1697013]}, "type": "Feature", "properties": {"old_station_id": "hokkaido/minamifurano", "hours": "9:00〜17:00(6〜9月は19:00まで)", "pref_id": "1", "name": "南ふらの", "address": "079-2403 北海道空知郡南富良野町字幾寅687", "uri": "https://www.michi-no-eki.jp/stations/view/3", "station_id": "3"}}, {"geometry": {"type": "Point", "coordinates": [144.1981267, 42.9927351]}, "type": "Feature", "properties": {"old_station_id": "hokkaido/shiranuka-koitoi", "hours": "9:00〜19:00(9〜4月は18:30まで)", "pref_id": "1", "name": "しらぬか恋問", "address": "088-0562 北海道白糠郡白糠町コイトイ40-3", "uri": "https://www.michi-no-eki.jp/stations/view/4", "station_id": "4"}}, {"geometry": {"type": "Point", "coordinates": [142.3200331, 44.5588576]}, "type": "Feature", "properties": {"old_station_id": "hokkaido/bifuka", "hours": "9:00〜18:00", "pref_id": "1", "name": "びふか", "address": "098-2362 北海道中川郡美深町字大手307-1", "uri": "https://www.michi-no-eki.jp/stations/view/5", "station_id": "5"}}, {"geometry": {"type": "Point", "coordinates": [140.1392891, 41.8943424]}, "type": "Feature", "properties": {"old_station_id": "hokkaido/esashi", "hours": "9:00〜17:30(4〜9月) 9:00〜17:00(10月) 10:00〜16:00(11〜3月)", "pref_id": "1", "name": "江差", "address": "043-0024 北海道檜山郡江差町字尾山町1", "uri": "https://www.michi-no-eki.jp/stations/view/6", "station_id": "6"}}, {"geometry": {"type": "Point", "coordinates": [141.0965891, 42.8551768]}, "type": "Feature", "properties": {"old_station_id": "hokkaido/boyo-nakayama", "hours": "8:30〜17:30", "pref_id": "1", "name": "望羊中山", "address": "044-0223 北海道虻田郡喜茂別町字川上345", "uri": "https://www.michi-no-eki.jp/stations/view/7", "station_id": "7"}}, {"geometry": {"type": "Point", "coordinates": [141.7936472, 44.7141204]}, "type": "Feature", "properties": {"old_station_id": "hokkaido/fujimi", "hours": "9:00〜17:00", "pref_id": "1", "name": "富士見", "address": "098-3534 北海道天塩郡遠別町字富士見46-1", "uri": "https://www.michi-no-eki.jp/stations/view/8", "station_id": "8"}}, {"geometry": {"type": "Point", "coordinates": [143.2991945, 42.5588618]}, "type": "Feature", "properties": {"old_station_id": "hokkaido/chuurui", "hours": "9:00〜18:00", "pref_id": "1", "name": "忠類", "address": "089-1701 北海道中川郡幕別町忠類白銀町384-12", "uri": "https://www.michi-no-eki.jp/stations/view/9", "station_id": "9"}}, {"geometry": {"type": "Point", "coordinates": [143.4806105, 43.2522652]}, "type": "Feature", "properties": {"old_station_id": "hokkaido/ashoroko", "hours": "9:00〜17:00", "pref_id": "1", "name": "足寄湖", "address": "089-3873 北海道足寄郡足寄町中矢673-4", "uri": "https://www.michi-no-eki.jp/stations/view/10", "station_id": "10"}}, {"geometry": {"type": "Point", "coordinates": [144.4477187, 43.4923914]}, "type": "Feature", "properties": {"old_station_id": "hokkaido/mashuuonsen", "hours": "8:00〜18:00(11〜4月は9:00〜17:00)", "pref_id": "1", "name": "摩周温泉", "address": "088-3203 北海道川上郡弟子屈町湯の島3-5-5", "uri": "https://www.michi-no-eki.jp/stations/view/11", "station_id": "11"}}, {"geometry": {"type": "Point", "coordinates": [142.257872, 44.729078]}, "type": "Feature", "properties": {"old_station_id": "hokkaido/otoineppu", "hours": "10:00〜18:00", "pref_id": "1", "name": "おといねっぷ", "address": "098-2501 北海道中川郡音威子府村字音威子府155", "uri": "https://www.michi-no-eki.jp/stations/view/12", "station_id": "12"}}, {"geometry": {"type": "Point", "coordinates": [143.5956986, 44.1851816]}, "type": "Feature", "properties": {"old_station_id": "hokkaido/kamiyuubetsuonsen-chu%ef%bd%b0rippunoyu", "hours": "10:00〜22:00", "pref_id": "1", "name": "かみゆうべつ温泉チューリップの湯", "address": "099-6329 北海道紋別郡湧別町中湧別中町3020-1", "uri": "https://www.michi-no-eki.jp/stations/view/13", "station_id": "13"}}, {"geometry": {"type": "Point", "coordinates": [140.5167801, 42.9834347]}, "type": "Feature", "properties": {"old_station_id": "hokkaido/iwanai", "hours": "9:00〜18:00(4〜10月) 9:00〜17:30(11〜3月)", "pref_id": "1", "name": "いわない", "address": "045-0003 北海道岩内郡岩内町字万代47-4", "uri": "https://www.michi-no-eki.jp/stations/view/14", "station_id": "14"}}, {"geometry": {"type": "Point", "coordinates": [143.3287235, 43.9959412]}, "type": "Feature", "properties": {"old_station_id": "hokkaido/maruseppu", "hours": "9:00〜18:00(4〜9月) 9:00〜17:00(10〜3月)", "pref_id": "1", "name": "まるせっぷ", "address": "099-0207 北海道紋別郡遠軽町丸瀬布元町42-2", "uri": "https://www.michi-no-eki.jp/stations/view/15", "station_id": "15"}}, {"geometry": {"type": "Point", "coordinates": [144.8440184, 43.0576697]}, "type": "Feature", "properties": {"old_station_id": "hokkaido/akkeshi-gurumepa%ef%bd%b0ku", "hours": "9:00〜18:00(4〜10月)  10:00〜18:00(11〜3月) ", "pref_id": "1", "name": "厚岸グルメパーク", "address": "088-1119 北海道厚岸郡厚岸町住の江町2-2", "uri": "https://www.michi-no-eki.jp/stations/view/16", "station_id": "16"}}, {"geometry": {"type": "Point", "coordinates": [141.875302, 43.7510483]}, "type": "Feature", "properties": {"old_station_id": "hokkaido/sanfurawa%ef%bd%b0hokuryuu", "hours": "8:00〜22:00", "pref_id": "1", "name": "サンフラワー北竜", "address": "078-2511 北海道雨竜郡北竜町字板谷163-2", "uri": "https://www.michi-no-eki.jp/stations/view/17", "station_id": "17"}}, {"geometry": {"type": "Point", "coordinates": [142.6342261, 42.2208744]}, "type": "Feature", "properties": {"old_station_id": "hokkaido/mitsuishi", "hours": "8:45〜17:30", "pref_id": "1", "name": "みついし", "address": "059-3233 北海道日高郡新ひだか町三石鳧舞161-2", "uri": "https://www.michi-no-eki.jp/stations/view/18", "station_id": "18"}}, {"geometry": {"type": "Point", "coordinates": [140.2161538, 41.9165731]}, "type": "Feature", "properties": {"old_station_id": "hokkaido/assabu", "hours": "8:30〜18:00(5〜10月) 9:00〜17:00(11〜4月)", "pref_id": "1", "name": "あっさぶ", "address": "043-1112 北海道檜山郡厚沢部町緑町72-1", "uri": "https://www.michi-no-eki.jp/stations/view/19", "station_id": "19"}}, {"geometry": {"type": "Point", "coordinates": [140.0134173, 42.6867269]}, "type": "Feature", "properties": {"old_station_id": "hokkaido/yottekeshimamaki", "hours": "9:00〜18:00(7〜8月) 9:00〜17:00(9〜6月)", "pref_id": "1", "name": "よってけ!島牧", "address": "048-0631 北海道島牧郡島牧村字千走11-1", "uri": "https://www.michi-no-eki.jp/stations/view/20", "station_id": "20"}}, {"geometry": {"type": "Point", "coordinates": [139.876681, 42.212366]}, "type": "Feature", "properties": {"old_station_id": "hokkaido/tekkuirando-taisei", "hours": "8:30〜17:00, 9:00〜16:00(11〜3月), 8:30〜19:00(7/19〜8/17)", "pref_id": "1", "name": "てっくいランド大成", "address": "043-0514 北海道久遠郡せたな町大成区平浜378", "uri": "https://www.michi-no-eki.jp/stations/view/21", "station_id": "21"}}, {"geometry": {"type": "Point", "coordinates": [143.3750043, 44.3283409]}, "type": "Feature", "properties": {"old_station_id": "hokkaido/oho%ef%bd%b0tsuku-mombetsu", "hours": "9:00〜17:00", "pref_id": "1", "name": "オホーツク紋別", "address": "094-0023 北海道紋別市元紋別11-6", "uri": "https://www.michi-no-eki.jp/stations/view/22", "station_id": "22"}}, {"geometry": {"type": "Point", "coordinates": [140.568716, 42.098901]}, "type": "Feature", "properties": {"old_station_id": "hokkaido/yuu-yuu-mori", "hours": "9:00〜17:30(3/21〜10/20) 9:00〜17:00(10/21〜3/20)", "pref_id": "1", "name": "YOU･遊･もり", "address": "049-2311 北海道茅部郡森町字上台町326-18", "uri": "https://www.michi-no-eki.jp/stations/view/23", "station_id": "23"}}, {"geometry": {"type": "Point", "coordinates": [143.5005308, 43.7546445]}, "type": "Feature", "properties": {"old_station_id": "hokkaido/onneyuonsen", "hours": "8:30〜17:00(4〜10月) 9:00〜16:30(11〜3月)", "pref_id": "1", "name": "おんねゆ温泉", "address": "091-0153 北海道北見市留辺蘂町松山1-4", "uri": "https://www.michi-no-eki.jp/stations/view/24", "station_id": "24"}}, {"geometry": {"type": "Point", "coordinates": [140.1062194, 42.0113971]}, "type": "Feature", "properties": {"old_station_id": "hokkaido/ru%ef%bd%b0to229-gennadai", "hours": "8:00〜18:00(6〜9月) 8:30〜17:00(10〜5月)", "pref_id": "1", "name": "ルート229元和台", "address": "043-0114 北海道爾志郡乙部町字元和169", "uri": "https://www.michi-no-eki.jp/stations/view/25", "station_id": "25"}}, {"geometry": {"type": "Point", "coordinates": [141.8888016, 43.4332722]}, "type": "Feature", "properties": {"old_station_id": "hokkaido/hausuyarubi-naie", "hours": "9:00〜18:00(4〜9月) 9:00〜17:00(10〜3月)", "pref_id": "1", "name": "ハウスヤルビ奈井江", "address": "079-0312 北海道空知郡奈井江町字奈井江28-1", "uri": "https://www.michi-no-eki.jp/stations/view/26", "station_id": "26"}}, {"geometry": {"type": "Point", "coordinates": [141.654956, 44.137022]}, "type": "Feature", "properties": {"old_station_id": "hokkaido/obiranishimbanya", "hours": "8:00〜17:00", "pref_id": "1", "name": "おびら鰊番屋", "address": "078-3454 北海道留萌郡小平町字鬼鹿広富", "uri": "https://www.michi-no-eki.jp/stations/view/27", "station_id": "27"}}, {"geometry": {"type": "Point", "coordinates": [142.631813, 44.8783757]}, "type": "Feature", "properties": {"old_station_id": "hokkaido/mari%ef%bd%b0nairandookashima", "hours": "9:00〜17:00", "pref_id": "1", "name": "マリーンアイランド岡島", "address": "098-5802 北海道枝幸郡枝幸町字岡島1978-13", "uri": "https://www.michi-no-eki.jp/stations/view/28", "station_id": "28"}}, {"geometry": {"type": "Point", "coordinates": [143.116955, 44.469498]}, "type": "Feature", "properties": {"old_station_id": "hokkaido/okoppe", "hours": "5月〜10月 9:00〜18:00、11月〜4月 9:00〜17:00", "pref_id": "1", "name": "おこっぺ", "address": "098-1614 北海道紋別郡興部町字興部(幸町)", "uri": "https://www.michi-no-eki.jp/stations/view/29", "station_id": "29"}}, {"geometry": {"type": "Point", "coordinates": [144.1469574, 43.1440197]}, "type": "Feature", "properties": {"old_station_id": "hokkaido/akan-tanchonosato", "hours": "5月〜9月 9:00〜18:00 10月〜4月 9:00〜17:00 観光案内所10:00〜16:00", "pref_id": "1", "name": "阿寒丹頂の里", "address": "085-0245 北海道釧路市阿寒町上阿寒23-36-1", "uri": "https://www.michi-no-eki.jp/stations/view/30", "station_id": "30"}}, {"geometry": {"type": "Point", "coordinates": [143.207419, 42.976584]}, "type": "Feature", "properties": {"old_station_id": "hokkaido/otofuke", "hours": "9:30〜18:30(5〜9月) 9:30〜17:30(10〜4月)", "pref_id": "1", "name": "おとふけ", "address": "080-0301 北海道河東郡音更町木野大通西19-5", "uri": "https://www.michi-no-eki.jp/stations/view/31", "station_id": "31"}}, {"geometry": {"type": "Point", "coordinates": [142.2134021, 44.8774622]}, "type": "Feature", "properties": {"old_station_id": "hokkaido/pinneshiri", "hours": "9:00〜17:00", "pref_id": "1", "name": "ピンネシリ", "address": "098-5113 北海道枝幸郡中頓別町字敏音知72-7", "uri": "https://www.michi-no-eki.jp/stations/view/32", "station_id": "32"}}, {"geometry": {"type": "Point", "coordinates": [141.1303673, 42.6980639]}, "type": "Feature", "properties": {"old_station_id": "hokkaido/fo%ef%bd%b0resuto276otaki", "hours": "9:00〜18:00", "pref_id": "1", "name": "フォーレスト276大滝", "address": "052-0303 北海道伊達市大滝区三階滝町637-5", "uri": "https://www.michi-no-eki.jp/stations/view/33", "station_id": "33"}}, {"geometry": {"type": "Point", "coordinates": [140.0949663, 41.8084965]}, "type": "Feature", "properties": {"old_station_id": "hokkaido/kaminokunimonju", "hours": "9:00〜19:30(4〜10月) 9:00〜18:30(11〜3月)", "pref_id": "1", "name": "上ノ国もんじゅ", "address": "049-0602 北海道檜山郡上ノ国町字原歌3", "uri": "https://www.michi-no-eki.jp/stations/view/34", "station_id": "34"}}, {"geometry": {"type": "Point", "coordinates": [140.3855694, 43.1653589]}, "type": "Feature", "properties": {"old_station_id": "hokkaido/osukoikamoenai", "hours": "9:00〜17:00", "pref_id": "1", "name": "オスコイ!かもえない", "address": "045-0302 北海道古宇郡神恵内村大字赤石村字大森292-1", "uri": "https://www.michi-no-eki.jp/stations/view/35", "station_id": "35"}}, {"geometry": {"type": "Point", "coordinates": [143.126839, 42.69214]}, "type": "Feature", "properties": {"old_station_id": "hokkaido/nakasatsunai", "hours": "9:00〜18:00(4〜10月) 9:00〜17:00(11〜3月)", "pref_id": "1", "name": "なかさつない", "address": "089-1330 北海道河西郡中札内村大通南7-14", "uri": "https://www.michi-no-eki.jp/stations/view/36", "station_id": "36"}}, {"geometry": {"type": "Point", "coordinates": [141.716616, 42.94998]}, "type": "Feature", "properties": {"old_station_id": "hokkaido/maoinokakoen", "hours": "センターハウス開館時間:9:00〜18:00(4月・11月)、9:00〜20:00(5月〜10月)、9:00〜17:00(12月〜3月) ", "pref_id": "1", "name": "マオイの丘公園", "address": "069-1464 北海道夕張郡長沼町東10線南7番地", "uri": "https://www.michi-no-eki.jp/stations/view/37", "station_id": "37"}}, {"geometry": {"type": "Point", "coordinates": [142.4420074, 42.8767898]}, "type": "Feature", "properties": {"old_station_id": "hokkaido/jukairo%ef%bd%b0dohidaka", "hours": "9:00〜18:00", "pref_id": "1", "name": "樹海ロード日高", "address": "055-2301 北海道沙流郡日高町本町東1-298-1", "uri": "https://www.michi-no-eki.jp/stations/view/38", "station_id": "38"}}, {"geometry": {"type": "Point", "coordinates": [140.8990485, 42.559133]}, "type": "Feature", "properties": {"old_station_id": "hokkaido/sobetsujohokanai", "hours": "9:00〜17:30 (11/16〜3/31は17:00迄)", "pref_id": "1", "name": "そうべつ情報館i(アイ)", "address": "052-0101 北海道有珠郡壮瞥町字滝之町384-1", "uri": "https://www.michi-no-eki.jp/stations/view/39", "station_id": "39"}}, {"geometry": {"type": "Point", "coordinates": [140.7023947, 42.7994921]}, "type": "Feature", "properties": {"old_station_id": "hokkaido/nisekobyu%ef%bd%b0puraza", "hours": "8:30〜18:00", "pref_id": "1", "name": "ニセコビュープラザ", "address": "048-1544 北海道虻田郡ニセコ町字元町77-10", "uri": "https://www.michi-no-eki.jp/stations/view/40", "station_id": "40"}}, {"geometry": {"type": "Point", "coordinates": [140.3358339, 41.6012589]}, "type": "Feature", "properties": {"old_station_id": "hokkaido/shiriuchi", "hours": "8:00〜18:00", "pref_id": "1", "name": "しりうち", "address": "049-1221 北海道上磯郡知内町字湯の里48-13", "uri": "https://www.michi-no-eki.jp/stations/view/41", "station_id": "41"}}, {"geometry": {"type": "Point", "coordinates": [140.255731, 41.479134]}, "type": "Feature", "properties": {"old_station_id": "hokkaido/yokozunanosato-fukushima", "hours": "9:00〜17:00", "pref_id": "1", "name": "横綱の里ふくしま", "address": "049-1312 北海道松前郡福島町字福島143-1", "uri": "https://www.michi-no-eki.jp/stations/view/42", "station_id": "42"}}, {"geometry": {"type": "Point", "coordinates": [142.3156908, 42.3598362]}, "type": "Feature", "properties": {"old_station_id": "hokkaido/sarabureddoro%ef%bd%b0do-niikappu", "hours": "10:00〜18:00", "pref_id": "1", "name": "サラブレッドロード新冠", "address": "059-2402 北海道新冠郡新冠町字中央町1-20", "uri": "https://www.michi-no-eki.jp/stations/view/43", "station_id": "43"}}, {"geometry": {"type": "Point", "coordinates": [143.2425854, 43.1538708]}, "type": "Feature", "properties": {"old_station_id": "hokkaido/pia21-shihoro", "hours": "9:00〜18:00(4月〜11月) 9:00〜17:00(12月〜3月)", "pref_id": "1", "name": "ピア21しほろ", "address": "080-1200 北海道河東郡士幌町字士幌西2線147", "uri": "https://www.michi-no-eki.jp/stations/view/44", "station_id": "44"}}, {"geometry": {"type": "Point", "coordinates": [143.090986, 44.19689]}, "type": "Feature", "properties": {"old_station_id": "hokkaido/kaorinosato-takinoe", "hours": "8:30 〜17:00", "pref_id": "1", "name": "香りの里たきのうえ", "address": "099-5602 北海道紋別郡滝上町旭町", "uri": "https://www.michi-no-eki.jp/stations/view/45", "station_id": "45"}}, {"geometry": {"type": "Point", "coordinates": [141.8940224, 43.6625089]}, "type": "Feature", "properties": {"old_station_id": "hokkaido/denennosato-uryuu", "hours": "9:00〜18:00(5〜10月) 10:00〜16:00(11〜4月)", "pref_id": "1", "name": "田園の里うりゅう", "address": "078-2600 北海道雨竜郡雨竜町字満寿28-3", "uri": "https://www.michi-no-eki.jp/stations/view/46", "station_id": "46"}}, {"geometry": {"type": "Point", "coordinates": [140.943745, 42.342012]}, "type": "Feature", "properties": {"old_station_id": "hokkaido/mitaramuroran", "hours": "9:30〜21:00 (11〜3月は17:00)", "pref_id": "1", "name": "みたら室蘭", "address": "051-0036 北海道室蘭市祝津町4-16-15", "uri": "https://www.michi-no-eki.jp/stations/view/47", "station_id": "47"}}, {"geometry": {"type": "Point", "coordinates": [142.4895, 43.844134]}, "type": "Feature", "properties": {"old_station_id": "hokkaido/toma", "hours": "9:00〜18:00", "pref_id": "1", "name": "とうま", "address": "078-1332 北海道上川郡当麻町字園別2区", "uri": "https://www.michi-no-eki.jp/stations/view/48", "station_id": "48"}}, {"geometry": {"type": "Point", "coordinates": [140.7887813, 43.1885383]}, "type": "Feature", "properties": {"old_station_id": "hokkaido/supe%ef%bd%b0su-appuru-yoichi", "hours": "9:00〜17:00", "pref_id": "1", "name": "スペース・アップルよいち", "address": "046-0003 北海道余市郡余市町黒川町6-4", "uri": "https://www.michi-no-eki.jp/stations/view/49", "station_id": "49"}}, {"geometry": {"type": "Point", "coordinates": [141.7065768, 44.3673322]}, "type": "Feature", "properties": {"old_station_id": "hokkaido/hotto-haboro", "hours": "7:00〜22:00", "pref_id": "1", "name": "ほっと♡はぼろ", "address": "078-4113 北海道苫前郡羽幌町北3条1-29", "uri": "https://www.michi-no-eki.jp/stations/view/50", "station_id": "50"}}, {"geometry": {"type": "Point", "coordinates": [143.8241425, 44.0999179]}, "type": "Feature", "properties": {"old_station_id": "hokkaido/saromako", "hours": "9:00〜18:00(11〜3月は9:00〜17:00)", "pref_id": "1", "name": "サロマ湖", "address": "093-0421 北海道常呂郡佐呂間町字浪速121-3", "uri": "https://www.michi-no-eki.jp/stations/view/51", "station_id": "51"}}, {"geometry": {"type": "Point", "coordinates": [143.7192064, 44.1308204]}, "type": "Feature", "properties": {"old_station_id": "hokkaido/airando-yuubetsu", "hours": "9:00〜17:30", "pref_id": "1", "name": "愛ランド湧別", "address": "093-0652 北海道紋別郡湧別町志撫子6-2", "uri": "https://www.michi-no-eki.jp/stations/view/52", "station_id": "52"}}, {"geometry": {"type": "Point", "coordinates": [142.9597327, 44.5830367]}, "type": "Feature", "properties": {"old_station_id": "hokkaido/omu", "hours": "8:00〜21:00 (5〜10月) 8:00〜20:00 (11〜4月)", "pref_id": "1", "name": "おうむ", "address": "098-1702 北海道紋別郡雄武町字雄武1885-14", "uri": "https://www.michi-no-eki.jp/stations/view/53", "station_id": "53"}}, {"geometry": {"type": "Point", "coordinates": [142.177348, 45.329219]}, "type": "Feature", "properties": {"old_station_id": "hokkaido/sarufutsukoen", "hours": "9:00〜17:00", "pref_id": "1", "name": "さるふつ公園", "address": "098-6222 北海道宗谷郡猿払村字浜鬼志別241-7", "uri": "https://www.michi-no-eki.jp/stations/view/54", "station_id": "54"}}, {"geometry": {"type": "Point", "coordinates": [142.139546, 44.114633]}, "type": "Feature", "properties": {"old_station_id": "hokkaido/moritomizuuminosato-horokanai", "hours": "10:00〜21:00     ", "pref_id": "1", "name": "森と湖の里ほろかない", "address": "074-0425 北海道雨竜郡幌加内町字政和第1", "uri": "https://www.michi-no-eki.jp/stations/view/55", "station_id": "55"}}, {"geometry": {"type": "Point", "coordinates": [142.004244, 43.503388]}, "type": "Feature", "properties": {"old_station_id": "hokkaido/utashinaichirorunoyu", "hours": "9:00〜17:00", "pref_id": "1", "name": "うたしないチロルの湯", "address": "073-0406 北海道歌志内市字中村72-1", "uri": "https://www.michi-no-eki.jp/stations/view/56", "station_id": "56"}}, {"geometry": {"type": "Point", "coordinates": [140.3800337, 42.6727094]}, "type": "Feature", "properties": {"old_station_id": "hokkaido/kuromatsunai", "hours": "9:00〜18:00(4〜10月) 9:00〜17:00(11〜3月)", "pref_id": "1", "name": "くろまつない", "address": "048-0134 北海道寿都郡黒松内町字白井川8-10", "uri": "https://www.michi-no-eki.jp/stations/view/57", "station_id": "57"}}, {"geometry": {"type": "Point", "coordinates": [141.941478, 43.6234396]}, "type": "Feature", "properties": {"old_station_id": "hokkaido/takikawa", "hours": "9:00〜18:00(4〜10月) 9:00〜17:00(11〜3月)", "pref_id": "1", "name": "たきかわ", "address": "079-0463 北海道滝川市江部乙町東11-13-3", "uri": "https://www.michi-no-eki.jp/stations/view/58", "station_id": "58"}}, {"geometry": {"type": "Point", "coordinates": [145.4383704, 43.2616741]}, "type": "Feature", "properties": {"old_station_id": "hokkaido/suwan44nemuro", "hours": "9:00〜17:00(4〜6,10月) 9:00〜18:00(7〜9月) 9:00〜16:00(11〜3月)", "pref_id": "1", "name": "スワン44ねむろ", "address": "086-0073 北海道根室市酪陽1", "uri": "https://www.michi-no-eki.jp/stations/view/59", "station_id": "59"}}, {"geometry": {"type": "Point", "coordinates": [141.8357178, 43.4516011]}, "type": "Feature", "properties": {"old_station_id": "hokkaido/tsurunuma", "hours": "9:00〜18:00(4〜9月) 10:00〜17:00(10〜3月)", "pref_id": "1", "name": "つるぬま", "address": "061-0600 北海道樺戸郡浦臼町字キナウスナイ186-214", "uri": "https://www.michi-no-eki.jp/stations/view/60", "station_id": "60"}}, {"geometry": {"type": "Point", "coordinates": [141.1016303, 41.7794873]}, "type": "Feature", "properties": {"old_station_id": "hokkaido/natowa-esan", "hours": "9:00〜18:00(4〜9月) 9:00〜17:00(10〜3月)", "pref_id": "1", "name": "なとわ・えさん", "address": "041-0525 北海道函館市日ノ浜町31-2", "uri": "https://www.michi-no-eki.jp/stations/view/61", "station_id": "61"}}, {"geometry": {"type": "Point", "coordinates": [140.6673361, 42.1253109]}, "type": "Feature", "properties": {"old_station_id": null, "hours": "9:00〜17:00", "pref_id": "1", "name": "つど〜る・プラザ・さわら", "address": "049-2222 北海道茅部郡森町砂原2-358-1", "uri": "https://www.michi-no-eki.jp/stations/view/62", "station_id": "62"}}, {"geometry": {"type": "Point", "coordinates": [145.1920893, 44.0174537]}, "type": "Feature", "properties": {"old_station_id": "hokkaido/shiretoko-rausu", "hours": "9:00〜17:00(5〜10月) 10:00〜16:00(11〜4月)", "pref_id": "1", "name": "知床・らうす", "address": "086-1833 北海道目梨郡羅臼町本町361-1", "uri": "https://www.michi-no-eki.jp/stations/view/63", "station_id": "63"}}, {"geometry": {"type": "Point", "coordinates": [143.2718483, 42.6333115]}, "type": "Feature", "properties": {"old_station_id": "hokkaido/sarabetsu", "hours": "9:00〜18:00", "pref_id": "1", "name": "さらべつ", "address": "089-1573 北海道河西郡更別村字弘和464-1", "uri": "https://www.michi-no-eki.jp/stations/view/64", "station_id": "64"}}, {"geometry": {"type": "Point", "coordinates": [140.8771001, 42.4717206]}, "type": "Feature", "properties": {"old_station_id": "hokkaido/daterekishinomori", "hours": "9:00〜18:00", "pref_id": "1", "name": "だて歴史の杜", "address": "052-0012 北海道伊達市松ヶ枝町34-1", "uri": "https://www.michi-no-eki.jp/stations/view/65", "station_id": "65"}}, {"geometry": {"type": "Point", "coordinates": [142.3484462, 43.7600001]}, "type": "Feature", "properties": {"old_station_id": "hokkaido/asahikawa", "hours": "9:00〜18:00 (夏期)", "pref_id": "1", "name": "あさひかわ", "address": "070-8004 北海道旭川市神楽4条6-1-12", "uri": "https://www.michi-no-eki.jp/stations/view/66", "station_id": "66"}}, {"geometry": {"type": "Point", "coordinates": [142.39758, 42.978859]}, "type": "Feature", "properties": {"old_station_id": "hokkaido/shizentaikan-shimukappu", "hours": "9:00〜18:00", "pref_id": "1", "name": "自然体感しむかっぷ", "address": "079-2201 北海道勇払郡占冠村字中央", "uri": "https://www.michi-no-eki.jp/stations/view/67", "station_id": "67"}}, {"geometry": {"type": "Point", "coordinates": [142.8680679, 44.3359883]}, "type": "Feature", "properties": {"old_station_id": "hokkaido/nishiokoppe-kamu", "hours": "9:00〜17:00", "pref_id": "1", "name": "にしおこっぺ花夢", "address": "098-1421 北海道紋別郡西興部村字上興部37", "uri": "https://www.michi-no-eki.jp/stations/view/68", "station_id": "68"}}, {"geometry": {"type": "Point", "coordinates": [143.742367, 43.467863]}, "type": "Feature", "properties": {"old_station_id": "hokkaido/o%ef%bd%b0rorataun93rikubetsu", "hours": "9:00〜17:00", "pref_id": "1", "name": "オーロラタウン93りくべつ", "address": "089-4315 北海道足寄郡陸別町大通", "uri": "https://www.michi-no-eki.jp/stations/view/69", "station_id": "69"}}, {"geometry": {"type": "Point", "coordinates": [144.453268, 43.9339211]}, "type": "Feature", "properties": {"old_station_id": "hokkaido/hanayaka-koshimizu", "hours": "8:30〜17:30", "pref_id": "1", "name": "はなやか(葉菜野花)小清水", "address": "099-3452 北海道斜里郡小清水町字浜小清水474-7", "uri": "https://www.michi-no-eki.jp/stations/view/70", "station_id": "70"}}, {"geometry": {"type": "Point", "coordinates": [142.070593, 43.6994831]}, "type": "Feature", "properties": {"old_station_id": "hokkaido/raisurando-fukagawa", "hours": "9:00〜19:00", "pref_id": "1", "name": "ライスランドふかがわ", "address": "074-1271 北海道深川市音江町字広里59-7", "uri": "https://www.michi-no-eki.jp/stations/view/71", "station_id": "71"}}, {"geometry": {"type": "Point", "coordinates": [142.0673479, 44.8016913]}, "type": "Feature", "properties": {"old_station_id": "hokkaido/nakagawa", "hours": "9:00〜17:00", "pref_id": "1", "name": "なかがわ", "address": "098-2805 北海道中川郡中川町字誉498-1", "uri": "https://www.michi-no-eki.jp/stations/view/72", "station_id": "72"}}, {"geometry": {"type": "Point", "coordinates": [140.8845626, 42.7399293]}, "type": "Feature", "properties": {"old_station_id": "hokkaido/niisammaru-rusutsu", "hours": "9:00〜18:00(4月下旬〜10月) 9:00〜17:00(11〜4月中旬)", "pref_id": "1", "name": "230ルスツ", "address": "048-1731 北海道虻田郡留寿都村字留寿都127", "uri": "https://www.michi-no-eki.jp/stations/view/73", "station_id": "73"}}, {"geometry": {"type": "Point", "coordinates": [141.7477551, 44.8845723]}, "type": "Feature", "properties": {"old_station_id": "hokkaido/teshio", "hours": "9:00〜19:00", "pref_id": "1", "name": "てしお", "address": "098-3305 北海道天塩郡天塩町新開通4-7227-2", "uri": "https://www.michi-no-eki.jp/stations/view/74", "station_id": "74"}}, {"geometry": {"type": "Point", "coordinates": [143.273259, 42.489824]}, "type": "Feature", "properties": {"old_station_id": "hokkaido/kosumo%ef%bd%b0ru-taiki", "hours": "9:30〜18:00", "pref_id": "1", "name": "コスモール大樹", "address": "089-2152 北海道広尾郡大樹町西本通98", "uri": "https://www.michi-no-eki.jp/stations/view/75", "station_id": "75"}}, {"geometry": {"type": "Point", "coordinates": [144.24901, 43.647837]}, "type": "Feature", "properties": {"old_station_id": "hokkaido/guruttopanoramabihorotoge", "hours": "9:00〜18:00", "pref_id": "1", "name": "ぐるっとパノラマ美幌峠", "address": "092-0022 北海道網走郡美幌町字古梅", "uri": "https://www.michi-no-eki.jp/stations/view/76", "station_id": "76"}}, {"geometry": {"type": "Point", "coordinates": [140.4789853, 42.7620988]}, "type": "Feature", "properties": {"old_station_id": "hokkaido/rankoshi-furusatonoka", "hours": "9:00〜17:00", "pref_id": "1", "name": "らんこし・ふるさとの丘", "address": "048-1251 北海道磯谷郡蘭越町字相生969", "uri": "https://www.michi-no-eki.jp/stations/view/77", "station_id": "77"}}, {"geometry": {"type": "Point", "coordinates": [140.722382, 42.577551]}, "type": "Feature", "properties": {"old_station_id": "hokkaido/toyora", "hours": "8:45〜17:30", "pref_id": "1", "name": "とようら", "address": "049-5412 北海道虻田郡豊浦町字旭町65-8", "uri": "https://www.michi-no-eki.jp/stations/view/78", "station_id": "78"}}, {"geometry": {"type": "Point", "coordinates": [144.1884881, 43.9173357]}, "type": "Feature", "properties": {"old_station_id": "hokkaido/meruhennoka-memambetsu", "hours": "8:45〜17:30", "pref_id": "1", "name": "メルヘンの丘めまんべつ", "address": "099-2356 北海道網走郡大空町女満別昭和96", "uri": "https://www.michi-no-eki.jp/stations/view/79", "station_id": "79"}}, {"geometry": {"type": "Point", "coordinates": [141.9254643, 42.5739733]}, "type": "Feature", "properties": {"old_station_id": "hokkaido/mukawashikinoyakata", "hours": "6:00〜22:00", "pref_id": "1", "name": "むかわ四季の館", "address": "054-0042 北海道勇払郡むかわ町美幸3-3-1", "uri": "https://www.michi-no-eki.jp/stations/view/80", "station_id": "80"}}, {"geometry": {"type": "Point", "coordinates": [143.980525, 43.545622]}, "type": "Feature", "properties": {"old_station_id": "hokkaido/aioi", "hours": "9:00〜18:00(5〜10月) 9:00〜17:00(11〜4月)", "pref_id": "1", "name": "あいおい", "address": "092-0361 北海道網走郡津別町字相生", "uri": "https://www.michi-no-eki.jp/stations/view/81", "station_id": "81"}}, {"geometry": {"type": "Point", "coordinates": [142.9902764, 43.0977132]}, "type": "Feature", "properties": {"old_station_id": "hokkaido/shikaoi", "hours": "9:00〜17:00(3〜6月、10〜11月) 10:00〜16:00(12〜2月) 9:00〜18:00(7〜9月)", "pref_id": "1", "name": "しかおい", "address": "081-0222 北海道河東郡鹿追町東町3-2", "uri": "https://www.michi-no-eki.jp/stations/view/82", "station_id": "82"}}, {"geometry": {"type": "Point", "coordinates": [143.076278, 43.870061]}, "type": "Feature", "properties": {"old_station_id": "hokkaido/shirataki", "hours": "9:00〜18:00", "pref_id": "1", "name": "しらたき", "address": "099-0126 北海道紋別郡遠軽町奥白滝", "uri": "https://www.michi-no-eki.jp/stations/view/83", "station_id": "83"}}, {"geometry": {"type": "Point", "coordinates": [143.546455, 43.244332]}, "type": "Feature", "properties": {"old_station_id": "hokkaido/ashoro-gingaho%ef%bd%b0ru21", "hours": "9:00〜17:00", "pref_id": "1", "name": "あしょろ銀河ホール21", "address": "089-3701 北海道足寄郡足寄町北1条1丁目", "uri": "https://www.michi-no-eki.jp/stations/view/84", "station_id": "84"}}, {"geometry": {"type": "Point", "coordinates": [141.65933, 42.833788]}, "type": "Feature", "properties": {"old_station_id": "hokkaido/sa%ef%bd%b0mompa%ef%bd%b0ku-chitose", "hours": "9:00〜18:00(一部店舗は20:30まで)", "pref_id": "1", "name": "サーモンパーク千歳", "address": "066-0028 北海道千歳市花園2-4-2", "uri": "https://www.michi-no-eki.jp/stations/view/85", "station_id": "85"}}, {"geometry": {"type": "Point", "coordinates": [142.5088143, 43.6973051]}, "type": "Feature", "properties": {"old_station_id": "hokkaido/higashikawa-michikusakan", "hours": "9:00〜19:00", "pref_id": "1", "name": "ひがしかわ「道草館」", "address": "071-1423 北海道上川郡東川町東町1丁目1番15号", "uri": "https://www.michi-no-eki.jp/stations/view/86", "station_id": "86"}}, {"geometry": {"type": "Point", "coordinates": [141.5856753, 42.8972354]}, "type": "Feature", "properties": {"old_station_id": "hokkaido/hanaro%ef%bd%b0do-eniwa", "hours": "9:00〜19:00(施設により異なる)<休:12/31〜1/2>", "pref_id": "1", "name": "花ロードえにわ", "address": "061-1375 北海道恵庭市南島松817-18", "uri": "https://www.michi-no-eki.jp/stations/view/87", "station_id": "87"}}, {"geometry": {"type": "Point", "coordinates": [140.370027, 42.8801825]}, "type": "Feature", "properties": {"old_station_id": "hokkaido/sherupurazaminato", "hours": "9:00〜17:00", "pref_id": "1", "name": "シェルプラザ・港", "address": "048-1341 北海道磯谷郡蘭越町港町1402-2", "uri": "https://www.michi-no-eki.jp/stations/view/88", "station_id": "88"}}, {"geometry": {"type": "Point", "coordinates": [140.8077046, 42.7623215]}, "type": "Feature", "properties": {"old_station_id": "hokkaido/makkari-furawa%ef%bd%b0senta", "hours": "9:00〜18:00(4月下旬〜10/31) 9:30〜16:30(11/1〜4月下旬)", "pref_id": "1", "name": "真狩フラワーセンター", "address": "048-1611 北海道虻田郡真狩村字光8-3", "uri": "https://www.michi-no-eki.jp/stations/view/89", "station_id": "89"}}, {"geometry": {"type": "Point", "coordinates": [141.9659629, 43.7648305]}, "type": "Feature", "properties": {"old_station_id": "hokkaido/kanenonarumachichippubetsu", "hours": "9:00〜17:00(4〜10月) 9:00〜16:00(11〜3月)", "pref_id": "1", "name": "鐘のなるまち・ちっぷべつ", "address": "078-2100 北海道雨竜郡秩父別町2085", "uri": "https://www.michi-no-eki.jp/stations/view/90", "station_id": "90"}}, {"geometry": {"type": "Point", "coordinates": [140.7787362, 42.5289975]}, "type": "Feature", "properties": {"old_station_id": "hokkaido/aputa", "hours": "9::00〜18:00(冬期17:00)", "pref_id": "1", "name": "あぷた", "address": "049-5603 北海道虻田郡洞爺湖町入江84-2", "uri": "https://www.michi-no-eki.jp/stations/view/91", "station_id": "91"}}, {"geometry": {"type": "Point", "coordinates": [143.0250228, 43.1697466]}, "type": "Feature", "properties": {"old_station_id": "hokkaido/urimaku", "hours": "9:00〜17:00", "pref_id": "1", "name": "うりまく", "address": "081-0341 北海道河東郡鹿追町瓜幕西3-1外", "uri": "https://www.michi-no-eki.jp/stations/view/92", "station_id": "92"}}, {"geometry": {"type": "Point", "coordinates": [142.3909798, 44.0938311]}, "type": "Feature", "properties": {"old_station_id": "hokkaido/ehonnosatokembuchi", "hours": "9:00〜18:00(5〜10月) 9:00〜17:00(11〜4月)", "pref_id": "1", "name": "絵本の里けんぶち", "address": "098-0341 北海道上川郡剣淵町東町2420", "uri": "https://www.michi-no-eki.jp/stations/view/93", "station_id": "93"}}, {"geometry": {"type": "Point", "coordinates": [141.6564717, 44.3133031]}, "type": "Feature", "properties": {"old_station_id": "hokkaido/fuwattotomamae", "hours": "7:00〜21:00", "pref_id": "1", "name": "風Wとままえ", "address": "078-3701 北海道苫前郡苫前町字苫前119-1", "uri": "https://www.michi-no-eki.jp/stations/view/94", "station_id": "94"}}, {"geometry": {"type": "Point", "coordinates": [143.367911, 43.138881]}, "type": "Feature", "properties": {"old_station_id": "hokkaido/shihoronsen", "hours": "10:00〜21:00", "pref_id": "1", "name": "しほろ温泉", "address": "080-1285 北海道河東郡士幌町字下居辺西2-134", "uri": "https://www.michi-no-eki.jp/stations/view/95", "station_id": "95"}}, {"geometry": {"type": "Point", "coordinates": [140.8709024, 42.8589072]}, "type": "Feature", "properties": {"old_station_id": "hokkaido/meisuinosato-kyogoku", "hours": "8:00〜18:00(4〜10月) 8:00〜17:00(11〜3月)", "pref_id": "1", "name": "名水の郷きょうごく", "address": "044-0131 北海道虻田郡京極町字川西45-1", "uri": "https://www.michi-no-eki.jp/stations/view/96", "station_id": "96"}}, {"geometry": {"type": "Point", "coordinates": [142.4637855, 43.5921253]}, "type": "Feature", "properties": {"old_station_id": "hokkaido/biei-okanokura", "hours": "9:00〜17:00", "pref_id": "1", "name": "びえい「丘のくら」", "address": "071-0208 北海道上川郡美瑛町本町1-9-21", "uri": "https://www.michi-no-eki.jp/stations/view/97", "station_id": "97"}}, {"geometry": {"type": "Point", "coordinates": [141.7768178, 44.5635037]}, "type": "Feature", "properties": {"old_station_id": "hokkaido/romankaido-shosambetsu", "hours": "10:00〜21:00", "pref_id": "1", "name": "☆ロマン街道しょさんべつ", "address": "078-4431 北海道苫前郡初山別村字豊岬153-1", "uri": "https://www.michi-no-eki.jp/stations/view/98", "station_id": "98"}}, {"geometry": {"type": "Point", "coordinates": [144.9906685, 44.0690729]}, "type": "Feature", "properties": {"old_station_id": "hokkaido/utoro-shirietoku", "hours": "8:30〜18:30(5〜10月) 9:00〜17:00(11〜4月)", "pref_id": "1", "name": "うとろ・シリエトク", "address": "099-4354 北海道斜里郡斜里町ウトロ西186-8", "uri": "https://www.michi-no-eki.jp/stations/view/99", "station_id": "99"}}, {"geometry": {"type": "Point", "coordinates": [144.6642138, 43.9117709]}, "type": "Feature", "properties": {"old_station_id": "hokkaido/shari", "hours": "9:00〜19:00", "pref_id": "1", "name": "しゃり", "address": "099-4113 北海道斜里郡斜里町本町37", "uri": "https://www.michi-no-eki.jp/stations/view/100", "station_id": "100"}}, {"geometry": {"type": "Point", "coordinates": [144.5339946, 43.7904595]}, "type": "Feature", "properties": {"old_station_id": "hokkaido/papasurando-sattsuru", "hours": "9:00〜21:00", "pref_id": "1", "name": "パパスランドさっつる", "address": "099-4522 北海道斜里郡清里町字神威1071", "uri": "https://www.michi-no-eki.jp/stations/view/101", "station_id": "101"}}, {"geometry": {"type": "Point", "coordinates": [142.4137718, 44.2874188]}, "type": "Feature", "properties": {"old_station_id": "hokkaido/mochigomenosato-nayoro", "hours": "9:00〜17:00 ", "pref_id": "1", "name": "もち米の里☆なよろ", "address": "098-0507 北海道名寄市風連町西町334-1", "uri": "https://www.michi-no-eki.jp/stations/view/102", "station_id": "102"}}, {"geometry": {"type": "Point", "coordinates": [140.2318241, 42.7955338]}, "type": "Feature", "properties": {"old_station_id": null, "hours": "9:00〜18:00", "pref_id": "1", "name": "みなとま〜れ寿都", "address": "048-0404 北海道寿都郡寿都町字大磯町29-1", "uri": "https://www.michi-no-eki.jp/stations/view/103", "station_id": "103"}}, {"geometry": {"type": "Point", "coordinates": [140.8218199, 42.6645114]}, "type": "Feature", "properties": {"old_station_id": "hokkaido/toyako", "hours": "9:00〜18:00(冬期17:00)", "pref_id": "1", "name": "とうや湖", "address": "049-5831 北海道虻田郡洞爺湖町香川9-4", "uri": "https://www.michi-no-eki.jp/stations/view/104", "station_id": "104"}}, {"geometry": {"type": "Point", "coordinates": [144.273893, 44.022034]}, "type": "Feature", "properties": {"old_station_id": "hokkaido/ryuuhyokaidoabashiri", "hours": "9:00〜18:00", "pref_id": "1", "name": "流氷街道網走", "address": "093-0003 北海道網走市南3条東4丁目", "uri": "https://www.michi-no-eki.jp/stations/view/105", "station_id": "105"}}, {"geometry": {"type": "Point", "coordinates": [140.1072323, 41.4265145]}, "type": "Feature", "properties": {"old_station_id": "hokkaido/kitamaebune-matsumae", "hours": "9:00〜18:00(4〜9月) 9:00〜17:00(10〜3月)", "pref_id": "1", "name": "北前船 松前", "address": "049-1506 北海道松前郡松前町字唐津379", "uri": "https://www.michi-no-eki.jp/stations/view/106", "station_id": "106"}}, {"geometry": {"type": "Point", "coordinates": [143.6132503, 43.1256342]}, "type": "Feature", "properties": {"old_station_id": "hokkaido/sutera-hombetsu", "hours": "9:00〜18:00", "pref_id": "1", "name": "ステラ★ほんべつ", "address": "089-3334 北海道中川郡本別町北3-1-1", "uri": "https://www.michi-no-eki.jp/stations/view/107", "station_id": "107"}}, {"geometry": {"type": "Point", "coordinates": [141.6946488, 42.6999513]}, "type": "Feature", "properties": {"old_station_id": "hokkaido/utonaiko", "hours": "9:00〜18:00(11月〜2月は9:00〜17:00)", "pref_id": "1", "name": "ウトナイ湖", "address": "059-1365 北海道苫小牧市字植苗156-30", "uri": "https://www.michi-no-eki.jp/stations/view/108", "station_id": "108"}}, {"geometry": {"type": "Point", "coordinates": [143.6636566, 42.81399805]}, "type": "Feature", "properties": {"old_station_id": "hokkaido/urahoro", "hours": "9:00〜18:30(4/1〜11月) 9:00〜17:00(12/1〜3月)", "pref_id": "1", "name": "うらほろ", "address": "089-5621 北海道十勝郡浦幌町字北町16-3", "uri": "https://www.michi-no-eki.jp/stations/view/109", "station_id": "109"}}, {"geometry": {"type": "Point", "coordinates": [141.6427006, 43.2141162]}, "type": "Feature", "properties": {"old_station_id": "hokkaido/shinshinotsu", "hours": "10:00〜22:00<休:5月・12月の第3月曜日〜火曜日>", "pref_id": "1", "name": "しんしのつ", "address": "068-1100  北海道石狩郡新篠津村第45線北2", "uri": "https://www.michi-no-eki.jp/stations/view/110", "station_id": "110"}}, {"geometry": {"type": "Point", "coordinates": [142.038078, 42.93699]}, "type": "Feature", "properties": {"old_station_id": "hokkaido/yuubari-mero%ef%bd%b0do", "hours": "10:00〜18:30", "pref_id": "1", "name": "夕張メロード", "address": "068-0755 北海道夕張市紅葉山529", "uri": "https://www.michi-no-eki.jp/stations/view/111", "station_id": "111"}}, {"geometry": {"type": "Point", "coordinates": [145.2368756, 43.533413]}, "type": "Feature", "properties": {"old_station_id": "hokkaido/odaito", "hours": "9:00〜17:00(5〜10月) 9:00〜16:00(11〜4月)", "pref_id": "1", "name": "おだいとう", "address": "086-1641 北海道野付郡別海町尾岱沼5-27", "uri": "https://www.michi-no-eki.jp/stations/view/112", "station_id": "112"}}, {"geometry": {"type": "Point", "coordinates": [140.9447498, 41.9279214]}, "type": "Feature", "properties": {"old_station_id": "hokkaido/jomonroman-minamikayabe", "hours": "9:00〜17:00(4〜10月) 9:00〜16:30(11〜3月)", "pref_id": "1", "name": "縄文ロマン 南かやべ", "address": "041-1613 北海道函館市臼尻町551-1", "uri": "https://www.michi-no-eki.jp/stations/view/113", "station_id": "113"}}, {"geometry": {"type": "Point", "coordinates": [141.677348, 45.41725]}, "type": "Feature", "properties": {"old_station_id": "hokkaido/wakkanai", "hours": "10:00〜18:00", "pref_id": "1", "name": "わっかない", "address": "097-0023 北海道稚内市開運2丁目", "uri": "https://www.michi-no-eki.jp/stations/view/114", "station_id": "114"}}, {"geometry": {"type": "Point", "coordinates": [140.844843, 43.05086768]}, "type": "Feature", "properties": {"old_station_id": "hokkaido/akaigawa", "hours": "8:30〜19:00(5〜9月)、9:00〜17:00(10〜4月)", "pref_id": "1", "name": "あかいがわ", "address": "046-0541 北海道余市郡赤井川村字都190-16", "uri": "https://www.michi-no-eki.jp/stations/view/7978", "station_id": "7978"}}, {"geometry": {"type": "Point", "coordinates": [140.4353634, 41.6780521]}, "type": "Feature", "properties": {"old_station_id": "hokkaido/misogi-no-sato-kikonai", "hours": "9:00〜18:00 ", "pref_id": "1", "name": "みそぎの郷 きこない", "address": "049-0400 北海道上磯郡木古内町字本町338-14", "uri": "https://www.michi-no-eki.jp/stations/view/9721", "station_id": "9721"}}, {"geometry": {"type": "Point", "coordinates": [140.8305528, 42.0285219]}, "type": "Feature", "properties": {"old_station_id": "hokkaido/shikabe-kanketsusen-koen", "hours": "8:30〜18:00(4〜9月)、9:00〜17:00(10〜3月) 〔施設により異なる〕", "pref_id": "1", "name": "しかべ間歇泉公園", "address": "041-1400 北海道茅部郡鹿部町字鹿部18-1", "uri": "https://www.michi-no-eki.jp/stations/view/9724", "station_id": "9724"}}, {"geometry": {"type": "Point", "coordinates": [144.294951, 43.845319]}, "type": "Feature", "properties": {"old_station_id": null, "hours": "9:00〜18:00", "pref_id": "1", "name": "ノンキーランドひがしもこと", "address": "099-3244 北海道網走郡大空町東藻琴100", "uri": "https://www.michi-no-eki.jp/stations/view/14155", "station_id": "14155"}}, {"geometry": {"type": "Point", "coordinates": [141.448498, 43.177254]}, "type": "Feature", "properties": {"old_station_id": null, "hours": "10:00〜18:00", "pref_id": "1", "name": "北欧の風 道の駅とうべつ", "address": "061-3773 北海道石狩郡当別町当別太774-11", "uri": "https://www.michi-no-eki.jp/stations/view/14156", "station_id": "14156"}}, {"geometry": {"type": "Point", "coordinates": [141.43118, 43.403873]}, "type": "Feature", "properties": {"old_station_id": null, "hours": "", "pref_id": "1", "name": "石狩「あいろーど厚田」", "address": "061-3601 北海道石狩市厚田区厚田98-2", "uri": "https://www.michi-no-eki.jp/stations/view/14165", "station_id": "14165"}}, {"geometry": {"type": "Point", "coordinates": [141.1552503, 40.7168253]}, "type": "Feature", "properties": {"old_station_id": "aomori/shichinohe", "hours": "9:00〜18:00 <休 3/31>", "pref_id": "2", "name": "しちのへ", "address": "039-2501 青森県上北郡七戸町字荒熊内67-94", "uri": "https://www.michi-no-eki.jp/stations/view/115", "station_id": "115"}}, {"geometry": {"type": "Point", "coordinates": [141.6084329, 40.4584959]}, "type": "Feature", "properties": {"old_station_id": "aomori/hashikami", "hours": "9:00〜18:00 <休12/31〜1/1>", "pref_id": "2", "name": "はしかみ", "address": "039-1201 青森県三戸郡階上町大字道仏字耳ヶ吠3-3", "uri": "https://www.michi-no-eki.jp/stations/view/116", "station_id": "116"}}, {"geometry": {"type": "Point", "coordinates": [140.687643, 40.581966]}, "type": "Feature", "properties": {"old_station_id": "aomori/nijinoko", "hours": "9:00〜17:00(営業時間短縮あり)", "pref_id": "2", "name": "虹の湖", "address": "036-0402 青森県黒石市大字沖浦字山神1-5", "uri": "https://www.michi-no-eki.jp/stations/view/117", "station_id": "117"}}, {"geometry": {"type": "Point", "coordinates": [140.80477, 41.167961]}, "type": "Feature", "properties": {"old_station_id": "aomori/wakinosawa", "hours": "9:00〜17:00", "pref_id": "2", "name": "わきのさわ", "address": "039-5323 青森県むつ市脇野沢七引205-5", "uri": "https://www.michi-no-eki.jp/stations/view/118", "station_id": "118"}}, {"geometry": {"type": "Point", "coordinates": [140.8882189, 41.2703981]}, "type": "Feature", "properties": {"old_station_id": "aomori/kawauchiko", "hours": "9:00〜17:00<休 木曜日>≪冬期閉鎖あり≫", "pref_id": "2", "name": "かわうち湖", "address": "039-4701 青森県むつ市川内町福浦山314", "uri": "https://www.michi-no-eki.jp/stations/view/119", "station_id": "119"}}, {"geometry": {"type": "Point", "coordinates": [141.0744455, 40.4317584]}, "type": "Feature", "properties": {"old_station_id": "aomori/shingo", "hours": "9:00〜17:00 <休 水曜日> ≪冬期閉鎖あり≫", "pref_id": "2", "name": "しんごう", "address": "039-1801 青森県三戸郡新郷村大字戸来字雨池11-2", "uri": "https://www.michi-no-eki.jp/stations/view/120", "station_id": "120"}}, {"geometry": {"type": "Point", "coordinates": [140.5487947, 40.5547521]}, "type": "Feature", "properties": {"old_station_id": "aomori/hirosaki", "hours": "9:00〜18:30(4月〜10月)、9:00〜18:00(11月〜3月)", "pref_id": "2", "name": "ひろさき", "address": "036-8124 青森県弘前市大字石川字泉田62-1", "uri": "https://www.michi-no-eki.jp/stations/view/121", "station_id": "121"}}, {"geometry": {"type": "Point", "coordinates": [141.117434, 40.586204]}, "type": "Feature", "properties": {"old_station_id": "aomori/oirase", "hours": "9:00〜18:00 <休 12/31〜1/1>", "pref_id": "2", "name": "奥入瀬", "address": "034-0301 青森県十和田市大字奥瀬字堰道39-1", "uri": "https://www.michi-no-eki.jp/stations/view/122", "station_id": "122"}}, {"geometry": {"type": "Point", "coordinates": [141.2554758, 40.387808]}, "type": "Feature", "properties": {"old_station_id": "aomori/sannohe", "hours": "9:00〜18:00〔施設により異なる〕", "pref_id": "2", "name": "さんのへ", "address": "039-0141 青森県三戸郡三戸町大字川守田字西張渡39-1", "uri": "https://www.michi-no-eki.jp/stations/view/123", "station_id": "123"}}, {"geometry": {"type": "Point", "coordinates": [140.579519, 40.7179284]}, "type": "Feature", "properties": {"old_station_id": "aomori/namioka", "hours": "9:00〜19:00(3/16〜11/15)、9:00〜18:00(11/16〜3/15)〔施設により異なる〕", "pref_id": "2", "name": "なみおか", "address": "038-1331 青森県青森市浪岡大字女鹿沢字野尻2-3", "uri": "https://www.michi-no-eki.jp/stations/view/124", "station_id": "124"}}, {"geometry": {"type": "Point", "coordinates": [140.385462, 41.045391]}, "type": "Feature", "properties": {"old_station_id": "aomori/juusanko-kogen", "hours": "9:00〜18:00(冬期・営業時間短縮あり)<休 12/31〜1/2>", "pref_id": "2", "name": "十三湖高原", "address": "037-0401 青森県五所川原市相内実取287-1058", "uri": "https://www.michi-no-eki.jp/stations/view/125", "station_id": "125"}}, {"geometry": {"type": "Point", "coordinates": [140.514335, 41.145511]}, "type": "Feature", "properties": {"old_station_id": "aomori/imabetsu", "hours": "9:00〜19:00 ≪冬期・営業時間短縮あり≫", "pref_id": "2", "name": "いまべつ", "address": "030-1505 青森県東津軽郡今別町大字大川平字清川87-16", "uri": "https://www.michi-no-eki.jp/stations/view/126", "station_id": "126"}}, {"geometry": {"type": "Point", "coordinates": [141.4304303, 40.4067846]}, "type": "Feature", "properties": {"old_station_id": "miyazaki/nango-2", "hours": "8:00〜19:00(4〜10月)、8:30〜18:00(11〜3月、レストランは11:00〜19:00)", "pref_id": "2", "name": "なんごう", "address": "031-0114 青森県八戸市南郷区大字中野字舘野4-4", "uri": "https://www.michi-no-eki.jp/stations/view/127", "station_id": "127"}}, {"geometry": {"type": "Point", "coordinates": [140.322251, 40.784406]}, "type": "Feature", "properties": {"old_station_id": "aomori/morita", "hours": "9:00〜18:00 ≪冬期・営業時間短縮あり≫", "pref_id": "2", "name": "もりた", "address": "038-2817 青森県つがる市森田町床舞稚桜4-1", "uri": "https://www.michi-no-eki.jp/stations/view/128", "station_id": "128"}}, {"geometry": {"type": "Point", "coordinates": [140.86137, 40.891692]}, "type": "Feature", "properties": {"old_station_id": "aomori/asamushionsen", "hours": "7:00〜20:30〔施設により異なる〕", "pref_id": "2", "name": "浅虫温泉", "address": "039-3501 青森県青森市大字浅虫字螢谷341-19", "uri": "https://www.michi-no-eki.jp/stations/view/129", "station_id": "129"}}, {"geometry": {"type": "Point", "coordinates": [140.6231652, 40.4815576]}, "type": "Feature", "properties": {"old_station_id": "aomori/ikarigaseki", "hours": "9:00〜19:00 ≪冬期・営業時間短縮あり≫ <休 年末年始>", "pref_id": "2", "name": "いかりがせき", "address": "038-0101 青森県平川市碇ヶ関碇石13-1", "uri": "https://www.michi-no-eki.jp/stations/view/130", "station_id": "130"}}, {"geometry": {"type": "Point", "coordinates": [140.577686, 40.6336189]}, "type": "Feature", "properties": {"old_station_id": "aomori/inakadate", "hours": "8:30〜18:00 ≪冬期・営業時間短縮あり≫ <休 12/31午後〜1/1>", "pref_id": "2", "name": "いなかだて", "address": "038-1111 青森県南津軽郡田舎館村大字高樋字八幡10", "uri": "https://www.michi-no-eki.jp/stations/view/131", "station_id": "131"}}, {"geometry": {"type": "Point", "coordinates": [141.256588, 41.083731]}, "type": "Feature", "properties": {"old_station_id": "aomori/yokohama", "hours": "8:00〜18:00 ≪冬期・営業時間変更あり≫ <休 12/31〜1/1、1〜3月の火曜日>", "pref_id": "2", "name": "よこはま", "address": "039-4134 青森県上北郡横浜町字林ノ脇79-12", "uri": "https://www.michi-no-eki.jp/stations/view/132", "station_id": "132"}}, {"geometry": {"type": "Point", "coordinates": [140.3467912, 41.2538342]}, "type": "Feature", "properties": {"old_station_id": "aomori/mimmaya", "hours": "8:40〜17:00 <冬期閉鎖あり>", "pref_id": "2", "name": "みんまや", "address": "030-1700 青森県東津軽郡外ヶ浜町字三厩龍浜99", "uri": "https://www.michi-no-eki.jp/stations/view/133", "station_id": "133"}}, {"geometry": {"type": "Point", "coordinates": [140.3205958, 41.1449049]}, "type": "Feature", "properties": {"old_station_id": "aomori/kodomari", "hours": "9:00〜17:00", "pref_id": "2", "name": "こどまり", "address": "037-0300 青森県北津軽郡中泊町大字小泊字折腰内45", "uri": "https://www.michi-no-eki.jp/stations/view/134", "station_id": "134"}}, {"geometry": {"type": "Point", "coordinates": [141.3638954, 40.7854137]}, "type": "Feature", "properties": {"old_station_id": "aomori/misawa", "hours": "9:00〜18:30 ≪冬期・営業時間短縮あり≫ <休 12/31〜1/1>", "pref_id": "2", "name": "みさわ", "address": "033-0164 青森県三沢市谷地頭4-598-652", "uri": "https://www.michi-no-eki.jp/stations/view/135", "station_id": "135"}}, {"geometry": {"type": "Point", "coordinates": [141.2646116, 40.574645]}, "type": "Feature", "properties": {"old_station_id": "aomori/towada", "hours": "7:00〜20:00(4月〜10月)、8:00〜19:00(11月〜3月)", "pref_id": "2", "name": "とわだ", "address": "034-0051 青森県十和田市大字伝法寺字平窪37-2", "uri": "https://www.michi-no-eki.jp/stations/view/136", "station_id": "136"}}, {"geometry": {"type": "Point", "coordinates": [140.4427046, 40.7371457]}, "type": "Feature", "properties": {"old_station_id": "aomori/tsuruta", "hours": "9:00〜18:00 <休 1/1>", "pref_id": "2", "name": "つるた", "address": "038-3524 青森県北津軽郡鶴田町大字境字里見176-1", "uri": "https://www.michi-no-eki.jp/stations/view/137", "station_id": "137"}}, {"geometry": {"type": "Point", "coordinates": [140.0004692, 40.7442227]}, "type": "Feature", "properties": {"old_station_id": "aomori/fukaura", "hours": "9:00〜18:00(1〜3月17:00)", "pref_id": "2", "name": "ふかうら", "address": "038-2411 青森県西津軽郡深浦町大字風合瀬字上砂子川144-1", "uri": "https://www.michi-no-eki.jp/stations/view/138", "station_id": "138"}}, {"geometry": {"type": "Point", "coordinates": [141.274961, 40.728039]}, "type": "Feature", "properties": {"old_station_id": "aomori/ogawarako", "hours": "8:30〜18:00(夏期)、9:00〜17:30(冬期)<休 年末年始>", "pref_id": "2", "name": "おがわら湖", "address": "039-2401 青森県上北郡東北町大字上野字南谷地122", "uri": "https://www.michi-no-eki.jp/stations/view/139", "station_id": "139"}}, {"geometry": {"type": "Point", "coordinates": [140.6411974, 41.1748371]}, "type": "Feature", "properties": {"old_station_id": "aomori/tairadate", "hours": "8:00〜17:00", "pref_id": "2", "name": "たいらだて", "address": "030-1402 青森県東津軽郡外ヶ浜町字平舘太郎右ェ門沢1-3", "uri": "https://www.michi-no-eki.jp/stations/view/140", "station_id": "140"}}, {"geometry": {"type": "Point", "coordinates": [141.3247271, 40.6064042]}, "type": "Feature", "properties": {"old_station_id": "aomori/rokunohe", "hours": "9:00〜18:00 ≪冬期・営業時間短縮あり≫", "pref_id": "2", "name": "ろくのへ", "address": "039-2371 青森県上北郡六戸町大字犬落瀬字後田87", "uri": "https://www.michi-no-eki.jp/stations/view/141", "station_id": "141"}}, {"geometry": {"type": "Point", "coordinates": [140.300462, 40.577739]}, "type": "Feature", "properties": {"old_station_id": null, "hours": "直売所 8:30〜17:30(季節により変更有)", "pref_id": "2", "name": "津軽白神", "address": "036-1411 青森県中津軽郡西目屋村大字田代字神田219-1", "uri": "https://www.michi-no-eki.jp/stations/view/14167", "station_id": "14167"}}, {"geometry": {"type": "Point", "coordinates": [140.375856, 40.251513]}, "type": "Feature", "properties": {"old_station_id": "akita/takanosu", "hours": "9:00〜18:00(12〜3月 9:30〜17:00) <休 1/1>", "pref_id": "5", "name": "たかのす", "address": "018-3301 秋田県北秋田市綴子字大堤道下62-1", "uri": "https://www.michi-no-eki.jp/stations/view/184", "station_id": "184"}}, {"geometry": {"type": "Point", "coordinates": [140.260873, 40.21843]}, "type": "Feature", "properties": {"old_station_id": "akita/futatsui", "hours": "9:00〜18:00 ≪冬期・営業時間短縮あり≫ <休 12/31〜1/1>", "pref_id": "5", "name": "ふたつい", "address": "018-3102 秋田県能代市二ツ井町小繋字泉51番地", "uri": "https://www.michi-no-eki.jp/stations/view/185", "station_id": "185"}}, {"geometry": {"type": "Point", "coordinates": [140.014564, 39.36288]}, "type": "Feature", "properties": {"old_station_id": "akita/nishime", "hours": "9:00〜18:00 <休 12/31〜1/1>", "pref_id": "5", "name": "にしめ", "address": "018-0604 秋田県由利本荘市西目町沼田字新道下1112-2", "uri": "https://www.michi-no-eki.jp/stations/view/186", "station_id": "186"}}, {"geometry": {"type": "Point", "coordinates": [140.624429, 40.4210338]}, "type": "Feature", "properties": {"old_station_id": "akita/yatatetoge", "hours": "7:00〜21:00", "pref_id": "5", "name": "やたて峠", "address": "017-0001 秋田県大館市長走字陣場311", "uri": "https://www.michi-no-eki.jp/stations/view/187", "station_id": "187"}}, {"geometry": {"type": "Point", "coordinates": [139.948678, 40.421583]}, "type": "Feature", "properties": {"old_station_id": "akita/hachimori", "hours": "9:00〜18:00 (冬季9:00〜17:00) <休 12/30〜1/2>", "pref_id": "5", "name": "はちもり", "address": "018-2601 秋田県山本郡八峰町八森字乙の水72-4", "uri": "https://www.michi-no-eki.jp/stations/view/188", "station_id": "188"}}, {"geometry": {"type": "Point", "coordinates": [140.7852155, 40.1818401]}, "type": "Feature", "properties": {"old_station_id": "akita/kazuno", "hours": "9:00〜18:00 (冬季9:00〜17:00)", "pref_id": "5", "name": "かづの", "address": "018-5201 秋田県鹿角市花輪字新田町11-4", "uri": "https://www.michi-no-eki.jp/stations/view/189", "station_id": "189"}}, {"geometry": {"type": "Point", "coordinates": [140.3767219, 39.5221473]}, "type": "Feature", "properties": {"old_station_id": "akita/kamioka", "hours": "8:00〜18:00(4月〜10月は時間延長)", "pref_id": "5", "name": "かみおか", "address": "019-1702 秋田県大仙市北楢岡字船戸187", "uri": "https://www.michi-no-eki.jp/stations/view/190", "station_id": "190"}}, {"geometry": {"type": "Point", "coordinates": [140.08035, 40.022308]}, "type": "Feature", "properties": {"old_station_id": "akita/kotoka", "hours": "9:00〜18:00≪冬期・営業時間短縮あり≫ <休 12/31〜1/3>", "pref_id": "5", "name": "ことおか", "address": "018-2104 秋田県山本郡三種町鹿渡字高石野126-1", "uri": "https://www.michi-no-eki.jp/stations/view/191", "station_id": "191"}}, {"geometry": {"type": "Point", "coordinates": [140.285026, 39.3016038]}, "type": "Feature", "properties": {"old_station_id": "akita/higashiyuri", "hours": "8:30〜17:15〔施設により異なる〕", "pref_id": "5", "name": "東由利", "address": "015-0211 秋田県由利本荘市東由利老方字畑田28", "uri": "https://www.michi-no-eki.jp/stations/view/192", "station_id": "192"}}, {"geometry": {"type": "Point", "coordinates": [140.297203, 40.063515]}, "type": "Feature", "properties": {"old_station_id": "akita/kamikoani", "hours": "9:00〜17:30 <休 12/31〜1/1>", "pref_id": "5", "name": "かみこあに", "address": "018-4421 秋田県北秋田郡上小阿仁村小沢田字向川原66-1", "uri": "https://www.michi-no-eki.jp/stations/view/193", "station_id": "193"}}, {"geometry": {"type": "Point", "coordinates": [139.9001819, 39.220129]}, "type": "Feature", "properties": {"old_station_id": "akita/kisakata", "hours": "9:00〜21:00<休 12月〜3月の第3月曜日>", "pref_id": "5", "name": "象潟", "address": "018-0121 秋田県にかほ市象潟町字大塩越73-1", "uri": "https://www.michi-no-eki.jp/stations/view/194", "station_id": "194"}}, {"geometry": {"type": "Point", "coordinates": [140.5331821, 39.5385396]}, "type": "Feature", "properties": {"old_station_id": "akita/nakasen", "hours": "9:00〜18:00≪冬期・営業時間短縮あり≫ <休 12/31〜1/1>", "pref_id": "5", "name": "なかせん", "address": "014-0207 秋田県大仙市長野字高畑95-1", "uri": "https://www.michi-no-eki.jp/stations/view/195", "station_id": "195"}}, {"geometry": {"type": "Point", "coordinates": [140.460393, 39.0651389]}, "type": "Feature", "properties": {"old_station_id": "akita/ogachi", "hours": "8:30〜19:00 ≪冬期・営業時間短縮あり≫", "pref_id": "5", "name": "おがち", "address": "019-0205 秋田県湯沢市小野字橋本90", "uri": "https://www.michi-no-eki.jp/stations/view/196", "station_id": "196"}}, {"geometry": {"type": "Point", "coordinates": [140.0095627, 39.8568152]}, "type": "Feature", "properties": {"old_station_id": "akita/tenno", "hours": "9:00〜18:00≪冬期・営業時間短縮あり≫ <休 12/31>", "pref_id": "5", "name": "てんのう", "address": "010-0201 秋田県潟上市天王字江川上谷地109-2", "uri": "https://www.michi-no-eki.jp/stations/view/197", "station_id": "197"}}, {"geometry": {"type": "Point", "coordinates": [140.052933, 39.5420844]}, "type": "Feature", "properties": {"old_station_id": "akita/iwaki", "hours": "9:00〜20:00(4月〜10月)、9:00〜19:00(11月〜3月)〔施設により異なる〕、温泉9:00〜21:00", "pref_id": "5", "name": "岩城", "address": "018-1301 秋田県由利本荘市岩城内道川 字新鶴潟192-43", "uri": "https://www.michi-no-eki.jp/stations/view/198", "station_id": "198"}}, {"geometry": {"type": "Point", "coordinates": [140.077799, 39.864734]}, "type": "Feature", "properties": {"old_station_id": "akita/showa", "hours": "9:00〜18:00 <休 12/31〜1/1>", "pref_id": "5", "name": "しょうわ", "address": "018-1415 秋田県潟上市昭和豊川竜毛字山ノ下1-1", "uri": "https://www.michi-no-eki.jp/stations/view/199", "station_id": "199"}}, {"geometry": {"type": "Point", "coordinates": [140.028074, 40.2668499]}, "type": "Feature", "properties": {"old_station_id": "akita/minehama", "hours": "9:00〜18:00≪冬期・営業時間短縮あり≫ <休 12/31〜1/3>", "pref_id": "5", "name": "みねはま", "address": "018-2509 秋田県山本郡八峰町峰浜沼田字ホンコ谷地147-6", "uri": "https://www.michi-no-eki.jp/stations/view/200", "station_id": "200"}}, {"geometry": {"type": "Point", "coordinates": [140.6258076, 39.2893172]}, "type": "Feature", "properties": {"old_station_id": "akita/sannai", "hours": "9:00〜19:00≪冬期・営業時間短縮あり≫", "pref_id": "5", "name": "さんない", "address": "019-1108 秋田県横手市山内土渕字小目倉沢34", "uri": "https://www.michi-no-eki.jp/stations/view/201", "station_id": "201"}}, {"geometry": {"type": "Point", "coordinates": [140.0901559, 39.4428837]}, "type": "Feature", "properties": {"old_station_id": "akita/ochi", "hours": "9:00〜21:00〔施設により異なる〕", "pref_id": "5", "name": "おおうち", "address": "018-0711 秋田県由利本荘市岩谷町字西越36", "uri": "https://www.michi-no-eki.jp/stations/view/202", "station_id": "202"}}, {"geometry": {"type": "Point", "coordinates": [140.456774, 39.901824]}, "type": "Feature", "properties": {"old_station_id": "akita/ani", "hours": "9:00〜18:00≪冬期・営業時間短縮あり≫ <休 12月〜3月の毎週火曜日、12/31〜1/2>", "pref_id": "5", "name": "あに", "address": "018-4735 秋田県北秋田市阿仁比立内字家ノ後8-1", "uri": "https://www.michi-no-eki.jp/stations/view/203", "station_id": "203"}}, {"geometry": {"type": "Point", "coordinates": [140.585214, 40.219348]}, "type": "Feature", "properties": {"old_station_id": "akita/hinai", "hours": "9:00〜20:00〔施設により異なる〕 <休 12/31〜1/2、レストランは毎週月曜日>", "pref_id": "5", "name": "ひない", "address": "018-5701 秋田県大館市比内町扇田字新大堤下93-11", "uri": "https://www.michi-no-eki.jp/stations/view/204", "station_id": "204"}}, {"geometry": {"type": "Point", "coordinates": [140.1442137, 39.9470864]}, "type": "Feature", "properties": {"old_station_id": "akita/gojome", "hours": "◇物産館 9:00〜18:00(12月〜3月 17:00) ◇レストラン 11:00〜15:30 ◇軽食 9:00〜18:00(12月〜3月17:00)", "pref_id": "5", "name": "五城目", "address": "018-1856 秋田県南秋田郡五城目町富津内下山内字上広ヶ野76-1", "uri": "https://www.michi-no-eki.jp/stations/view/205", "station_id": "205"}}, {"geometry": {"type": "Point", "coordinates": [140.2915146, 39.1095406]}, "type": "Feature", "properties": {"old_station_id": "akita/shimizunosatochokaigo", "hours": "8:30〜18:00 <休 12/31〜1/2>", "pref_id": "5", "name": "清水の里・鳥海郷", "address": "015-0721 秋田県由利本荘市鳥海町上笹子字堺台100", "uri": "https://www.michi-no-eki.jp/stations/view/206", "station_id": "206"}}, {"geometry": {"type": "Point", "coordinates": [140.5675681, 39.3789953]}, "type": "Feature", "properties": {"old_station_id": "akita/karinosatosennan", "hours": "9:00〜19:00 ≪冬期・営業時間短縮あり≫ <休 1/1>", "pref_id": "5", "name": "雁の里せんなん", "address": "019-1302 秋田県仙北郡美郷町金沢字下舘124", "uri": "https://www.michi-no-eki.jp/stations/view/207", "station_id": "207"}}, {"geometry": {"type": "Point", "coordinates": [140.362517, 39.61884]}, "type": "Feature", "properties": {"old_station_id": "akita/kyowa", "hours": "9:00〜19:00 (冬期9:00〜18:00)", "pref_id": "5", "name": "協和", "address": "019-2412 秋田県大仙市協和荒川字新田表15-2", "uri": "https://www.michi-no-eki.jp/stations/view/208", "station_id": "208"}}, {"geometry": {"type": "Point", "coordinates": [140.521447, 39.226174]}, "type": "Feature", "properties": {"old_station_id": null, "hours": "9:00〜19:00≪冬期・営業時間短縮あり≫", "pref_id": "5", "name": "十文字", "address": "019-0529 秋田県横手市十文字町字海道下21-4", "uri": "https://www.michi-no-eki.jp/stations/view/209", "station_id": "209"}}, {"geometry": {"type": "Point", "coordinates": [139.9515185, 40.0153495]}, "type": "Feature", "properties": {"old_station_id": "akita/ogata", "hours": "8:00〜18:00≪冬期・営業時間短縮あり≫ <休 1/1〜1/2>", "pref_id": "5", "name": "おおがた", "address": "010-0445 秋田県南秋田郡大潟村字西5-2", "uri": "https://www.michi-no-eki.jp/stations/view/210", "station_id": "210"}}, {"geometry": {"type": "Point", "coordinates": [140.061005, 39.7527085]}, "type": "Feature", "properties": {"old_station_id": "akita/akitako", "hours": "9:00〜21:00〔施設により異なる〕", "pref_id": "5", "name": "あきた港", "address": "011-0945 秋田県秋田市土崎港西1-9-1", "uri": "https://www.michi-no-eki.jp/stations/view/211", "station_id": "211"}}, {"geometry": {"type": "Point", "coordinates": [140.781686, 40.356598]}, "type": "Feature", "properties": {"old_station_id": "akita/kosakananataki", "hours": "9:00〜17:00(4/15〜11/5) <休 月2回火曜日>", "pref_id": "5", "name": "こさか七滝", "address": "017-0203 秋田県鹿角郡小坂町上向字藤原35-3", "uri": "https://www.michi-no-eki.jp/stations/view/212", "station_id": "212"}}, {"geometry": {"type": "Point", "coordinates": [140.371628, 40.19197]}, "type": "Feature", "properties": {"old_station_id": "akita/odate-noshirokuuko", "hours": "9:00〜18:15", "pref_id": "5", "name": "大館能代空港", "address": "018-3454 秋田県北秋田市脇神字カラムシ岱21-144", "uri": "https://www.michi-no-eki.jp/stations/view/213", "station_id": "213"}}, {"geometry": {"type": "Point", "coordinates": [140.412438, 39.200532]}, "type": "Feature", "properties": {"old_station_id": "akita/ugo", "hours": "9:00〜19:00、9:00〜17:00(11月〜4月)<休 1/1>", "pref_id": "5", "name": "うご", "address": "012-1131 秋田県雄勝郡羽後町西馬音内字中野200", "uri": "https://www.michi-no-eki.jp/stations/view/11974", "station_id": "11974"}}, {"geometry": {"type": "Point", "coordinates": [140.82593, 40.295831]}, "type": "Feature", "properties": {"old_station_id": null, "hours": "9:00〜18:00", "pref_id": "5", "name": "おおゆ", "address": "018-5421 秋田県鹿角市十和田大湯字中谷地19", "uri": "https://www.michi-no-eki.jp/stations/view/14169", "station_id": "14169"}}, {"geometry": {"type": "Point", "coordinates": [139.848491, 39.882027]}, "type": "Feature", "properties": {"old_station_id": null, "hours": "9:00〜17:00", "pref_id": "5", "name": "おが", "address": "010-05111 秋田県男鹿市船川港船川字新浜町1番地19", "uri": "https://www.michi-no-eki.jp/stations/view/14183", "station_id": "14183"}}, {"geometry": {"type": "Point", "coordinates": [141.1421369, 39.4832705]}, "type": "Feature", "properties": {"old_station_id": "iwate/ishidoriya", "hours": "9:00〜18:00〔施設により異なる〕 <休 12/31〜1/1>", "pref_id": "3", "name": "石鳥谷", "address": "028-3171 岩手県花巻市石鳥谷町中寺林7-17-3", "uri": "https://www.michi-no-eki.jp/stations/view/142", "station_id": "142"}}, {"geometry": {"type": "Point", "coordinates": [141.62854, 39.008465]}, "type": "Feature", "properties": {"old_station_id": null, "hours": "", "pref_id": "3", "name": "高田松原【休館中】", "address": "029-2205 岩手県陸前高田市高田町字古川28-5", "uri": "https://www.michi-no-eki.jp/stations/view/143", "station_id": "143"}}, {"geometry": {"type": "Point", "coordinates": [141.3535295, 39.6516145]}, "type": "Feature", "properties": {"old_station_id": "iwate/kuzakaikogen", "hours": "8:30〜18:30 ≪冬期・営業時間短縮あり≫", "pref_id": "3", "name": "区界高原", "address": "028-2631 岩手県宮古市区界2-434-2", "uri": "https://www.michi-no-eki.jp/stations/view/144", "station_id": "144"}}, {"geometry": {"type": "Point", "coordinates": [141.6634076, 40.2792091]}, "type": "Feature", "properties": {"old_station_id": "oita/ono-2", "hours": "9:00〜17:00〔施設により異なる〕", "pref_id": "3", "name": "おおの", "address": "028-8802 岩手県九戸郡洋野町大野58-12-30", "uri": "https://www.michi-no-eki.jp/stations/view/145", "station_id": "145"}}, {"geometry": {"type": "Point", "coordinates": [141.3958808, 39.1798365]}, "type": "Feature", "properties": {"old_station_id": "iwate/taneyamagahara", "hours": "9:00〜18:00(冬期17:00まで)", "pref_id": "3", "name": "種山ヶ原", "address": "029-2311 岩手県気仙郡住田町世田米字子飼沢30-39", "uri": "https://www.michi-no-eki.jp/stations/view/146", "station_id": "146"}}, {"geometry": {"type": "Point", "coordinates": [141.8626587, 39.8423053]}, "type": "Feature", "properties": {"old_station_id": "iwate/iwaizumi", "hours": "8:30〜18:00(夏期)、8:30〜17:30(冬期)", "pref_id": "3", "name": "いわいずみ", "address": "027-0502 岩手県下閉伊郡岩泉町乙茂字乙茂90-1", "uri": "https://www.michi-no-eki.jp/stations/view/147", "station_id": "147"}}, {"geometry": {"type": "Point", "coordinates": [141.818707, 40.116105]}, "type": "Feature", "properties": {"old_station_id": "iwate/noda", "hours": "9:00〜18:00 <休 1/1、3/31、9/30>", "pref_id": "3", "name": "のだ", "address": "028-8201 岩手県九戸郡野田村大字野田31-31-1", "uri": "https://www.michi-no-eki.jp/stations/view/148", "station_id": "148"}}, {"geometry": {"type": "Point", "coordinates": [141.971987, 39.737554]}, "type": "Feature", "properties": {"old_station_id": "iwate/taro", "hours": "9:00〜17:00(産直とれたろう)", "pref_id": "3", "name": "たろう", "address": "027-0307 岩手県宮古市田老二丁目5-1", "uri": "https://www.michi-no-eki.jp/stations/view/149", "station_id": "149"}}, {"geometry": {"type": "Point", "coordinates": [141.902577, 39.909617]}, "type": "Feature", "properties": {"old_station_id": "iwate/tanohata", "hours": "9:00〜18:00(10〜3月/17:30) <休 12/31〜1/4>", "pref_id": "3", "name": "たのはた", "address": "028-8407 岩手県下閉伊郡田野畑村菅窪223-85", "uri": "https://www.michi-no-eki.jp/stations/view/150", "station_id": "150"}}, {"geometry": {"type": "Point", "coordinates": [141.181477, 39.094217]}, "type": "Feature", "properties": {"old_station_id": "iwate/mizusawa", "hours": "9:00〜18:00 <休 1/1>", "pref_id": "3", "name": "みずさわ", "address": "023-0831 岩手県奥州市水沢区姉体町字石川原51-3", "uri": "https://www.michi-no-eki.jp/stations/view/151", "station_id": "151"}}, {"geometry": {"type": "Point", "coordinates": [141.0993785, 39.8799671]}, "type": "Feature", "properties": {"old_station_id": "iwate/nishine", "hours": "8:30〜18:00≪冬期・営業時間短縮あり≫ <休 12/31〜1/1>", "pref_id": "3", "name": "にしね", "address": "028-7111 岩手県八幡平市大更2-154-36", "uri": "https://www.michi-no-eki.jp/stations/view/152", "station_id": "152"}}, {"geometry": {"type": "Point", "coordinates": [141.5735177, 40.1509394]}, "type": "Feature", "properties": {"old_station_id": "iwate/shirakabanosato-yamagata", "hours": "9:00〜18:00 <休 12/30〜1/3(売店は無休)>", "pref_id": "3", "name": "白樺の里やまがた", "address": "028-8602 岩手郡久慈市山形町川井8-12-1", "uri": "https://www.michi-no-eki.jp/stations/view/153", "station_id": "153"}}, {"geometry": {"type": "Point", "coordinates": [141.3513044, 39.3460524]}, "type": "Feature", "properties": {"old_station_id": "iwate/miyamori", "hours": "9:00〜18:00≪冬期・営業時間短縮あり≫", "pref_id": "3", "name": "みやもり", "address": "028-0304 岩手県遠野市宮守町下宮守30-37-1", "uri": "https://www.michi-no-eki.jp/stations/view/154", "station_id": "154"}}, {"geometry": {"type": "Point", "coordinates": [141.2064173, 39.5555548]}, "type": "Feature", "properties": {"old_station_id": "iwate/shiwa", "hours": "8:00〜18:00≪冬期・営業時間短縮あり≫ <休 12/31〜1/3>", "pref_id": "3", "name": "紫波", "address": "028-3535 岩手県紫波郡紫波町遠山字松原7-8", "uri": "https://www.michi-no-eki.jp/stations/view/155", "station_id": "155"}}, {"geometry": {"type": "Point", "coordinates": [141.3404903, 39.5367746]}, "type": "Feature", "properties": {"old_station_id": "iwate/hayachine", "hours": "9:00〜17:00 <休 火曜日(冬期休業 11月下旬〜4月中旬)>", "pref_id": "3", "name": "はやちね", "address": "028-3201 岩手県花巻市大迫町内川目10-30-114", "uri": "https://www.michi-no-eki.jp/stations/view/156", "station_id": "156"}}, {"geometry": {"type": "Point", "coordinates": [141.973205, 39.4369048]}, "type": "Feature", "properties": {"old_station_id": "iwate/yamada", "hours": "9:00〜18:00", "pref_id": "3", "name": "やまだ", "address": "028-1371 岩手県下閉伊郡山田町船越6-141", "uri": "https://www.michi-no-eki.jp/stations/view/157", "station_id": "157"}}, {"geometry": {"type": "Point", "coordinates": [141.501123, 39.3309253]}, "type": "Feature", "properties": {"old_station_id": "iwate/tonokazenoka", "hours": "8:00〜19:00(4/1〜10/15)、8:30〜17:30(10/16〜3/31)〔施設により異なる〕", "pref_id": "3", "name": "遠野風の丘", "address": "028-0531 岩手県遠野市綾織町新里8-2-1", "uri": "https://www.michi-no-eki.jp/stations/view/158", "station_id": "158"}}, {"geometry": {"type": "Point", "coordinates": [141.798998, 39.121158]}, "type": "Feature", "properties": {"old_station_id": "iwate/sanriku", "hours": "8:30〜19:00(1/1〜3/15は8:30〜18:00)", "pref_id": "3", "name": "さんりく", "address": "022-0101 岩手県大船渡市三陸町越善来字井戸洞95-27", "uri": "https://www.michi-no-eki.jp/stations/view/159", "station_id": "159"}}, {"geometry": {"type": "Point", "coordinates": [140.875147, 39.3007195]}, "type": "Feature", "properties": {"old_station_id": "iwate/kinshuuko", "hours": "9:00〜18:30(12〜3月は9:00〜18:00)", "pref_id": "3", "name": "錦秋湖", "address": "024-0341 岩手県和賀郡西和賀町杉名畑44-264", "uri": "https://www.michi-no-eki.jp/stations/view/160", "station_id": "160"}}, {"geometry": {"type": "Point", "coordinates": [141.3399576, 39.984567]}, "type": "Feature", "properties": {"old_station_id": "iwate/kuzumakikogen", "hours": "9:00〜18:00 ≪冬期・営業時間短縮あり≫ <休 1/1〜1/2>", "pref_id": "3", "name": "くずまき高原", "address": "028-5402 岩手県岩手郡葛巻町葛巻39-159-3", "uri": "https://www.michi-no-eki.jp/stations/view/161", "station_id": "161"}}, {"geometry": {"type": "Point", "coordinates": [141.21381, 39.968545]}, "type": "Feature", "properties": {"old_station_id": "iwate/ishigaminoka", "hours": "9:00〜18:30 ≪冬期・営業時間短縮あり≫", "pref_id": "3", "name": "石神の丘", "address": "028-4307 岩手県岩手郡岩手町大字五日市10-121-20", "uri": "https://www.michi-no-eki.jp/stations/view/162", "station_id": "162"}}, {"geometry": {"type": "Point", "coordinates": [140.874886, 39.706412]}, "type": "Feature", "properties": {"old_station_id": "iwate/shizukuishianekko", "hours": "8:30〜18:00 ≪冬期・営業時間短縮あり≫", "pref_id": "3", "name": "雫石あねっこ", "address": "020-0582 岩手県岩手郡雫石町橋場坂本118-10", "uri": "https://www.michi-no-eki.jp/stations/view/163", "station_id": "163"}}, {"geometry": {"type": "Point", "coordinates": [141.2218949, 39.3824368]}, "type": "Feature", "properties": {"old_station_id": "iwate/towa", "hours": "9:00〜17:00", "pref_id": "3", "name": "とうわ", "address": "028-0115 岩手県花巻市東和町安俵6区147-2", "uri": "https://www.michi-no-eki.jp/stations/view/164", "station_id": "164"}}, {"geometry": {"type": "Point", "coordinates": [141.0528845, 38.9464394]}, "type": "Feature", "properties": {"old_station_id": "iwate/gembikei", "hours": "9:00〜18:00(11〜3月は9:00〜17:00)<休 毎月第3水曜日(3〜10月は無休)>", "pref_id": "3", "name": "厳美渓", "address": "021-0101 岩手県一関市厳美町字沖野々220-1", "uri": "https://www.michi-no-eki.jp/stations/view/165", "station_id": "165"}}, {"geometry": {"type": "Point", "coordinates": [141.4165286, 40.248349]}, "type": "Feature", "properties": {"old_station_id": "iwate/oritsume", "hours": "8:00〜19:00 <休 1/1>", "pref_id": "3", "name": "おりつめ", "address": "028-6506 岩手県九戸郡九戸村大字山屋2-28-1", "uri": "https://www.michi-no-eki.jp/stations/view/166", "station_id": "166"}}, {"geometry": {"type": "Point", "coordinates": [141.2723745, 38.8986767]}, "type": "Feature", "properties": {"old_station_id": "iwate/kawasaki", "hours": "9:00〜19:00(12〜2月は9:00〜18:00)", "pref_id": "3", "name": "かわさき", "address": "029-0202 岩手県一関市川崎町薄衣字法道地42-3", "uri": "https://www.michi-no-eki.jp/stations/view/167", "station_id": "167"}}, {"geometry": {"type": "Point", "coordinates": [141.5891622, 39.6488825]}, "type": "Feature", "properties": {"old_station_id": "iwate/yamabikokan", "hours": "8:30〜18:30 ≪冬期・営業時間短縮あり≫", "pref_id": "3", "name": "やまびこ館", "address": "028-2513 岩手県宮古市川内8-2", "uri": "https://www.michi-no-eki.jp/stations/view/168", "station_id": "168"}}, {"geometry": {"type": "Point", "coordinates": [141.9698939, 39.6390181]}, "type": "Feature", "properties": {"old_station_id": "iwate/miyako", "hours": "9:00〜17:00〔施設により異なる〕", "pref_id": "3", "name": "みやこ", "address": "027-0004 岩手県宮古市臨港通1-20", "uri": "https://www.michi-no-eki.jp/stations/view/169", "station_id": "169"}}, {"geometry": {"type": "Point", "coordinates": [141.589311, 39.871122]}, "type": "Feature", "properties": {"old_station_id": "iwate/mitagaibunko", "hours": "8:30〜18:00 ≪冬期・営業時間短縮あり≫", "pref_id": "3", "name": "三田貝分校", "address": "028-5641 岩手県下閉伊郡岩泉町門字三田貝47-2", "uri": "https://www.michi-no-eki.jp/stations/view/170", "station_id": "170"}}, {"geometry": {"type": "Point", "coordinates": [141.7646387, 40.1898882]}, "type": "Feature", "properties": {"old_station_id": "iwate/kuji", "hours": "9:00〜19:00 ≪冬期・営業時間短縮あり≫ <休 1/1>", "pref_id": "3", "name": "くじ", "address": "028-0056 岩手県久慈市中町2-5-6", "uri": "https://www.michi-no-eki.jp/stations/view/171", "station_id": "171"}}, {"geometry": {"type": "Point", "coordinates": [141.7816824, 39.25363306]}, "type": "Feature", "properties": {"old_station_id": "iwate/kamaishisennintouge", "hours": "9:00〜18:00〔施設により異なる〕<休 12/31〜1/1>", "pref_id": "3", "name": "釜石仙人峠", "address": "026-0055 岩手県釜石市甲子町7-155-4", "uri": "https://www.michi-no-eki.jp/stations/view/7980", "station_id": "7980"}}, {"geometry": {"type": "Point", "coordinates": [141.121791, 38.991816]}, "type": "Feature", "properties": {"old_station_id": null, "hours": "9:00〜18:00 ≪冬期・営業時間短縮あり≫", "pref_id": "3", "name": "平泉", "address": "029-4012 岩手県西磐井郡平泉町平泉字伽羅楽112-2", "uri": "https://www.michi-no-eki.jp/stations/view/14132", "station_id": "14132"}}, {"geometry": {"type": "Point", "coordinates": [141.447163, 38.933199]}, "type": "Feature", "properties": {"old_station_id": null, "hours": "", "pref_id": "3", "name": "むろね(平成30年度オープン予定)", "address": "029-1201 岩手県一関市室根町折壁字向山131-9", "uri": "https://www.michi-no-eki.jp/stations/view/14168", "station_id": "14168"}}, {"geometry": {"type": "Point", "coordinates": [139.874501, 38.5869944]}, "type": "Feature", "properties": {"old_station_id": "yamagata/gassan", "hours": "9:00〜17:00 <休 12〜3月の第4月曜日>", "pref_id": "6", "name": "月山", "address": "997-0403 山形県鶴岡市越中山字名平3-1", "uri": "https://www.michi-no-eki.jp/stations/view/214", "station_id": "214"}}, {"geometry": {"type": "Point", "coordinates": [140.328447, 38.41304]}, "type": "Feature", "properties": {"old_station_id": null, "hours": "9:00〜18:00", "pref_id": "6", "name": "河北(H30.4.1〜リニューアルのため休館)", "address": "999-3511 山形県西村山郡河北町谷地字真木335-1", "uri": "https://www.michi-no-eki.jp/stations/view/215", "station_id": "215"}}, {"geometry": {"type": "Point", "coordinates": [140.269891, 38.399013]}, "type": "Feature", "properties": {"old_station_id": null, "hours": "9:00〜18:00≪冬期・営業時間短縮あり≫", "pref_id": "6", "name": "寒河江", "address": "990-0523 山形県寒河江市大字八鍬字川原919-8", "uri": "https://www.michi-no-eki.jp/stations/view/216", "station_id": "216"}}, {"geometry": {"type": "Point", "coordinates": [139.5581086, 38.580422]}, "type": "Feature", "properties": {"old_station_id": "yamagata/atsumi", "hours": "8:00〜18:00(冬季は8:30〜17:30) <休 毎月最終水曜日(7・8月を除く)、12/31〜1/1>", "pref_id": "6", "name": "あつみ", "address": "999-7121 山形県鶴岡市早田字戸ノ浦606", "uri": "https://www.michi-no-eki.jp/stations/view/217", "station_id": "217"}}, {"geometry": {"type": "Point", "coordinates": [140.099237, 38.436059]}, "type": "Feature", "properties": {"old_station_id": "yamagata/nishikawa", "hours": "8:30〜18:00 <休 年末年始>", "pref_id": "6", "name": "にしかわ", "address": "990-0742 山形県西村山郡西川町大字水沢2304", "uri": "https://www.michi-no-eki.jp/stations/view/218", "station_id": "218"}}, {"geometry": {"type": "Point", "coordinates": [139.994671, 38.026065]}, "type": "Feature", "properties": {"old_station_id": "yamagata/iide", "hours": "9:00〜18:00(12〜3月は10:00〜17:00) <休 12/31〜1/1>", "pref_id": "6", "name": "いいで", "address": "999-0606 山形県西置賜郡飯豊町大字松原1898", "uri": "https://www.michi-no-eki.jp/stations/view/219", "station_id": "219"}}, {"geometry": {"type": "Point", "coordinates": [140.3823105, 38.4871462]}, "type": "Feature", "properties": {"old_station_id": "yamagata/murayama", "hours": "9:00〜19:30(季節変更あり)", "pref_id": "6", "name": "むらやま", "address": "995-0025 山形県村山市大字楯岡7635-1", "uri": "https://www.michi-no-eki.jp/stations/view/220", "station_id": "220"}}, {"geometry": {"type": "Point", "coordinates": [140.161431, 38.728688]}, "type": "Feature", "properties": {"old_station_id": "yamagata/tozawa", "hours": "9:00〜17:30〔施設により異なる〕", "pref_id": "6", "name": "とざわ", "address": "999-6402 山形県最上郡戸沢村大字蔵岡字黒渕3008-1", "uri": "https://www.michi-no-eki.jp/stations/view/221", "station_id": "221"}}, {"geometry": {"type": "Point", "coordinates": [139.875583, 39.060163]}, "type": "Feature", "properties": {"old_station_id": "yamagata/chokai", "hours": "8:30〜18:00(3月〜10月)、8:30〜17:00(11〜2月) <休 1/1>", "pref_id": "6", "name": "鳥海", "address": "999-8531 山形県飽海郡遊佐町大字菅里字菅野308-1", "uri": "https://www.michi-no-eki.jp/stations/view/222", "station_id": "222"}}, {"geometry": {"type": "Point", "coordinates": [139.9841823, 37.8776582]}, "type": "Feature", "properties": {"old_station_id": "yamagata/tazawa", "hours": "9:00〜18:00 ≪冬期・営業時間短縮あり≫ <休 1/1>", "pref_id": "6", "name": "田沢", "address": "992-1583 山形県米沢市大字入田沢573-19", "uri": "https://www.michi-no-eki.jp/stations/view/223", "station_id": "223"}}, {"geometry": {"type": "Point", "coordinates": [139.7306094, 38.0719561]}, "type": "Feature", "properties": {"old_station_id": "yamagata/shiroimorioguni", "hours": "9:00〜18:00≪冬期・営業時間短縮あり≫ <休 1/1>", "pref_id": "6", "name": "白い森おぐに", "address": "999-1363 山形県西置賜郡小国町大字小国小坂町616-1", "uri": "https://www.michi-no-eki.jp/stations/view/224", "station_id": "224"}}, {"geometry": {"type": "Point", "coordinates": [140.213291, 38.367756]}, "type": "Feature", "properties": {"old_station_id": "yamagata/oe", "hours": "9:00〜17:00≪冬期・営業時間短縮あり≫ <休 12/31〜1/1>", "pref_id": "6", "name": "おおえ", "address": "990-1121 山形県西村山郡大江町大字藤田218-1", "uri": "https://www.michi-no-eki.jp/stations/view/225", "station_id": "225"}}, {"geometry": {"type": "Point", "coordinates": [139.8463299, 38.7828046]}, "type": "Feature", "properties": {"old_station_id": "yamagata/shonaimikawa", "hours": "9:00〜17:30 <休 1/1〜1/3>", "pref_id": "6", "name": "庄内みかわ", "address": "997-1301 山形県東田川郡三川町大字横山字堤172-1", "uri": "https://www.michi-no-eki.jp/stations/view/226", "station_id": "226"}}, {"geometry": {"type": "Point", "coordinates": [140.217442, 38.006775]}, "type": "Feature", "properties": {"old_station_id": "yamagata/takahata", "hours": "9:00〜17:30≪冬期・営業時間短縮あり≫", "pref_id": "6", "name": "たかはた", "address": "992-0302 山形県東置賜郡高畠町大字安久津2072-1", "uri": "https://www.michi-no-eki.jp/stations/view/227", "station_id": "227"}}, {"geometry": {"type": "Point", "coordinates": [140.387127, 38.354481]}, "type": "Feature", "properties": {"old_station_id": "yamagata/tendonsen", "hours": "9:00〜18:00", "pref_id": "6", "name": "天童温泉", "address": "994-0028 山形県天童市鍬ノ町", "uri": "https://www.michi-no-eki.jp/stations/view/228", "station_id": "228"}}, {"geometry": {"type": "Point", "coordinates": [140.3636879, 38.6569024]}, "type": "Feature", "properties": {"old_station_id": "yamagata/obanazawa", "hours": "9:00〜18:00 <休 1/1>", "pref_id": "6", "name": "尾花沢", "address": "999-4554 山形県尾花沢市芦沢1195-1", "uri": "https://www.michi-no-eki.jp/stations/view/229", "station_id": "229"}}, {"geometry": {"type": "Point", "coordinates": [140.0973224, 38.2181108]}, "type": "Feature", "properties": {"old_station_id": "yamagata/shiratakayanakoen", "hours": "10:00〜18:00≪冬期・営業時間短縮あり≫ <休 1月・2月のみ毎週火曜日>", "pref_id": "6", "name": "白鷹ヤナ公園", "address": "992-0862 山形県西置賜郡白鷹町大字下山661-1", "uri": "https://www.michi-no-eki.jp/stations/view/230", "station_id": "230"}}, {"geometry": {"type": "Point", "coordinates": [140.1692573, 38.32738812]}, "type": "Feature", "properties": {"old_station_id": "yamagata/asahimachi", "hours": "9:00〜18:00〔施設により異なる〕 (冬季は9:00〜17:00)", "pref_id": "6", "name": "あさひまち", "address": "990-1411 山形県西村山郡朝日町大字和合字北又2724", "uri": "https://www.michi-no-eki.jp/stations/view/7982", "station_id": "7982"}}, {"geometry": {"type": "Point", "coordinates": [139.984412, 38.794158]}, "type": "Feature", "properties": {"old_station_id": null, "hours": "9:30〜18:00≪冬期・営業時間短縮あり≫ <休 年末年始>", "pref_id": "6", "name": "しょうない", "address": "999-6601 山形県東田川郡庄内町狩川字外北割97-1", "uri": "https://www.michi-no-eki.jp/stations/view/11975", "station_id": "11975"}}, {"geometry": {"type": "Point", "coordinates": [140.043516, 38.108211]}, "type": "Feature", "properties": {"old_station_id": null, "hours": "9:00〜18:00〔施設により異なる〕", "pref_id": "6", "name": "川のみなと長井", "address": "993-0003 山形県長井市東町2-50", "uri": "https://www.michi-no-eki.jp/stations/view/14136", "station_id": "14136"}}, {"geometry": {"type": "Point", "coordinates": [140.137017, 37.922055]}, "type": "Feature", "properties": {"old_station_id": null, "hours": "", "pref_id": "6", "name": "米沢", "address": "992-0117 山形県米沢市大字川井1039-1", "uri": "https://www.michi-no-eki.jp/stations/view/14170", "station_id": "14170"}}, {"geometry": {"type": "Point", "coordinates": [140.466502, 37.982691]}, "type": "Feature", "properties": {"old_station_id": "miyagi/shichigashuku", "hours": "9:00〜17:30 ≪冬期・営業時間短縮あり≫ <休 12/31〜1/3、3/31>", "pref_id": "4", "name": "七ヶ宿", "address": "989-0537 宮城県刈田郡七ヶ宿町字上野8-1", "uri": "https://www.michi-no-eki.jp/stations/view/172", "station_id": "172"}}, {"geometry": {"type": "Point", "coordinates": [141.325525, 38.619593]}, "type": "Feature", "properties": {"old_station_id": "miyagi/tsuyama", "hours": "9:00〜17:00 <休 12/30〜1/1>", "pref_id": "4", "name": "津山", "address": "986-0402 宮城県登米市津山町横山字細谷26-1", "uri": "https://www.michi-no-eki.jp/stations/view/173", "station_id": "173"}}, {"geometry": {"type": "Point", "coordinates": [140.938388, 38.521611]}, "type": "Feature", "properties": {"old_station_id": "miyagi/sambongi", "hours": "9:00〜18:00", "pref_id": "4", "name": "三本木", "address": "989-6321 宮城県大崎市三本木字大豆坂63-13", "uri": "https://www.michi-no-eki.jp/stations/view/174", "station_id": "174"}}, {"geometry": {"type": "Point", "coordinates": [140.844319, 38.794418]}, "type": "Feature", "properties": {"old_station_id": "miyagi/rotarihanayama", "hours": "9:30〜18:00 ≪冬期・営業時間短縮あり≫", "pref_id": "4", "name": "路田里はなやま", "address": "987-2511 宮城県栗原市花山字本沢北ノ前112-1", "uri": "https://www.michi-no-eki.jp/stations/view/175", "station_id": "175"}}, {"geometry": {"type": "Point", "coordinates": [141.5664822, 38.8140093]}, "type": "Feature", "properties": {"old_station_id": "miyagi/oyakaigan", "hours": "9:30〜17:30 <休 12/31〜1/2>", "pref_id": "4", "name": "大谷海岸", "address": "988-0273 宮城県気仙沼市本吉町三島94-12", "uri": "https://www.michi-no-eki.jp/stations/view/176", "station_id": "176"}}, {"geometry": {"type": "Point", "coordinates": [140.992791, 38.424053]}, "type": "Feature", "properties": {"old_station_id": "miyagi/osato", "hours": "9:00〜18:00 <休 年末年始>", "pref_id": "4", "name": "おおさと", "address": "981-3521 宮城県黒川郡大郷町中村字北浦 51-6", "uri": "https://www.michi-no-eki.jp/stations/view/177", "station_id": "177"}}, {"geometry": {"type": "Point", "coordinates": [141.1878908, 38.6271176]}, "type": "Feature", "properties": {"old_station_id": "miyagi/yoneyama", "hours": "9:00〜18:30(4月〜11月)、9:00〜18:00(12月〜3月) <休 12/31〜1/3>", "pref_id": "4", "name": "米山", "address": "987-0321 宮城県登米市米山町西野字遠田67", "uri": "https://www.michi-no-eki.jp/stations/view/178", "station_id": "178"}}, {"geometry": {"type": "Point", "coordinates": [140.833294, 38.70744]}, "type": "Feature", "properties": {"old_station_id": "miyagi/a-ra-datenamichinoeki", "hours": "8:45〜18:00〔施設により異なる〕", "pref_id": "4", "name": "あ・ら・伊達な道の駅", "address": "989-6405 宮城県大崎市岩出山池月字下宮道下4-1", "uri": "https://www.michi-no-eki.jp/stations/view/179", "station_id": "179"}}, {"geometry": {"type": "Point", "coordinates": [141.316076, 38.742664]}, "type": "Feature", "properties": {"old_station_id": "miyagi/rinrinkan", "hours": "9:00〜18:00〔施設により異なる〕", "pref_id": "4", "name": "林林館", "address": "987-0901 宮城県登米市東和町米川字六反33-1", "uri": "https://www.michi-no-eki.jp/stations/view/180", "station_id": "180"}}, {"geometry": {"type": "Point", "coordinates": [141.295318, 38.501033]}, "type": "Feature", "properties": {"old_station_id": "miyagi/jobonnosato", "hours": "直売所 9:00〜19:00    レストラン 9:00〜20:00(ラストオーダー19:30)  温泉保養施設 9:00〜21:00", "pref_id": "4", "name": "上品の郷", "address": "986-0132 宮城県石巻市小船越字二子北下1-1", "uri": "https://www.michi-no-eki.jp/stations/view/181", "station_id": "181"}}, {"geometry": {"type": "Point", "coordinates": [141.160641, 38.66488]}, "type": "Feature", "properties": {"old_station_id": "miyagi/minamikata", "hours": "9:00〜18:00(施設により異なる) <休 12/31〜1/3>", "pref_id": "4", "name": "みなみかた", "address": "987-0401 宮城県登米市南方町新高石浦150-1", "uri": "https://www.michi-no-eki.jp/stations/view/182", "station_id": "182"}}, {"geometry": {"type": "Point", "coordinates": [140.717279, 38.118639]}, "type": "Feature", "properties": {"old_station_id": "miyagi/murata", "hours": "9:00〜17:00 <休 年末年始>", "pref_id": "4", "name": "村田", "address": "989-1305 宮城県柴田郡村田町大字村田字北塩内41", "uri": "https://www.michi-no-eki.jp/stations/view/183", "station_id": "183"}}, {"geometry": {"type": "Point", "coordinates": [141.327823, 38.7079696]}, "type": "Feature", "properties": {"old_station_id": null, "hours": "9:00〜19:00〔施設により異なる〕", "pref_id": "4", "name": "三滝堂", "address": "987-0902 宮城県登米市東和町米谷字福平191-1", "uri": "https://www.michi-no-eki.jp/stations/view/9726", "station_id": "9726"}}, {"geometry": {"type": "Point", "coordinates": [140.334294, 37.65512]}, "type": "Feature", "properties": {"old_station_id": "fukushima/tsuchiyu", "hours": "9:00〜18:00≪冬期・営業時間短縮あり≫", "pref_id": "7", "name": "つちゆ", "address": "960-1243 福島県福島市松川町水原字南沢41-2", "uri": "https://www.michi-no-eki.jp/stations/view/231", "station_id": "231"}}, {"geometry": {"type": "Point", "coordinates": [140.5766931, 37.6678183]}, "type": "Feature", "properties": {"old_station_id": "fukushima/kawamata", "hours": "9:00〜18:00 <休 12/31〜1/3>", "pref_id": "7", "name": "川俣", "address": "960-1406 福島県伊達郡川俣町大字鶴沢字東13-1", "uri": "https://www.michi-no-eki.jp/stations/view/232", "station_id": "232"}}, {"geometry": {"type": "Point", "coordinates": [139.7275995, 37.0865496]}, "type": "Feature", "properties": {"old_station_id": "fukushima/tajima", "hours": "7:00〜19:00(12月〜3月は7:00〜18:00まで)", "pref_id": "7", "name": "たじま", "address": "967-0014 福島県南会津郡南会津町糸沢 字男鹿沼原3242-8", "uri": "https://www.michi-no-eki.jp/stations/view/233", "station_id": "233"}}, {"geometry": {"type": "Point", "coordinates": [140.483688, 37.635666]}, "type": "Feature", "properties": {"old_station_id": "fukushima/adachi", "hours": "(上り線)9:00〜18:00、(下り線)8:30〜19:00 〔店舗により異なる〕", "pref_id": "7", "name": "安達", "address": " 上記参照", "uri": "https://www.michi-no-eki.jp/stations/view/234", "station_id": "234"}}, {"geometry": {"type": "Point", "coordinates": [139.8782643, 37.7019379]}, "type": "Feature", "properties": {"old_station_id": "fukushima/kitanosato", "hours": "9:00〜18:00≪夏期・営業時間延長あり≫<休 年末年始>", "pref_id": "7", "name": "喜多の郷", "address": "966-0901 福島県喜多方市松山町鳥見山字三町歩5598-1", "uri": "https://www.michi-no-eki.jp/stations/view/235", "station_id": "235"}}, {"geometry": {"type": "Point", "coordinates": [140.0437534, 37.6650583]}, "type": "Feature", "properties": {"old_station_id": "fukushima/urabandai", "hours": "8:30〜17:30≪冬期・営業時間短縮あり≫<休 11月〜4月の毎週水曜日>", "pref_id": "7", "name": "裏磐梯", "address": "966-0401 福島県耶麻郡北塩原村大字桧原字南黄連沢山1157", "uri": "https://www.michi-no-eki.jp/stations/view/236", "station_id": "236"}}, {"geometry": {"type": "Point", "coordinates": [140.9976258, 37.2500062]}, "type": "Feature", "properties": {"old_station_id": "fukushima/naraha", "hours": "", "pref_id": "7", "name": "ならは", "address": "979-0513 福島県双葉郡楢葉町大字山田岡字大堤入22-1", "uri": "https://www.michi-no-eki.jp/stations/view/237", "station_id": "237"}}, {"geometry": {"type": "Point", "coordinates": [140.9479524, 37.7611089]}, "type": "Feature", "properties": {"old_station_id": "fukushima/soma", "hours": "9:30〜18:00", "pref_id": "7", "name": "そうま", "address": "979-2522 福島県相馬市日下石字金谷74-1", "uri": "https://www.michi-no-eki.jp/stations/view/238", "station_id": "238"}}, {"geometry": {"type": "Point", "coordinates": [140.4145197, 36.9506187]}, "type": "Feature", "properties": {"old_station_id": "fukushima/hanawa", "hours": "9:00〜18:00 <休 1/1>", "pref_id": "7", "name": "はなわ", "address": "963-5405 福島県東白川郡塙町大字塙字桜木町388-1", "uri": "https://www.michi-no-eki.jp/stations/view/239", "station_id": "239"}}, {"geometry": {"type": "Point", "coordinates": [139.7221754, 37.527693]}, "type": "Feature", "properties": {"old_station_id": "fukushima/aizuyanaizu", "hours": "9:00〜18:00 ≪冬期・営業時間短縮あり≫", "pref_id": "7", "name": "会津柳津", "address": "969-7201 福島県河沼郡柳津町字下平乙181-1", "uri": "https://www.michi-no-eki.jp/stations/view/240", "station_id": "240"}}, {"geometry": {"type": "Point", "coordinates": [140.5773494, 37.5699562]}, "type": "Feature", "properties": {"old_station_id": "fukushima/fukushimatowa", "hours": "9:00〜18:00(4/1〜11/30 12/1〜3/31)<休 1/1・1/2・1/25>", "pref_id": "7", "name": "ふくしま東和", "address": "964-0111 福島県二本松市太田字下田2-3", "uri": "https://www.michi-no-eki.jp/stations/view/241", "station_id": "241"}}, {"geometry": {"type": "Point", "coordinates": [139.6425952, 37.5858675]}, "type": "Feature", "properties": {"old_station_id": "fukushima/nishiaizu", "hours": "9:00〜19:00 <休 1/1>", "pref_id": "7", "name": "にしあいづ", "address": "969-4406 福島県耶麻郡西会津町野沢字下條乙1969-26", "uri": "https://www.michi-no-eki.jp/stations/view/242", "station_id": "242"}}, {"geometry": {"type": "Point", "coordinates": [139.670802, 37.4777576]}, "type": "Feature", "properties": {"old_station_id": "fukushima/ozekaido-mishimajuku", "hours": "8:00〜18:00 <休 1/1〜1/3>", "pref_id": "7", "name": "尾瀬街道みしま宿", "address": "969-7515 福島県大沼郡三島町大字川井字天屋原610", "uri": "https://www.michi-no-eki.jp/stations/view/243", "station_id": "243"}}, {"geometry": {"type": "Point", "coordinates": [140.4181372, 37.2228324]}, "type": "Feature", "properties": {"old_station_id": "fukushima/tamakawa", "hours": "8:00〜18:00", "pref_id": "7", "name": "たまかわ", "address": "963-7800 福島県石川郡玉川村大字岩法寺字宮ノ前140-2", "uri": "https://www.michi-no-eki.jp/stations/view/244", "station_id": "244"}}, {"geometry": {"type": "Point", "coordinates": [140.0633922, 37.2399765]}, "type": "Feature", "properties": {"old_station_id": "fukushima/hatorikokogen", "hours": "9:00〜18:00", "pref_id": "7", "name": "羽鳥湖高原", "address": "962-0622 福島県岩瀬郡天栄村大字田良尾字芝草1-3552", "uri": "https://www.michi-no-eki.jp/stations/view/245", "station_id": "245"}}, {"geometry": {"type": "Point", "coordinates": [140.983582, 37.635707]}, "type": "Feature", "properties": {"old_station_id": "fukushima/minamisoma", "hours": "9:00〜18:00〔施設により異なる〕", "pref_id": "7", "name": "南相馬", "address": "975-0033 福島県南相馬市原町区高見町2-30-1", "uri": "https://www.michi-no-eki.jp/stations/view/246", "station_id": "246"}}, {"geometry": {"type": "Point", "coordinates": [139.9163428, 37.2035393]}, "type": "Feature", "properties": {"old_station_id": "fukushima/shimogo", "hours": "8:00〜18:00(4月〜11月)、8:00〜17:00(12月〜3月)<休 12/31〜1/1>", "pref_id": "7", "name": "しもごう", "address": "969-5335 福島県南会津郡下郷町大字南倉沢 字木賊844-188", "uri": "https://www.michi-no-eki.jp/stations/view/247", "station_id": "247"}}, {"geometry": {"type": "Point", "coordinates": [140.5600321, 37.2505454]}, "type": "Feature", "properties": {"old_station_id": "fukushima/hirata", "hours": "9:30〜18:00 <休 1/1>", "pref_id": "7", "name": "ひらた", "address": "963-8202 福島県石川郡平田村大字上蓬田字横森後160", "uri": "https://www.michi-no-eki.jp/stations/view/248", "station_id": "248"}}, {"geometry": {"type": "Point", "coordinates": [140.992995, 37.107429]}, "type": "Feature", "properties": {"old_station_id": "fukushima/yotsukurako", "hours": "9:00〜18:00〔施設により異なる〕 <休 1/1、毎月第3火曜日>", "pref_id": "7", "name": "よつくら港", "address": "979-0201 福島県いわき市四倉町5-218-1", "uri": "https://www.michi-no-eki.jp/stations/view/249", "station_id": "249"}}, {"geometry": {"type": "Point", "coordinates": [139.9866329, 37.5628041]}, "type": "Feature", "properties": {"old_station_id": "fukushima/bandai", "hours": "8:00〜20:00、8:00〜19:00(12/1〜3/15) 〔コーナーにより異なる〕", "pref_id": "7", "name": "ばんだい", "address": "969-3301 福島県耶麻郡磐梯町大字磐梯字十王堂38", "uri": "https://www.michi-no-eki.jp/stations/view/250", "station_id": "250"}}, {"geometry": {"type": "Point", "coordinates": [140.5297735, 37.0931301]}, "type": "Feature", "properties": {"old_station_id": "fukushima/furudono", "hours": "9:00〜18:00 <休 年末年始>", "pref_id": "7", "name": "ふるどの", "address": "963-8306 福島県石川郡古殿町大字田口字平舘25", "uri": "https://www.michi-no-eki.jp/stations/view/251", "station_id": "251"}}, {"geometry": {"type": "Point", "coordinates": [139.6154861, 37.0688217]}, "type": "Feature", "properties": {"old_station_id": "fukushima/banya", "hours": "8:00〜17:00<休 毎週火曜日(冬期のみ)、12/29〜1/1>", "pref_id": "7", "name": "番屋", "address": "967-0324 福島県南会津郡南会津町番屋4", "uri": "https://www.michi-no-eki.jp/stations/view/252", "station_id": "252"}}, {"geometry": {"type": "Point", "coordinates": [140.2447857, 37.2436603]}, "type": "Feature", "properties": {"old_station_id": "fukushima/kinosatotenei", "hours": "9:00〜18:00 <休 12/31〜1/3>", "pref_id": "7", "name": "季の里天栄", "address": "962-0504 福島県岩瀬郡天栄村大字大里字天房50-1", "uri": "https://www.michi-no-eki.jp/stations/view/253", "station_id": "253"}}, {"geometry": {"type": "Point", "coordinates": [139.5426599, 37.2219817]}, "type": "Feature", "properties": {"old_station_id": "fukushima/kirara-289", "hours": "10:00〜20:00(火曜日は10:00〜17:00)", "pref_id": "7", "name": "きらら289", "address": "967-0611 福島県南会津郡南会津町山口字橋尻1", "uri": "https://www.michi-no-eki.jp/stations/view/254", "station_id": "254"}}, {"geometry": {"type": "Point", "coordinates": [139.5305827, 37.4719243]}, "type": "Feature", "properties": {"old_station_id": "fukushima/okuaizukaneyama", "hours": "9:00〜18:30<休 12/30〜1/2>", "pref_id": "7", "name": "奥会津かねやま", "address": "968-0006 福島県大沼郡金山町大字中川字上居平949-8", "uri": "https://www.michi-no-eki.jp/stations/view/255", "station_id": "255"}}, {"geometry": {"type": "Point", "coordinates": [140.5902479, 37.53478]}, "type": "Feature", "properties": {"old_station_id": "fukushima/sakuranosato", "hours": "9:00〜17:00 <休 年始>", "pref_id": "7", "name": "さくらの郷", "address": "964-0301 福島県二本松市東新殿字平石田12-2", "uri": "https://www.michi-no-eki.jp/stations/view/256", "station_id": "256"}}, {"geometry": {"type": "Point", "coordinates": [139.8631361, 37.5569993]}, "type": "Feature", "properties": {"old_station_id": "fukushima/aizu-yugawa-aizubange", "hours": "9:00〜19:00〔施設により異なる〕≪冬期・営業時間変更あり≫ <休 2月第3水曜日>", "pref_id": "7", "name": "あいづ 湯川・会津坂下", "address": "969-3555  福島県河沼郡湯川村大字佐野目字五丁ノ目78-1", "uri": "https://www.michi-no-eki.jp/stations/view/257", "station_id": "257"}}, {"geometry": {"type": "Point", "coordinates": [139.630139, 37.325463]}, "type": "Feature", "properties": {"old_station_id": "fukushima/karamushiorinosato-showa", "hours": "9:00〜17:00 <休 12/29〜1/3>", "pref_id": "7", "name": "からむし織の里しょうわ", "address": "968-0215 福島県大沼郡昭和村大字佐倉字上ノ原1", "uri": "https://www.michi-no-eki.jp/stations/view/258", "station_id": "258"}}, {"geometry": {"type": "Point", "coordinates": [140.107459, 37.538341]}, "type": "Feature", "properties": {"old_station_id": null, "hours": "9:00〜18:00", "pref_id": "7", "name": "猪苗代", "address": "969-3132 福島県耶麻郡猪苗代町大字堅田字五百苅1", "uri": "https://www.michi-no-eki.jp/stations/view/11976", "station_id": "11976"}}, {"geometry": {"type": "Point", "coordinates": [140.545612, 37.872681]}, "type": "Feature", "properties": {"old_station_id": null, "hours": "9:00〜17:30 〔施設により異なる〕※詳細な臨時休業日・営業時間等は下記HPをご確認ください。", "pref_id": "7", "name": "国見 あつかしの郷", "address": "969-1761 福島県伊達郡国見町大字藤田字日渡二18-1", "uri": "https://www.michi-no-eki.jp/stations/view/14134", "station_id": "14134"}}, {"geometry": {"type": "Point", "coordinates": [140.735624, 37.697267]}, "type": "Feature", "properties": {"old_station_id": null, "hours": "10:00〜18:00〔施設により異なる〕 <休 毎週水曜、12/31〜1/3>", "pref_id": "7", "name": "いいたて村の道の駅までい館", "address": "960-1802 福島県相馬郡飯舘村深谷字深谷前12-1", "uri": "https://www.michi-no-eki.jp/stations/view/14157", "station_id": "14157"}}, {"geometry": {"type": "Point", "coordinates": [139.395721, 37.032756]}, "type": "Feature", "properties": {"old_station_id": null, "hours": "8:30〜18:00〔施設・季節により異なる〕 <休 年末年始>", "pref_id": "7", "name": "尾瀬檜枝岐", "address": "967-0527 福島県南会津郡檜枝岐村字見通1136-1", "uri": "https://www.michi-no-eki.jp/stations/view/14158", "station_id": "14158"}}, {"geometry": {"type": "Point", "coordinates": [140.58845, 37.766524]}, "type": "Feature", "properties": {"old_station_id": null, "hours": "9:30〜18:00(施設により異なる)", "pref_id": "7", "name": "伊達の郷 りょうぜん", "address": "960-0808 福島県伊達市霊山町下小国字桜町3-1", "uri": "https://www.michi-no-eki.jp/stations/view/14171", "station_id": "14171"}}, {"geometry": {"type": "Point", "coordinates": [139.22301, 37.957911]}, "type": "Feature", "properties": {"old_station_id": "niigata/toyosaka", "hours": "9:00〜17:00", "pref_id": "15", "name": "豊栄", "address": "950-3304 新潟県新潟市北区木崎字切尾山3644-乙", "uri": "https://www.michi-no-eki.jp/stations/view/415", "station_id": "415"}}, {"geometry": {"type": "Point", "coordinates": [139.3724223, 38.0023437]}, "type": "Feature", "properties": {"old_station_id": "niigata/kajikawa", "hours": "9:00〜18:00", "pref_id": "15", "name": "加治川", "address": "959-2411 新潟県新発田市横岡1147", "uri": "https://www.michi-no-eki.jp/stations/view/416", "station_id": "416"}}, {"geometry": {"type": "Point", "coordinates": [139.4610655, 38.1724825]}, "type": "Feature", "properties": {"old_station_id": "niigata/kamihayashi", "hours": "9:00〜16:00", "pref_id": "15", "name": "神林", "address": "959-3423 新潟県村上市九日市809 ", "uri": "https://www.michi-no-eki.jp/stations/view/417", "station_id": "417"}}, {"geometry": {"type": "Point", "coordinates": [139.5224236, 38.2821299]}, "type": "Feature", "properties": {"old_station_id": "niigata/asahi", "hours": "9:00〜18:00(11〜3月は17:30まで)", "pref_id": "15", "name": "朝日", "address": "958-0261 新潟県村上市猿沢1215", "uri": "https://www.michi-no-eki.jp/stations/view/418", "station_id": "418"}}, {"geometry": {"type": "Point", "coordinates": [139.020212, 37.866345]}, "type": "Feature", "properties": {"old_station_id": "niigata/niigatafurusatomura", "hours": "アピール館 9:00〜17:00(夏期延長有り) / バザール館 9:30〜17:30(大型連休時延長有り)", "pref_id": "15", "name": "新潟ふるさと村", "address": "950-1101 新潟県新潟市西区山田2307", "uri": "https://www.michi-no-eki.jp/stations/view/419", "station_id": "419"}}, {"geometry": {"type": "Point", "coordinates": [138.003775, 37.113566]}, "type": "Feature", "properties": {"old_station_id": "niigata/no", "hours": "9:00〜16:30", "pref_id": "15", "name": "能生", "address": "949-1351 新潟県糸魚川市大字能生小泊3596-2", "uri": "https://www.michi-no-eki.jp/stations/view/420", "station_id": "420"}}, {"geometry": {"type": "Point", "coordinates": [139.3600965, 37.7177569]}, "type": "Feature", "properties": {"old_station_id": "ehime/mikawa-2", "hours": "11:00〜17:00", "pref_id": "15", "name": "みかわ", "address": "959-4627 新潟県東蒲原郡阿賀町岩谷2865", "uri": "https://www.michi-no-eki.jp/stations/view/421", "station_id": "421"}}, {"geometry": {"type": "Point", "coordinates": [139.567001, 38.091473]}, "type": "Feature", "properties": {"old_station_id": "niigata/sekikawa", "hours": "8:30〜17:00", "pref_id": "15", "name": "関川", "address": "959-3264 新潟県岩船郡関川村大字上関1252-1", "uri": "https://www.michi-no-eki.jp/stations/view/422", "station_id": "422"}}, {"geometry": {"type": "Point", "coordinates": [138.822908, 37.305143]}, "type": "Feature", "properties": {"old_station_id": "niigata/chijiminosatojiya", "hours": "10:00〜22:00", "pref_id": "15", "name": "ちぢみの里おぢや", "address": "947-0003 新潟県小千谷市稗生甲1670-1", "uri": "https://www.michi-no-eki.jp/stations/view/423", "station_id": "423"}}, {"geometry": {"type": "Point", "coordinates": [139.3071892, 37.7380141]}, "type": "Feature", "properties": {"old_station_id": "niigata/aganosato", "hours": "9:00〜17:00 (12月〜3月は9:00〜16:00) ", "pref_id": "15", "name": "阿賀の里", "address": "959-4636 新潟県東蒲原郡阿賀町石間4301", "uri": "https://www.michi-no-eki.jp/stations/view/424", "station_id": "424"}}, {"geometry": {"type": "Point", "coordinates": [139.4585211, 38.3751788]}, "type": "Feature", "properties": {"old_station_id": "niigata/sasagawanagare", "hours": "9:00〜17:30", "pref_id": "15", "name": "笹川流れ", "address": "959-3665 新潟県村上市桑川892-5 ", "uri": "https://www.michi-no-eki.jp/stations/view/425", "station_id": "425"}}, {"geometry": {"type": "Point", "coordinates": [138.6787088, 37.5388864]}, "type": "Feature", "properties": {"old_station_id": "niigata/echigoizumozaki-tenryonosato", "hours": "9:00〜17:00", "pref_id": "15", "name": "越後出雲崎 天領の里", "address": "949-4308 新潟県三島郡出雲崎町大字尼瀬6-57", "uri": "https://www.michi-no-eki.jp/stations/view/426", "station_id": "426"}}, {"geometry": {"type": "Point", "coordinates": [139.4529738, 38.0634898]}, "type": "Feature", "properties": {"old_station_id": "niigata/tainai", "hours": "9:00〜18:00", "pref_id": "15", "name": "胎内", "address": "959-2806 新潟県胎内市下赤谷387-1", "uri": "https://www.michi-no-eki.jp/stations/view/427", "station_id": "427"}}, {"geometry": {"type": "Point", "coordinates": [138.9830342, 37.2238403]},